{"requestParameters":{"date":"2018/04/02","walkSpeed":"1.33","walkReluctance":"2.0","fromPlace":"48.443962,-70.998409","maxWalkDistance":"3000","waitReluctance":"1.0","carSpeed":"33","numItineraries":"3","waitAtBeginningFactor":"0.4","mode":"TRANSIT,WALK","ignoreRealtimeUpdates":"false","stairsReluctance":"2.0","toPlace":"48.394886,-71.06302499","time":"10:0:00"},"plan":{"date":1522677600000,"from":{"name":"Origin","lon":-70.998409,"lat":48.443962,"orig":"","vertexType":"NORMAL"},"to":{"name":"Destination","lon":-71.06302499,"lat":48.394886,"orig":"","vertexType":"NORMAL"},"itineraries":[{"duration":4544,"startTime":1522679299000,"endTime":1522683843000,"walkTime":2269,"transitTime":2033,"waitingTime":242,"walkDistance":2967.562345856972,"walkLimitExceeded":false,"elevationLost":0.0,"elevationGained":0.0,"transfers":1,"legs":[{"startTime":1522679299000,"endTime":1522681395000,"departureDelay":0,"arrivalDelay":0,"realTime":false,"distance":2750.357000000001,"pathway":false,"mode":"WALK","route":"","agencyTimeZoneOffset":-14400000,"interlineWithPreviousLeg":false,"from":{"name":"Origin","lon":-70.998409,"lat":48.443962,"departure":1522679299000,"orig":"","vertexType":"NORMAL"},"to":{"name":"nouveau","stopId":"1:2303","stopCode":"2303","lon":-71.02291,"lat":48.432276,"arrival":1522681395000,"departure":1522681396000,"zoneId":"NA","stopIndex":24,"stopSequence":25,"vertexType":"TRANSIT"},"legGeometry":{"points":"gttfH|{ipLV_BNo@|AmCBBrEnDtAdB`FxJhBbHn@`E^xEXpEHh@\\lC^xAv@bDm@tA{@lCa@zA{@~CUvA?j@TpBh@|DnAtItBfKj@xBf@tA`BfF|@dCx@vAXVhAbAVDf@Pv@\\\\LJDt@^p@v@r@x@hApAZ\\~@lBp@nAT`@XpAlAxEx@uA\\w@`@kAdAzA@?","length":53},"rentedBike":false,"transitLeg":false,"duration":2096.0,"steps":[{"distance":131.948,"relativeDirection":"DEPART","streetName":"Chemin du Littoral","absoluteDirection":"EAST","stayOn":false,"area":false,"bogusName":false,"lon":-70.99854594898123,"lat":48.443724064303495,"elevation":[]},{"distance":923.407,"relativeDirection":"RIGHT","streetName":"Rang Saint-Martin","absoluteDirection":"SOUTHWEST","stayOn":false,"area":false,"bogusName":false,"lon":-70.9971124,"lat":48.443052,"elevation":[]},{"distance":1537.165,"relativeDirection":"RIGHT","streetName":"Boulevard Renaud","absoluteDirection":"NORTHWEST","stayOn":false,"area":false,"bogusName":false,"lon":-71.00717900000001,"lat":48.4387108,"elevation":[]},{"distance":105.887,"relativeDirection":"LEFT","streetName":"Rue du Perche","absoluteDirection":"SOUTHEAST","stayOn":false,"area":false,"bogusName":false,"lon":-71.0234782,"lat":48.433204200000006,"elevation":[]},{"distance":51.95,"relativeDirection":"RIGHT","streetName":"Rue Arthur-Hamel","absoluteDirection":"SOUTHWEST","stayOn":false,"area":false,"bogusName":false,"lon":-71.02238460000001,"lat":48.4325922,"elevation":[]}]},{"startTime":1522681396000,"endTime":1522681860000,"departureDelay":0,"arrivalDelay":0,"realTime":false,"distance":3308.741766648229,"pathway":false,"mode":"BUS","route":"12","agencyName":"Société de Transport du Saguenay","agencyUrl":"http://ville.saguenay.ca/fr/services-aux-citoyens/transport-sts","agencyTimeZoneOffset":-14400000,"routeColor":"556B2F","routeType":3,"routeId":"1:12","routeTextColor":"FFFFFF","interlineWithPreviousLeg":false,"tripBlockId":"29","headsign":"Terminus Chicoutimi","agencyId":"0","tripId":"1:218060","serviceDate":"20180402","from":{"name":"nouveau","stopId":"1:2303","stopCode":"2303","lon":-71.02291,"lat":48.432276,"arrival":1522681395000,"departure":1522681396000,"zoneId":"NA","stopIndex":24,"stopSequence":25,"vertexType":"TRANSIT"},"to":{"name":"Terminus Chicoutimi","stopId":"1:1289","stopCode":"1289","lon":-71.066163,"lat":48.428677,"arrival":1522681860000,"departure":1522682100000,"zoneId":"NA","stopIndex":33,"stopSequence":34,"vertexType":"TRANSIT"},"legGeometry":{"points":"qlrfH|snpLfM|O|FlHmB`IgA|Cy@`UYzHZvMR~Hr@~ZPvHsCrMFxf@|ApJj@nDDl]BvZdCXJhC","length":19},"routeShortName":"12","routeLongName":"Rivière du Moulin","rentedBike":false,"transitLeg":true,"duration":464.0,"steps":[]},{"startTime":1522682100000,"endTime":1522683669000,"departureDelay":0,"arrivalDelay":0,"realTime":false,"distance":8223.701535732142,"pathway":false,"mode":"BUS","route":"15","agencyName":"Société de Transport du Saguenay","agencyUrl":"http://ville.saguenay.ca/fr/services-aux-citoyens/transport-sts","agencyTimeZoneOffset":-14400000,"routeColor":"FF00FF","routeType":3,"routeId":"1:15","routeTextColor":"FFFFFF","interlineWithPreviousLeg":false,"tripBlockId":"33","headsign":"Talbot / Barrette","agencyId":"0","tripId":"1:218181","serviceDate":"20180402","from":{"name":"Terminus Chicoutimi","stopId":"1:1289","stopCode":"1289","lon":-71.066163,"lat":48.428677,"arrival":1522681860000,"departure":1522682100000,"zoneId":"NA","stopIndex":0,"stopSequence":1,"vertexType":"TRANSIT"},"to":{"name":"Roitelets / Harfangs","stopId":"1:41","stopCode":"41","lon":-71.062016,"lat":48.393522,"arrival":1522683669000,"departure":1522683670000,"zoneId":"NA","stopIndex":33,"stopSequence":34,"vertexType":"TRANSIT"},"legGeometry":{"points":"evqfHpbwpLPiCjKx@HiEZkS\\aSN_K^eIrBpBvIpIr@r@\\mBfAaA`@gBOkB_@uF|DyL|DpDQ|@|@z@bA`ATw@dD~Ch@fA@`E~AjGuH`Iy@bBi@dCbEdEjJlJ`HbHlJpJ|J~JdAfALzDNzDrAdBrEKvBEbCv@d@TvFlC|DlBpMlGrB`AM}@hAwEC{B]oBiBmBsH_@_K{H`EgIvCaGfEoItDsH~DeItC{FnBoLbCaO?qLa@uJzF`ApF~@~@PzAgEeDcBf@qAWcKUqEx@Ef@ExDVjDxAFBrBvAfGjG@BjCzC~DxC@@zA~Cb@fCJlC?BsBre@?DWbOAn@","length":90},"routeShortName":"15","routeLongName":"Term. Chic / Costco","rentedBike":false,"transitLeg":true,"duration":1569.0,"steps":[]},{"startTime":1522683670000,"endTime":1522683843000,"departureDelay":0,"arrivalDelay":0,"realTime":false,"distance":216.967,"pathway":false,"mode":"WALK","route":"","agencyTimeZoneOffset":-14400000,"interlineWithPreviousLeg":false,"from":{"name":"Roitelets / Harfangs","stopId":"1:41","stopCode":"41","lon":-71.062016,"lat":48.393522,"arrival":1522683669000,"departure":1522683670000,"zoneId":"NA","stopIndex":33,"stopSequence":34,"vertexType":"TRANSIT"},"to":{"name":"Destination","lon":-71.06302499,"lat":48.394886,"arrival":1522683843000,"orig":"","vertexType":"NORMAL"},"legGeometry":{"points":"{zjfHrhvpLCtB?l@ICqFCKh@","length":6},"rentedBike":false,"transitLeg":false,"duration":173.0,"steps":[{"distance":60.612,"relativeDirection":"DEPART","streetName":"bike path","absoluteDirection":"WEST","stayOn":false,"area":false,"bogusName":true,"lon":-71.06201246040693,"lat":48.39358810555136,"elevation":[]},{"distance":5.738,"relativeDirection":"RIGHT","streetName":"path","absoluteDirection":"NORTH","stayOn":true,"area":false,"bogusName":true,"lon":-71.062833,"lat":48.393602200000004,"elevation":[]},{"distance":134.231,"relativeDirection":"CONTINUE","streetName":"Rue des Passerins","absoluteDirection":"NORTH","stayOn":false,"area":false,"bogusName":false,"lon":-71.0628185,"lat":48.393652900000006,"elevation":[]},{"distance":16.386,"relativeDirection":"LEFT","streetName":"Rue des Merlebleus","absoluteDirection":"NORTHWEST","stayOn":false,"area":false,"bogusName":false,"lon":-71.0627992,"lat":48.39486,"elevation":[]}]}],"tooSloped":false},{"duration":5214,"startTime":1522678701000,"endTime":1522683915000,"walkTime":2269,"transitTime":2403,"waitingTime":542,"walkDistance":2966.7480300667335,"walkLimitExceeded":false,"elevationLost":0.0,"elevationGained":0.0,"transfers":1,"legs":[{"startTime":1522678701000,"endTime":1522680797000,"departureDelay":0,"arrivalDelay":0,"realTime":false,"distance":2749.5190000000002,"pathway":false,"mode":"WALK","route":"","agencyTimeZoneOffset":-14400000,"interlineWithPreviousLeg":false,"from":{"name":"Origin","lon":-70.998409,"lat":48.443962,"departure":1522678701000,"orig":"","vertexType":"NORMAL"},"to":{"name":"Perche / Aunis","stopId":"1:1528","stopCode":"1528","lon":-71.021111,"lat":48.432004,"arrival":1522680797000,"departure":1522680798000,"zoneId":"NA","stopIndex":15,"stopSequence":16,"vertexType":"TRANSIT"},"legGeometry":{"points":"gttfH|{ipLV_BNo@|AmCBBrEnDtAdB`FxJhBbHn@`E^xEXpEHh@\\lC^xAv@bDm@tA{@lCa@zA{@~CUvA?j@TpBh@|DnAtItBfKj@xBf@tA`BfF|@dCx@vAXVhAbAVDf@Pv@\\\\LJDt@^p@v@r@x@hApAZ\\~@lBp@nAT`@XpAf@e@Rc@pBmGxBbBHU","length":52},"rentedBike":false,"transitLeg":false,"duration":2096.0,"steps":[{"distance":131.948,"relativeDirection":"DEPART","streetName":"Chemin du Littoral","absoluteDirection":"EAST","stayOn":false,"area":false,"bogusName":false,"lon":-70.99854594898123,"lat":48.443724064303495,"elevation":[]},{"distance":923.407,"relativeDirection":"RIGHT","streetName":"Rang Saint-Martin","absoluteDirection":"SOUTHWEST","stayOn":false,"area":false,"bogusName":false,"lon":-70.9971124,"lat":48.443052,"elevation":[]},{"distance":1445.9479999999999,"relativeDirection":"RIGHT","streetName":"Boulevard Renaud","absoluteDirection":"NORTHWEST","stayOn":false,"area":false,"bogusName":false,"lon":-71.00717900000001,"lat":48.4387108,"elevation":[]},{"distance":161.902,"relativeDirection":"LEFT","streetName":"Rue du Poitou","absoluteDirection":"SOUTHEAST","stayOn":false,"area":false,"bogusName":false,"lon":-71.02238820000001,"lat":48.433591400000005,"elevation":[]},{"distance":77.065,"relativeDirection":"RIGHT","streetName":"Rue d'Aunis","absoluteDirection":"SOUTHWEST","stayOn":false,"area":false,"bogusName":false,"lon":-71.020663,"lat":48.432720100000004,"elevation":[]},{"distance":9.249,"relativeDirection":"LEFT","streetName":"Rue du Perche","absoluteDirection":"SOUTHEAST","stayOn":false,"area":false,"bogusName":false,"lon":-71.0211608,"lat":48.432110800000004,"elevation":[]}]},{"startTime":1522680798000,"endTime":1522681980000,"departureDelay":0,"arrivalDelay":0,"realTime":false,"distance":7596.142924873239,"pathway":false,"mode":"BUS","route":"12","agencyName":"Société de Transport du Saguenay","agencyUrl":"http://ville.saguenay.ca/fr/services-aux-citoyens/transport-sts","agencyTimeZoneOffset":-14400000,"routeColor":"556B2F","routeType":3,"routeId":"1:12","routeTextColor":"FFFFFF","interlineWithPreviousLeg":false,"tripBlockId":"27","headsign":"Terminus UQAC","agencyId":"0","tripId":"1:218008","serviceDate":"20180402","from":{"name":"Perche / Aunis","stopId":"1:1528","stopCode":"1528","lon":-71.021111,"lat":48.432004,"arrival":1522680797000,"departure":1522680798000,"zoneId":"NA","stopIndex":15,"stopSequence":16,"vertexType":"TRANSIT"},"to":{"name":"Terminus UQAC","stopId":"1:1670","stopCode":"1670","lon":-71.053369,"lat":48.420903,"arrival":1522681980000,"departure":1522682520000,"zoneId":"NA","stopIndex":39,"stopSequence":40,"vertexType":"TRANSIT"},"legGeometry":{"points":"_krfH~hnpLvGsKlIrH`JlH`EfDnOdIdGlGjL|BzBiLv@}L`b@fNvVvrCdRvMcAjKcP~b@iHhDaGz@uSl[uCYmIeIeJ_J{J{JwCiThFaQhC`E","length":25},"routeShortName":"12","routeLongName":"Rivière du Moulin","rentedBike":false,"transitLeg":true,"duration":1182.0,"steps":[]},{"startTime":1522682520000,"endTime":1522683660000,"departureDelay":0,"arrivalDelay":0,"realTime":false,"distance":7716.343859399078,"pathway":false,"mode":"BUS","route":"14","agencyName":"Société de Transport du Saguenay","agencyUrl":"http://ville.saguenay.ca/fr/services-aux-citoyens/transport-sts","agencyTimeZoneOffset":-14400000,"routeColor":"C0C000","routeType":3,"routeId":"1:14","routeTextColor":"000000","interlineWithPreviousLeg":false,"tripBlockId":"32","headsign":"Talbot / Barrette","agencyId":"0","tripId":"1:218156","serviceDate":"20180402","from":{"name":"Terminus UQAC","stopId":"1:1670","stopCode":"1670","lon":-71.053369,"lat":48.420903,"arrival":1522681980000,"departure":1522682520000,"zoneId":"NA","stopIndex":8,"stopSequence":9,"vertexType":"TRANSIT"},"to":{"name":"Roitelets / Sapins","stopId":"1:1543","stopCode":"1543","lon":-71.069553,"lat":48.393375,"arrival":1522683660000,"departure":1522683660000,"zoneId":"NA","stopIndex":35,"stopSequence":36,"vertexType":"TRANSIT"},"legGeometry":{"points":"sepfHrrtpLdA`ATq@`E~DL`@E`Ex@hDd@`B}FtFaAzAm@xAe@jCa@nDiAbm@SpKM`H]vBhDVzCTcAvCO^bEbEzK`LfBeEtK`KhAdAnCbCvBpCNR~BxAxBf@z@h@vAz@z@{DrCoITTlElEtAnB`@l@pFrD@?fDr@XgAjFuR\\yADm@b@gFd@_B`A}@tEvJBDvC`FtJ|LLNlClC|@^hCYVExCjCb@d@vE`F`BhB?pHaBhRqAbLK~@qBxFqB|FcC~GyC\\aDkDcFsF~CgOtGm[j@oCvEoSl@_CxCmLjAeFpCeKrByHfAqCvH_SLa@","length":84},"routeShortName":"14","routeLongName":"Coopérative","rentedBike":false,"transitLeg":true,"duration":1140.0,"steps":[]},{"startTime":1522683660000,"endTime":1522683741000,"departureDelay":0,"arrivalDelay":0,"realTime":false,"distance":557.0917727283382,"pathway":false,"mode":"BUS","route":"15","agencyName":"Société de Transport du Saguenay","agencyUrl":"http://ville.saguenay.ca/fr/services-aux-citoyens/transport-sts","agencyTimeZoneOffset":-14400000,"routeColor":"FF00FF","routeType":3,"routeId":"1:15","routeTextColor":"FFFFFF","interlineWithPreviousLeg":true,"tripBlockId":"32","headsign":"Terminus Chicoutimi","agencyId":"0","tripId":"1:218157","serviceDate":"20180402","from":{"name":"Roitelets / Sapins","stopId":"1:1543","stopCode":"1543","lon":-71.069553,"lat":48.393375,"arrival":1522683660000,"departure":1522683660000,"zoneId":"NA","stopIndex":0,"stopSequence":1,"vertexType":"TRANSIT"},"to":{"name":"Roitelets / Harfangs","stopId":"1:41","stopCode":"41","lon":-71.062016,"lat":48.393522,"arrival":1522683741000,"departure":1522683742000,"zoneId":"NA","stopIndex":2,"stopSequence":3,"vertexType":"TRANSIT"},"legGeometry":{"points":"_zjfHfwwpLx@}BHa@NaADq@@y@Cy@I{@Ka@O[Sg@c@mAWwAMyA?EC]?wABuABmFB{@BmD","length":21},"routeShortName":"15","routeLongName":"Term. Chic / Costco","rentedBike":false,"transitLeg":true,"duration":81.0,"steps":[]},{"startTime":1522683742000,"endTime":1522683915000,"departureDelay":0,"arrivalDelay":0,"realTime":false,"distance":216.967,"pathway":false,"mode":"WALK","route":"","agencyTimeZoneOffset":-14400000,"interlineWithPreviousLeg":false,"from":{"name":"Roitelets / Harfangs","stopId":"1:41","stopCode":"41","lon":-71.062016,"lat":48.393522,"arrival":1522683741000,"departure":1522683742000,"zoneId":"NA","stopIndex":2,"stopSequence":3,"vertexType":"TRANSIT"},"to":{"name":"Destination","lon":-71.06302499,"lat":48.394886,"arrival":1522683915000,"orig":"","vertexType":"NORMAL"},"legGeometry":{"points":"{zjfHrhvpLCtB?l@ICqFCKh@","length":6},"rentedBike":false,"transitLeg":false,"duration":173.0,"steps":[{"distance":60.612,"relativeDirection":"DEPART","streetName":"bike path","absoluteDirection":"WEST","stayOn":false,"area":false,"bogusName":true,"lon":-71.06201246040693,"lat":48.39358810555136,"elevation":[]},{"distance":5.738,"relativeDirection":"RIGHT","streetName":"path","absoluteDirection":"NORTH","stayOn":true,"area":false,"bogusName":true,"lon":-71.062833,"lat":48.393602200000004,"elevation":[]},{"distance":134.231,"relativeDirection":"CONTINUE","streetName":"Rue des Passerins","absoluteDirection":"NORTH","stayOn":false,"area":false,"bogusName":false,"lon":-71.0628185,"lat":48.393652900000006,"elevation":[]},{"distance":16.386,"relativeDirection":"LEFT","streetName":"Rue des Merlebleus","absoluteDirection":"NORTHWEST","stayOn":false,"area":false,"bogusName":false,"lon":-71.0627992,"lat":48.39486,"elevation":[]}]}],"tooSloped":false},{"duration":4544,"startTime":1522681099000,"endTime":1522685643000,"walkTime":2269,"transitTime":2033,"waitingTime":242,"walkDistance":2967.562345856972,"walkLimitExceeded":false,"elevationLost":0.0,"elevationGained":0.0,"transfers":1,"legs":[{"startTime":1522681099000,"endTime":1522683195000,"departureDelay":0,"arrivalDelay":0,"realTime":false,"distance":2750.357000000001,"pathway":false,"mode":"WALK","route":"","agencyTimeZoneOffset":-14400000,"interlineWithPreviousLeg":false,"from":{"name":"Origin","lon":-70.998409,"lat":48.443962,"departure":1522681099000,"orig":"","vertexType":"NORMAL"},"to":{"name":"nouveau","stopId":"1:2303","stopCode":"2303","lon":-71.02291,"lat":48.432276,"arrival":1522683195000,"departure":1522683196000,"zoneId":"NA","stopIndex":24,"stopSequence":25,"vertexType":"TRANSIT"},"legGeometry":{"points":"gttfH|{ipLV_BNo@|AmCBBrEnDtAdB`FxJhBbHn@`E^xEXpEHh@\\lC^xAv@bDm@tA{@lCa@zA{@~CUvA?j@TpBh@|DnAtItBfKj@xBf@tA`BfF|@dCx@vAXVhAbAVDf@Pv@\\\\LJDt@^p@v@r@x@hApAZ\\~@lBp@nAT`@XpAlAxEx@uA\\w@`@kAdAzA@?","length":53},"rentedBike":false,"transitLeg":false,"duration":2096.0,"steps":[{"distance":131.948,"relativeDirection":"DEPART","streetName":"Chemin du Littoral","absoluteDirection":"EAST","stayOn":false,"area":false,"bogusName":false,"lon":-70.99854594898123,"lat":48.443724064303495,"elevation":[]},{"distance":923.407,"relativeDirection":"RIGHT","streetName":"Rang Saint-Martin","absoluteDirection":"SOUTHWEST","stayOn":false,"area":false,"bogusName":false,"lon":-70.9971124,"lat":48.443052,"elevation":[]},{"distance":1537.165,"relativeDirection":"RIGHT","streetName":"Boulevard Renaud","absoluteDirection":"NORTHWEST","stayOn":false,"area":false,"bogusName":false,"lon":-71.00717900000001,"lat":48.4387108,"elevation":[]},{"distance":105.887,"relativeDirection":"LEFT","streetName":"Rue du Perche","absoluteDirection":"SOUTHEAST","stayOn":false,"area":false,"bogusName":false,"lon":-71.0234782,"lat":48.433204200000006,"elevation":[]},{"distance":51.95,"relativeDirection":"RIGHT","streetName":"Rue Arthur-Hamel","absoluteDirection":"SOUTHWEST","stayOn":false,"area":false,"bogusName":false,"lon":-71.02238460000001,"lat":48.4325922,"elevation":[]}]},{"startTime":1522683196000,"endTime":1522683660000,"departureDelay":0,"arrivalDelay":0,"realTime":false,"distance":3308.741766648229,"pathway":false,"mode":"BUS","route":"12","agencyName":"Société de Transport du Saguenay","agencyUrl":"http://ville.saguenay.ca/fr/services-aux-citoyens/transport-sts","agencyTimeZoneOffset":-14400000,"routeColor":"556B2F","routeType":3,"routeId":"1:12","routeTextColor":"FFFFFF","interlineWithPreviousLeg":false,"tripBlockId":"26","headsign":"Terminus Chicoutimi","agencyId":"0","tripId":"1:217973","serviceDate":"20180402","from":{"name":"nouveau","stopId":"1:2303","stopCode":"2303","lon":-71.02291,"lat":48.432276,"arrival":1522683195000,"departure":1522683196000,"zoneId":"NA","stopIndex":24,"stopSequence":25,"vertexType":"TRANSIT"},"to":{"name":"Terminus Chicoutimi","stopId":"1:1289","stopCode":"1289","lon":-71.066163,"lat":48.428677,"arrival":1522683660000,"departure":1522683900000,"zoneId":"NA","stopIndex":33,"stopSequence":34,"vertexType":"TRANSIT"},"legGeometry":{"points":"qlrfH|snpLfM|O|FlHmB`IgA|Cy@`UYzHZvMR~Hr@~ZPvHsCrMFxf@|ApJj@nDDl]BvZdCXJhC","length":19},"routeShortName":"12","routeLongName":"Rivière du Moulin","rentedBike":false,"transitLeg":true,"duration":464.0,"steps":[]},{"startTime":1522683900000,"endTime":1522685469000,"departureDelay":0,"arrivalDelay":0,"realTime":false,"distance":8223.701535732142,"pathway":false,"mode":"BUS","route":"15","agencyName":"Société de Transport du Saguenay","agencyUrl":"http://ville.saguenay.ca/fr/services-aux-citoyens/transport-sts","agencyTimeZoneOffset":-14400000,"routeColor":"FF00FF","routeType":3,"routeId":"1:15","routeTextColor":"FFFFFF","interlineWithPreviousLeg":false,"tripBlockId":"31","headsign":"Talbot / Barrette","agencyId":"0","tripId":"1:218132","serviceDate":"20180402","from":{"name":"Terminus Chicoutimi","stopId":"1:1289","stopCode":"1289","lon":-71.066163,"lat":48.428677,"arrival":1522683660000,"departure":1522683900000,"zoneId":"NA","stopIndex":0,"stopSequence":1,"vertexType":"TRANSIT"},"to":{"name":"Roitelets / Harfangs","stopId":"1:41","stopCode":"41","lon":-71.062016,"lat":48.393522,"arrival":1522685469000,"departure":1522685470000,"zoneId":"NA","stopIndex":33,"stopSequence":34,"vertexType":"TRANSIT"},"legGeometry":{"points":"evqfHpbwpLPiCjKx@HiEZkS\\aSN_K^eIrBpBvIpIr@r@\\mBfAaA`@gBOkB_@uF|DyL|DpDQ|@|@z@bA`ATw@dD~Ch@fA@`E~AjGuH`Iy@bBi@dCbEdEjJlJ`HbHlJpJ|J~JdAfALzDNzDrAdBrEKvBEbCv@d@TvFlC|DlBpMlGrB`AM}@hAwEC{B]oBiBmBsH_@_K{H`EgIvCaGfEoItDsH~DeItC{FnBoLbCaO?qLa@uJzF`ApF~@~@PzAgEeDcBf@qAWcKUqEx@Ef@ExDVjDxAFBrBvAfGjG@BjCzC~DxC@@zA~Cb@fCJlC?BsBre@?DWbOAn@","length":90},"routeShortName":"15","routeLongName":"Term. Chic / Costco","rentedBike":false,"transitLeg":true,"duration":1569.0,"steps":[]},{"startTime":1522685470000,"endTime":1522685643000,"departureDelay":0,"arrivalDelay":0,"realTime":false,"distance":216.967,"pathway":false,"mode":"WALK","route":"","agencyTimeZoneOffset":-14400000,"interlineWithPreviousLeg":false,"from":{"name":"Roitelets / Harfangs","stopId":"1:41","stopCode":"41","lon":-71.062016,"lat":48.393522,"arrival":1522685469000,"departure":1522685470000,"zoneId":"NA","stopIndex":33,"stopSequence":34,"vertexType":"TRANSIT"},"to":{"name":"Destination","lon":-71.06302499,"lat":48.394886,"arrival":1522685643000,"orig":"","vertexType":"NORMAL"},"legGeometry":{"points":"{zjfHrhvpLCtB?l@ICqFCKh@","length":6},"rentedBike":false,"transitLeg":false,"duration":173.0,"steps":[{"distance":60.612,"relativeDirection":"DEPART","streetName":"bike path","absoluteDirection":"WEST","stayOn":false,"area":false,"bogusName":true,"lon":-71.06201246040693,"lat":48.39358810555136,"elevation":[]},{"distance":5.738,"relativeDirection":"RIGHT","streetName":"path","absoluteDirection":"NORTH","stayOn":true,"area":false,"bogusName":true,"lon":-71.062833,"lat":48.393602200000004,"elevation":[]},{"distance":134.231,"relativeDirection":"CONTINUE","streetName":"Rue des Passerins","absoluteDirection":"NORTH","stayOn":false,"area":false,"bogusName":false,"lon":-71.0628185,"lat":48.393652900000006,"elevation":[]},{"distance":16.386,"relativeDirection":"LEFT","streetName":"Rue des Merlebleus","absoluteDirection":"NORTHWEST","stayOn":false,"area":false,"bogusName":false,"lon":-71.0627992,"lat":48.39486,"elevation":[]}]}],"tooSloped":false}]},"debugOutput":{"precalculationTime":10,"pathCalculationTime":17,"pathTimes":[5,8,4],"renderingTime":1,"totalTime":28,"timedOut":false},"elevationMetadata":{"ellipsoidToGeoidDifference":-28.885904201182168,"geoidElevation":false}}