{"requestParameters":{"date":"2018/04/02","walkSpeed":"1.33","walkReluctance":"2.0","fromPlace":"48.407113,-71.093793","maxWalkDistance":"3000","waitReluctance":"1.0","carSpeed":"33","numItineraries":"3","waitAtBeginningFactor":"0.4","mode":"TRANSIT,WALK","ignoreRealtimeUpdates":"false","stairsReluctance":"2.0","toPlace":"48.416382,-71.071111","time":"8:30:00"},"plan":{"date":1522672200000,"from":{"name":"Origin","lon":-71.093793,"lat":48.407113,"orig":"","vertexType":"NORMAL"},"to":{"name":"Destination","lon":-71.071111,"lat":48.416382,"orig":"","vertexType":"NORMAL"},"itineraries":[{"duration":1671,"startTime":1522672258000,"endTime":1522673929000,"walkTime":1130,"transitTime":539,"waitingTime":2,"walkDistance":1450.3598120244349,"walkLimitExceeded":false,"elevationLost":0.0,"elevationGained":0.0,"transfers":0,"legs":[{"startTime":1522672258000,"endTime":1522673065000,"departureDelay":0,"arrivalDelay":0,"realTime":false,"distance":1041.6960000000001,"pathway":false,"mode":"WALK","route":"","agencyTimeZoneOffset":-14400000,"interlineWithPreviousLeg":false,"from":{"name":"Origin","lon":-71.093793,"lat":48.407113,"departure":1522672258000,"orig":"","vertexType":"NORMAL"},"to":{"name":"Malraux / Pagnol","stopId":"1:441","stopCode":"441","lon":-71.09356,"lat":48.400447,"arrival":1522673065000,"departure":1522673066000,"zoneId":"NA","stopIndex":6,"stopSequence":7,"vertexType":"TRANSIT"},"legGeometry":{"points":"}nmfHjn|pLZ`@lB|B|@dAl@t@~@bAj@n@`@d@h@n@fAjAPTnAxANPrCsHFQx@uBzEwM@?`@kAjFzFDD","length":21},"rentedBike":false,"transitLeg":false,"duration":807.0,"steps":[{"distance":427.58,"relativeDirection":"DEPART","streetName":"Boulevard Saint-Paul","absoluteDirection":"SOUTHWEST","stayOn":false,"area":false,"bogusName":false,"lon":-71.09365169988389,"lat":48.407036300717316,"elevation":[]},{"distance":449.30899999999997,"relativeDirection":"LEFT","streetName":"Boulevard Barrette","absoluteDirection":"SOUTHEAST","stayOn":false,"area":false,"bogusName":false,"lon":-71.0971116,"lat":48.4039529,"elevation":[]},{"distance":164.807,"relativeDirection":"RIGHT","streetName":"Rue Malraux","absoluteDirection":"SOUTHWEST","stayOn":false,"area":false,"bogusName":false,"lon":-71.0921587,"lat":48.401604500000005,"elevation":[]}]},{"startTime":1522673066000,"endTime":1522673605000,"departureDelay":0,"arrivalDelay":0,"realTime":false,"distance":3932.0415018911463,"pathway":false,"mode":"BUS","route":"14","agencyName":"Société de Transport du Saguenay","agencyUrl":"http://ville.saguenay.ca/fr/services-aux-citoyens/transport-sts","agencyTimeZoneOffset":-14400000,"routeColor":"C0C000","routeType":3,"routeId":"1:14","routeTextColor":"000000","interlineWithPreviousLeg":false,"tripBlockId":"33","headsign":"Terminus Chicoutimi","agencyId":"0","tripId":"1:218176","serviceDate":"20180402","from":{"name":"Malraux / Pagnol","stopId":"1:441","stopCode":"441","lon":-71.09356,"lat":48.400447,"arrival":1522673065000,"departure":1522673066000,"zoneId":"NA","stopIndex":6,"stopSequence":7,"vertexType":"TRANSIT"},"to":{"name":"Boily / Oblats","stopId":"1:549","stopCode":"549","lon":-71.075339,"lat":48.416894,"arrival":1522673605000,"departure":1522673606000,"zoneId":"NA","stopIndex":24,"stopSequence":25,"vertexType":"TRANSIT"},"legGeometry":{"points":"melfHbm|pLhCtCdDY|F_On@aB`B_GNoBvAyT|@sNuAyAuF}F}AaB_BkAC@qC\\gAWiBwBiKgMiCwEgEyHCGy@uB}@rAa@nAc@lFEf@mGvUYfAqCs@ICMCqFmDc@s@mAkBuEoESUgAhDiAfD}@zDyAcA_@Um@U{AWgB_Au@s@EEsBkCqFgF{IiI","length":49},"routeShortName":"14","routeLongName":"Coopérative","rentedBike":false,"transitLeg":true,"duration":539.0,"steps":[]},{"startTime":1522673606000,"endTime":1522673929000,"departureDelay":0,"arrivalDelay":0,"realTime":false,"distance":408.48900000000003,"pathway":false,"mode":"WALK","route":"","agencyTimeZoneOffset":-14400000,"interlineWithPreviousLeg":false,"from":{"name":"Boily / Oblats","stopId":"1:549","stopCode":"549","lon":-71.075339,"lat":48.416894,"arrival":1522673605000,"departure":1522673606000,"zoneId":"NA","stopIndex":24,"stopSequence":25,"vertexType":"TRANSIT"},"to":{"name":"Destination","lon":-71.071111,"lat":48.416382,"arrival":1522673929000,"orig":"","vertexType":"NORMAL"},"legGeometry":{"points":"ulofHf|xpLYWd@qAhCoHPa@oCqCpBiF","length":7},"rentedBike":false,"transitLeg":false,"duration":323.0,"steps":[{"distance":16.791,"relativeDirection":"DEPART","streetName":"Rue Boily","absoluteDirection":"NORTHEAST","stayOn":false,"area":false,"bogusName":false,"lon":-71.07539806257614,"lat":48.41691923898224,"elevation":[]},{"distance":189.16500000000002,"relativeDirection":"RIGHT","streetName":"Rue Des Oblats Est","absoluteDirection":"SOUTHEAST","stayOn":false,"area":false,"bogusName":false,"lon":-71.07527490000001,"lat":48.4170462,"elevation":[]},{"distance":96.069,"relativeDirection":"LEFT","streetName":"Rue McLaren","absoluteDirection":"NORTHEAST","stayOn":false,"area":false,"bogusName":false,"lon":-71.0731719,"lat":48.416073700000005,"elevation":[]},{"distance":106.464,"relativeDirection":"RIGHT","streetName":"Rue Jauffret","absoluteDirection":"SOUTHEAST","stayOn":false,"area":false,"bogusName":false,"lon":-71.07244630000001,"lat":48.416791,"elevation":[]}]}],"tooSloped":false},{"duration":933,"startTime":1522673883000,"endTime":1522674816000,"walkTime":759,"transitTime":172,"waitingTime":2,"walkDistance":961.2090526260597,"walkLimitExceeded":false,"elevationLost":0.0,"elevationGained":0.0,"transfers":0,"legs":[{"startTime":1522673883000,"endTime":1522674015000,"departureDelay":0,"arrivalDelay":0,"realTime":false,"distance":169.016,"pathway":false,"mode":"WALK","route":"","agencyTimeZoneOffset":-14400000,"interlineWithPreviousLeg":false,"from":{"name":"Origin","lon":-71.093793,"lat":48.407113,"departure":1522673883000,"orig":"","vertexType":"NORMAL"},"to":{"name":"boul. Saint-Paul (no. 1323)","stopId":"1:1887","stopCode":"1887","lon":-71.092041,"lat":48.408118,"arrival":1522674015000,"departure":1522674016000,"zoneId":"NA","stopIndex":16,"stopSequence":17,"vertexType":"TRANSIT"},"legGeometry":{"points":"}nmfHjn|pLs@_A_AoAIOOUo@_Ag@u@","length":7},"rentedBike":false,"transitLeg":false,"duration":132.0,"steps":[{"distance":169.016,"relativeDirection":"DEPART","streetName":"Boulevard Saint-Paul","absoluteDirection":"NORTHEAST","stayOn":false,"area":false,"bogusName":false,"lon":-71.09365169988389,"lat":48.407036300717316,"elevation":[]}]},{"startTime":1522674016000,"endTime":1522674188000,"departureDelay":0,"arrivalDelay":0,"realTime":false,"distance":1541.4201700704639,"pathway":false,"mode":"BUS","route":"11","agencyName":"Société de Transport du Saguenay","agencyUrl":"http://ville.saguenay.ca/fr/services-aux-citoyens/transport-sts","agencyTimeZoneOffset":-14400000,"routeColor":"FF0000","routeType":3,"routeId":"1:11","routeTextColor":"FFFFFF","interlineWithPreviousLeg":false,"tripBlockId":"37","headsign":"Terminus Chicoutimi","agencyId":"0","tripId":"1:218307","serviceDate":"20180402","from":{"name":"boul. Saint-Paul (no. 1323)","stopId":"1:1887","stopCode":"1887","lon":-71.092041,"lat":48.408118,"arrival":1522674015000,"departure":1522674016000,"zoneId":"NA","stopIndex":16,"stopSequence":17,"vertexType":"TRANSIT"},"to":{"name":"Saint-Paul / Saint-Henri","stopId":"1:1893","stopCode":"1893","lon":-71.078125,"lat":48.418447,"arrival":1522674188000,"departure":1522674189000,"zoneId":"NA","stopIndex":21,"stopSequence":22,"vertexType":"TRANSIT"},"legGeometry":{"points":"avmfHxd|pLyI{MmBqC{@wAQUw@gAsDiF_B_CQYa@cA[_AUy@YcBOgAYHu@\\M`@cAiBuAyBkHgL{C{E}AcCc@o@q@gAOWwCyC","length":26},"routeShortName":"11","routeLongName":"Chic/Faubourg via St-Paul","rentedBike":false,"transitLeg":true,"duration":172.0,"steps":[]},{"startTime":1522674189000,"endTime":1522674816000,"departureDelay":0,"arrivalDelay":0,"realTime":false,"distance":792.0219999999999,"pathway":false,"mode":"WALK","route":"","agencyTimeZoneOffset":-14400000,"interlineWithPreviousLeg":false,"from":{"name":"Saint-Paul / Saint-Henri","stopId":"1:1893","stopCode":"1893","lon":-71.078125,"lat":48.418447,"arrival":1522674188000,"departure":1522674189000,"zoneId":"NA","stopIndex":21,"stopSequence":22,"vertexType":"TRANSIT"},"to":{"name":"Destination","lon":-71.071111,"lat":48.416382,"arrival":1522674816000,"orig":"","vertexType":"NORMAL"},"legGeometry":{"points":"qvofH|mypLACa@a@y@{@j@}Ax@aCHU`AoCRPRPz@z@BBz@sBh@uAd@qAhCoHPa@oCqCpBiF","length":19},"rentedBike":false,"transitLeg":false,"duration":627.0,"steps":[{"distance":63.125,"relativeDirection":"DEPART","streetName":"Rue Saint-Paul","absoluteDirection":"NORTHEAST","stayOn":false,"area":false,"bogusName":false,"lon":-71.07822159015404,"lat":48.41849227688058,"elevation":[]},{"distance":174.846,"relativeDirection":"RIGHT","streetName":"Rue Saint-Henri","absoluteDirection":"SOUTHEAST","stayOn":false,"area":false,"bogusName":false,"lon":-71.07773680000001,"lat":48.418960000000006,"elevation":[]},{"distance":68.749,"relativeDirection":"RIGHT","streetName":"Rue Caron","absoluteDirection":"SOUTHWEST","stayOn":false,"area":false,"bogusName":false,"lon":-71.0757816,"lat":48.4180719,"elevation":[]},{"distance":282.769,"relativeDirection":"LEFT","streetName":"Rue Des Oblats Est","absoluteDirection":"SOUTHEAST","stayOn":false,"area":false,"bogusName":false,"lon":-71.0762876,"lat":48.4175528,"elevation":[]},{"distance":96.069,"relativeDirection":"LEFT","streetName":"Rue McLaren","absoluteDirection":"NORTHEAST","stayOn":false,"area":false,"bogusName":false,"lon":-71.0731719,"lat":48.416073700000005,"elevation":[]},{"distance":106.464,"relativeDirection":"RIGHT","streetName":"Rue Jauffret","absoluteDirection":"SOUTHEAST","stayOn":false,"area":false,"bogusName":false,"lon":-71.07244630000001,"lat":48.416791,"elevation":[]}]}],"tooSloped":false},{"duration":933,"startTime":1522675683000,"endTime":1522676616000,"walkTime":759,"transitTime":172,"waitingTime":2,"walkDistance":961.2090526260597,"walkLimitExceeded":false,"elevationLost":0.0,"elevationGained":0.0,"transfers":0,"legs":[{"startTime":1522675683000,"endTime":1522675815000,"departureDelay":0,"arrivalDelay":0,"realTime":false,"distance":169.016,"pathway":false,"mode":"WALK","route":"","agencyTimeZoneOffset":-14400000,"interlineWithPreviousLeg":false,"from":{"name":"Origin","lon":-71.093793,"lat":48.407113,"departure":1522675683000,"orig":"","vertexType":"NORMAL"},"to":{"name":"boul. Saint-Paul (no. 1323)","stopId":"1:1887","stopCode":"1887","lon":-71.092041,"lat":48.408118,"arrival":1522675815000,"departure":1522675816000,"zoneId":"NA","stopIndex":16,"stopSequence":17,"vertexType":"TRANSIT"},"legGeometry":{"points":"}nmfHjn|pLs@_A_AoAIOOUo@_Ag@u@","length":7},"rentedBike":false,"transitLeg":false,"duration":132.0,"steps":[{"distance":169.016,"relativeDirection":"DEPART","streetName":"Boulevard Saint-Paul","absoluteDirection":"NORTHEAST","stayOn":false,"area":false,"bogusName":false,"lon":-71.09365169988389,"lat":48.407036300717316,"elevation":[]}]},{"startTime":1522675816000,"endTime":1522675988000,"departureDelay":0,"arrivalDelay":0,"realTime":false,"distance":1541.4201700704639,"pathway":false,"mode":"BUS","route":"11","agencyName":"Société de Transport du Saguenay","agencyUrl":"http://ville.saguenay.ca/fr/services-aux-citoyens/transport-sts","agencyTimeZoneOffset":-14400000,"routeColor":"FF0000","routeType":3,"routeId":"1:11","routeTextColor":"FFFFFF","interlineWithPreviousLeg":false,"tripBlockId":"34","headsign":"Terminus Chicoutimi","agencyId":"0","tripId":"1:218212","serviceDate":"20180402","from":{"name":"boul. Saint-Paul (no. 1323)","stopId":"1:1887","stopCode":"1887","lon":-71.092041,"lat":48.408118,"arrival":1522675815000,"departure":1522675816000,"zoneId":"NA","stopIndex":16,"stopSequence":17,"vertexType":"TRANSIT"},"to":{"name":"Saint-Paul / Saint-Henri","stopId":"1:1893","stopCode":"1893","lon":-71.078125,"lat":48.418447,"arrival":1522675988000,"departure":1522675989000,"zoneId":"NA","stopIndex":21,"stopSequence":22,"vertexType":"TRANSIT"},"legGeometry":{"points":"avmfHxd|pLyI{MmBqC{@wAQUw@gAsDiF_B_CQYa@cA[_AUy@YcBOgAYHu@\\M`@cAiBuAyBkHgL{C{E}AcCc@o@q@gAOWwCyC","length":26},"routeShortName":"11","routeLongName":"Chic/Faubourg via St-Paul","rentedBike":false,"transitLeg":true,"duration":172.0,"steps":[]},{"startTime":1522675989000,"endTime":1522676616000,"departureDelay":0,"arrivalDelay":0,"realTime":false,"distance":792.0219999999999,"pathway":false,"mode":"WALK","route":"","agencyTimeZoneOffset":-14400000,"interlineWithPreviousLeg":false,"from":{"name":"Saint-Paul / Saint-Henri","stopId":"1:1893","stopCode":"1893","lon":-71.078125,"lat":48.418447,"arrival":1522675988000,"departure":1522675989000,"zoneId":"NA","stopIndex":21,"stopSequence":22,"vertexType":"TRANSIT"},"to":{"name":"Destination","lon":-71.071111,"lat":48.416382,"arrival":1522676616000,"orig":"","vertexType":"NORMAL"},"legGeometry":{"points":"qvofH|mypLACa@a@y@{@j@}Ax@aCHU`AoCRPRPz@z@BBz@sBh@uAd@qAhCoHPa@oCqCpBiF","length":19},"rentedBike":false,"transitLeg":false,"duration":627.0,"steps":[{"distance":63.125,"relativeDirection":"DEPART","streetName":"Rue Saint-Paul","absoluteDirection":"NORTHEAST","stayOn":false,"area":false,"bogusName":false,"lon":-71.07822159015404,"lat":48.41849227688058,"elevation":[]},{"distance":174.846,"relativeDirection":"RIGHT","streetName":"Rue Saint-Henri","absoluteDirection":"SOUTHEAST","stayOn":false,"area":false,"bogusName":false,"lon":-71.07773680000001,"lat":48.418960000000006,"elevation":[]},{"distance":68.749,"relativeDirection":"RIGHT","streetName":"Rue Caron","absoluteDirection":"SOUTHWEST","stayOn":false,"area":false,"bogusName":false,"lon":-71.0757816,"lat":48.4180719,"elevation":[]},{"distance":282.769,"relativeDirection":"LEFT","streetName":"Rue Des Oblats Est","absoluteDirection":"SOUTHEAST","stayOn":false,"area":false,"bogusName":false,"lon":-71.0762876,"lat":48.4175528,"elevation":[]},{"distance":96.069,"relativeDirection":"LEFT","streetName":"Rue McLaren","absoluteDirection":"NORTHEAST","stayOn":false,"area":false,"bogusName":false,"lon":-71.0731719,"lat":48.416073700000005,"elevation":[]},{"distance":106.464,"relativeDirection":"RIGHT","streetName":"Rue Jauffret","absoluteDirection":"SOUTHEAST","stayOn":false,"area":false,"bogusName":false,"lon":-71.07244630000001,"lat":48.416791,"elevation":[]}]}],"tooSloped":false}]},"debugOutput":{"precalculationTime":24,"pathCalculationTime":17,"pathTimes":[11,3,3],"renderingTime":0,"totalTime":41,"timedOut":false},"elevationMetadata":{"ellipsoidToGeoidDifference":-28.885904201182168,"geoidElevation":false}}