{"requestParameters":{"date":"2018/04/02","walkSpeed":"1.33","walkReluctance":"2.0","fromPlace":"48.415098,-71.070557","maxWalkDistance":"3000","waitReluctance":"1.0","carSpeed":"33","numItineraries":"3","waitAtBeginningFactor":"0.4","mode":"TRANSIT,WALK","ignoreRealtimeUpdates":"false","stairsReluctance":"2.0","toPlace":"48.412051,-71.050219","time":"6:30:00"},"plan":{"date":1522665000000,"from":{"name":"Origin","lon":-71.070557,"lat":48.415098,"orig":"","vertexType":"NORMAL"},"to":{"name":"Destination","lon":-71.050219,"lat":48.412051,"orig":"","vertexType":"NORMAL"},"itineraries":[{"duration":1157,"startTime":1522665363000,"endTime":1522666520000,"walkTime":832,"transitTime":323,"waitingTime":2,"walkDistance":1065.2961954829718,"walkLimitExceeded":false,"elevationLost":0.0,"elevationGained":0.0,"transfers":0,"legs":[{"startTime":1522665363000,"endTime":1522665899000,"departureDelay":0,"arrivalDelay":0,"realTime":false,"distance":694.0759999999999,"pathway":false,"mode":"WALK","route":"","agencyTimeZoneOffset":-14400000,"interlineWithPreviousLeg":false,"from":{"name":"Origin","lon":-71.070557,"lat":48.415098,"departure":1522665363000,"orig":"","vertexType":"NORMAL"},"to":{"name":"Champs-Élysées / Bégin","stopId":"1:566","stopCode":"566","lon":-71.064237,"lat":48.415762,"arrival":1522665899000,"departure":1522665900000,"zoneId":"NA","stopIndex":7,"stopSequence":8,"vertexType":"TRANSIT"},"legGeometry":{"points":"m`ofH~~wpL`AiCz@aCb@kAh@yA|AiEHQ_BwBsCqCw@w@CCGGsCqCMOo@m@j@kB","length":16},"rentedBike":false,"transitLeg":false,"duration":536.0,"steps":[{"distance":295.587,"relativeDirection":"DEPART","streetName":"Rue Des Oblats Est","absoluteDirection":"SOUTHEAST","stayOn":false,"area":false,"bogusName":false,"lon":-71.07071315528816,"lat":48.41495099217428,"elevation":[]},{"distance":352.20399999999995,"relativeDirection":"LEFT","streetName":"Rue Bégin","absoluteDirection":"NORTHEAST","stayOn":false,"area":false,"bogusName":false,"lon":-71.06744280000001,"lat":48.413416500000004,"elevation":[]},{"distance":46.285,"relativeDirection":"RIGHT","streetName":"Rue des Champs-Élysées","absoluteDirection":"SOUTHEAST","stayOn":false,"area":false,"bogusName":false,"lon":-71.0647342,"lat":48.416021,"elevation":[]}]},{"startTime":1522665900000,"endTime":1522666223000,"departureDelay":0,"arrivalDelay":0,"realTime":false,"distance":1910.0113015030515,"pathway":false,"mode":"BUS","route":"12","agencyName":"Société de Transport du Saguenay","agencyUrl":"http://ville.saguenay.ca/fr/services-aux-citoyens/transport-sts","agencyTimeZoneOffset":-14400000,"routeColor":"556B2F","routeType":3,"routeId":"1:12","routeTextColor":"FFFFFF","interlineWithPreviousLeg":false,"tripBlockId":"29","headsign":"Terminus Chicoutimi","agencyId":"0","tripId":"1:218052","serviceDate":"20180402","from":{"name":"Champs-Élysées / Bégin","stopId":"1:566","stopCode":"566","lon":-71.064237,"lat":48.415762,"arrival":1522665899000,"departure":1522665900000,"zoneId":"NA","stopIndex":7,"stopSequence":8,"vertexType":"TRANSIT"},"to":{"name":"Sûreté du Québec (Roitelets / Lorenzo-Genest)","stopId":"1:195","stopCode":"195","lon":-71.048189,"lat":48.4095,"arrival":1522666223000,"departure":1522666224000,"zoneId":"NA","stopIndex":16,"stopSequence":17,"vertexType":"TRANSIT"},"legGeometry":{"points":"oeofHnvvpLlAgIdCmFbAqDtBeCjFm@`Gs@hFo@xAmBrGcPxFoNlCyGa@yFYkD}CyA}KmF","length":16},"routeShortName":"12","routeLongName":"Rivière du Moulin","rentedBike":false,"transitLeg":true,"duration":323.0,"steps":[]},{"startTime":1522666224000,"endTime":1522666520000,"departureDelay":0,"arrivalDelay":0,"realTime":false,"distance":371.042,"pathway":false,"mode":"WALK","route":"","agencyTimeZoneOffset":-14400000,"interlineWithPreviousLeg":false,"from":{"name":"Sûreté du Québec (Roitelets / Lorenzo-Genest)","stopId":"1:195","stopCode":"195","lon":-71.048189,"lat":48.4095,"arrival":1522666223000,"departure":1522666224000,"zoneId":"NA","stopIndex":16,"stopSequence":17,"vertexType":"TRANSIT"},"to":{"name":"Destination","lon":-71.050219,"lat":48.412051,"arrival":1522666520000,"orig":"","vertexType":"NORMAL"},"legGeometry":{"points":"o~mfHtrspLk@Y_Bw@KEe@JYLa@n@G^yBdHWQ[|@c@hA","length":12},"rentedBike":false,"transitLeg":false,"duration":296.0,"steps":[{"distance":90.97600000000001,"relativeDirection":"DEPART","streetName":"Rue Des Roitelets","absoluteDirection":"NORTH","stayOn":false,"area":false,"bogusName":false,"lon":-71.04826942089277,"lat":48.40952065789795,"elevation":[]},{"distance":62.949,"relativeDirection":"SLIGHTLY_LEFT","streetName":"link","absoluteDirection":"NORTH","stayOn":false,"area":false,"bogusName":true,"lon":-71.0478246,"lat":48.4102837,"elevation":[]},{"distance":217.117,"relativeDirection":"SLIGHTLY_LEFT","streetName":"Boulevard de l'Université","absoluteDirection":"NORTHWEST","stayOn":false,"area":false,"bogusName":false,"lon":-71.04819570000001,"lat":48.410774100000005,"elevation":[]}]}],"tooSloped":false},{"duration":1572,"startTime":1522665000000,"endTime":1522666572000,"walkTime":1572,"transitTime":0,"waitingTime":0,"walkDistance":2023.0094135252702,"walkLimitExceeded":false,"elevationLost":0.0,"elevationGained":0.0,"transfers":0,"legs":[{"startTime":1522665000000,"endTime":1522666572000,"departureDelay":0,"arrivalDelay":0,"realTime":false,"distance":2022.744,"pathway":false,"mode":"WALK","route":"","agencyTimeZoneOffset":-14400000,"interlineWithPreviousLeg":false,"from":{"name":"Origin","lon":-71.070557,"lat":48.415098,"departure":1522665000000,"orig":"","vertexType":"NORMAL"},"to":{"name":"Destination","lon":-71.050219,"lat":48.412051,"arrival":1522666572000,"orig":"","vertexType":"NORMAL"},"legGeometry":{"points":"m`ofH~~wpL`AiCz@aCb@kAh@yA|AiEHQ_BwBsCqCw@w@CCGGsCqCMOo@m@j@kB??FQNi@bA}FnAoDd@qA??hAcDXa@oAeBEUa@_BEiBAaAHg@VuAPg@Tq@hCmHFOdB{EZ}@Tm@j@]l@@xBB?uDMqAqAkAIIfA}CJ]Na@UYDMj@_B","length":52},"rentedBike":false,"transitLeg":false,"duration":1572.0,"steps":[{"distance":295.587,"relativeDirection":"DEPART","streetName":"Rue Des Oblats Est","absoluteDirection":"SOUTHEAST","stayOn":false,"area":false,"bogusName":false,"lon":-71.07071315528816,"lat":48.41495099217428,"elevation":[]},{"distance":352.20399999999995,"relativeDirection":"LEFT","streetName":"Rue Bégin","absoluteDirection":"NORTHEAST","stayOn":false,"area":false,"bogusName":false,"lon":-71.06744280000001,"lat":48.413416500000004,"elevation":[]},{"distance":381.059,"relativeDirection":"RIGHT","streetName":"Rue des Champs-Élysées","absoluteDirection":"SOUTHEAST","stayOn":false,"area":false,"bogusName":false,"lon":-71.0647342,"lat":48.416021,"elevation":[]},{"distance":670.393,"relativeDirection":"LEFT","streetName":"Rue Marguerite-Tellier","absoluteDirection":"NORTHEAST","stayOn":false,"area":false,"bogusName":false,"lon":-71.0603414,"lat":48.4142597,"elevation":[]},{"distance":158.358,"relativeDirection":"LEFT","streetName":"Rue Thérèse-Casgrain","absoluteDirection":"EAST","stayOn":false,"area":false,"bogusName":false,"lon":-71.05395460000001,"lat":48.411977500000006,"elevation":[]},{"distance":165.143,"relativeDirection":"RIGHT","streetName":"Boulevard de l'Université","absoluteDirection":"SOUTHEAST","stayOn":false,"area":false,"bogusName":false,"lon":-71.0522085,"lat":48.412505100000004,"elevation":[]}]}],"tooSloped":false},{"duration":1157,"startTime":1522667163000,"endTime":1522668320000,"walkTime":832,"transitTime":323,"waitingTime":2,"walkDistance":1065.2961954829718,"walkLimitExceeded":false,"elevationLost":0.0,"elevationGained":0.0,"transfers":0,"legs":[{"startTime":1522667163000,"endTime":1522667699000,"departureDelay":0,"arrivalDelay":0,"realTime":false,"distance":694.0759999999999,"pathway":false,"mode":"WALK","route":"","agencyTimeZoneOffset":-14400000,"interlineWithPreviousLeg":false,"from":{"name":"Origin","lon":-71.070557,"lat":48.415098,"departure":1522667163000,"orig":"","vertexType":"NORMAL"},"to":{"name":"Champs-Élysées / Bégin","stopId":"1:566","stopCode":"566","lon":-71.064237,"lat":48.415762,"arrival":1522667699000,"departure":1522667700000,"zoneId":"NA","stopIndex":7,"stopSequence":8,"vertexType":"TRANSIT"},"legGeometry":{"points":"m`ofH~~wpL`AiCz@aCb@kAh@yA|AiEHQ_BwBsCqCw@w@CCGGsCqCMOo@m@j@kB","length":16},"rentedBike":false,"transitLeg":false,"duration":536.0,"steps":[{"distance":295.587,"relativeDirection":"DEPART","streetName":"Rue Des Oblats Est","absoluteDirection":"SOUTHEAST","stayOn":false,"area":false,"bogusName":false,"lon":-71.07071315528816,"lat":48.41495099217428,"elevation":[]},{"distance":352.20399999999995,"relativeDirection":"LEFT","streetName":"Rue Bégin","absoluteDirection":"NORTHEAST","stayOn":false,"area":false,"bogusName":false,"lon":-71.06744280000001,"lat":48.413416500000004,"elevation":[]},{"distance":46.285,"relativeDirection":"RIGHT","streetName":"Rue des Champs-Élysées","absoluteDirection":"SOUTHEAST","stayOn":false,"area":false,"bogusName":false,"lon":-71.0647342,"lat":48.416021,"elevation":[]}]},{"startTime":1522667700000,"endTime":1522668023000,"departureDelay":0,"arrivalDelay":0,"realTime":false,"distance":1910.0113015030515,"pathway":false,"mode":"BUS","route":"12","agencyName":"Société de Transport du Saguenay","agencyUrl":"http://ville.saguenay.ca/fr/services-aux-citoyens/transport-sts","agencyTimeZoneOffset":-14400000,"routeColor":"556B2F","routeType":3,"routeId":"1:12","routeTextColor":"FFFFFF","interlineWithPreviousLeg":false,"tripBlockId":"26","headsign":"Terminus Chicoutimi","agencyId":"0","tripId":"1:217965","serviceDate":"20180402","from":{"name":"Champs-Élysées / Bégin","stopId":"1:566","stopCode":"566","lon":-71.064237,"lat":48.415762,"arrival":1522667699000,"departure":1522667700000,"zoneId":"NA","stopIndex":7,"stopSequence":8,"vertexType":"TRANSIT"},"to":{"name":"Sûreté du Québec (Roitelets / Lorenzo-Genest)","stopId":"1:195","stopCode":"195","lon":-71.048189,"lat":48.4095,"arrival":1522668023000,"departure":1522668024000,"zoneId":"NA","stopIndex":16,"stopSequence":17,"vertexType":"TRANSIT"},"legGeometry":{"points":"oeofHnvvpLlAgIdCmFbAqDtBeCjFm@`Gs@hFo@xAmBrGcPxFoNlCyGa@yFYkD}CyA}KmF","length":16},"routeShortName":"12","routeLongName":"Rivière du Moulin","rentedBike":false,"transitLeg":true,"duration":323.0,"steps":[]},{"startTime":1522668024000,"endTime":1522668320000,"departureDelay":0,"arrivalDelay":0,"realTime":false,"distance":371.042,"pathway":false,"mode":"WALK","route":"","agencyTimeZoneOffset":-14400000,"interlineWithPreviousLeg":false,"from":{"name":"Sûreté du Québec (Roitelets / Lorenzo-Genest)","stopId":"1:195","stopCode":"195","lon":-71.048189,"lat":48.4095,"arrival":1522668023000,"departure":1522668024000,"zoneId":"NA","stopIndex":16,"stopSequence":17,"vertexType":"TRANSIT"},"to":{"name":"Destination","lon":-71.050219,"lat":48.412051,"arrival":1522668320000,"orig":"","vertexType":"NORMAL"},"legGeometry":{"points":"o~mfHtrspLk@Y_Bw@KEe@JYLa@n@G^yBdHWQ[|@c@hA","length":12},"rentedBike":false,"transitLeg":false,"duration":296.0,"steps":[{"distance":90.97600000000001,"relativeDirection":"DEPART","streetName":"Rue Des Roitelets","absoluteDirection":"NORTH","stayOn":false,"area":false,"bogusName":false,"lon":-71.04826942089277,"lat":48.40952065789795,"elevation":[]},{"distance":62.949,"relativeDirection":"SLIGHTLY_LEFT","streetName":"link","absoluteDirection":"NORTH","stayOn":false,"area":false,"bogusName":true,"lon":-71.0478246,"lat":48.4102837,"elevation":[]},{"distance":217.117,"relativeDirection":"SLIGHTLY_LEFT","streetName":"Boulevard de l'Université","absoluteDirection":"NORTHWEST","stayOn":false,"area":false,"bogusName":false,"lon":-71.04819570000001,"lat":48.410774100000005,"elevation":[]}]}],"tooSloped":false}]},"debugOutput":{"precalculationTime":33,"pathCalculationTime":30,"pathTimes":[15,7,8],"renderingTime":0,"totalTime":63,"timedOut":false},"elevationMetadata":{"ellipsoidToGeoidDifference":-28.885904201182168,"geoidElevation":false}}