{"requestParameters":{"date":"2018/04/02","walkSpeed":"1.33","walkReluctance":"2.0","fromPlace":"48.412051,-71.050219","maxWalkDistance":"3000","waitReluctance":"1.0","carSpeed":"33","numItineraries":"3","waitAtBeginningFactor":"0.4","mode":"TRANSIT,WALK","ignoreRealtimeUpdates":"false","stairsReluctance":"2.0","toPlace":"48.403188,-71.06165199","time":"6:45:00"},"plan":{"date":1522665900000,"from":{"name":"Origin","lon":-71.050219,"lat":48.412051,"orig":"","vertexType":"NORMAL"},"to":{"name":"Destination","lon":-71.06165199,"lat":48.403188,"orig":"","vertexType":"NORMAL"},"itineraries":[{"duration":1077,"startTime":1522665900000,"endTime":1522666977000,"walkTime":1077,"transitTime":0,"waitingTime":0,"walkDistance":1398.3533458601976,"walkLimitExceeded":false,"elevationLost":0.0,"elevationGained":0.0,"transfers":0,"legs":[{"startTime":1522665900000,"endTime":1522666977000,"departureDelay":0,"arrivalDelay":0,"realTime":false,"distance":1398.215,"pathway":false,"mode":"WALK","route":"","agencyTimeZoneOffset":-14400000,"interlineWithPreviousLeg":false,"from":{"name":"Origin","lon":-71.050219,"lat":48.412051,"departure":1522665900000,"orig":"","vertexType":"NORMAL"},"to":{"name":"Destination","lon":-71.06165199,"lat":48.403188,"arrival":1522666977000,"orig":"","vertexType":"NORMAL"},"legGeometry":{"points":"cmnfHb`tpLk@~AELTXLJx@|@bDfDjDlDPRp@p@lAhApF`FJJzFjF|DpDIZtAlAtEjEjF~EPPVTMV_ArBq@fB","length":24},"rentedBike":false,"transitLeg":false,"duration":1077.0,"steps":[{"distance":49.557,"relativeDirection":"DEPART","streetName":"Boulevard de l'Université","absoluteDirection":"NORTHWEST","stayOn":false,"area":false,"bogusName":false,"lon":-71.05041845510732,"lat":48.41186158758105,"elevation":[]},{"distance":1233.597,"relativeDirection":"LEFT","streetName":"Boulevard Talbot","absoluteDirection":"SOUTHWEST","stayOn":false,"area":false,"bogusName":false,"lon":-71.05096660000001,"lat":48.4121189,"elevation":[]},{"distance":115.061,"relativeDirection":"RIGHT","streetName":"Rue des Saguenéens","absoluteDirection":"NORTHWEST","stayOn":false,"area":false,"bogusName":false,"lon":-71.0600254,"lat":48.4029151,"elevation":[]}]}],"tooSloped":false},{"duration":554,"startTime":1522666598000,"endTime":1522667152000,"walkTime":259,"transitTime":293,"waitingTime":2,"walkDistance":324.1191202975858,"walkLimitExceeded":false,"elevationLost":0.0,"elevationGained":0.0,"transfers":0,"legs":[{"startTime":1522666598000,"endTime":1522666682000,"departureDelay":0,"arrivalDelay":0,"realTime":false,"distance":97.81099999999999,"pathway":false,"mode":"WALK","route":"","agencyTimeZoneOffset":-14400000,"interlineWithPreviousLeg":false,"from":{"name":"Origin","lon":-71.050219,"lat":48.412051,"departure":1522666598000,"orig":"","vertexType":"NORMAL"},"to":{"name":"boul. Université / Murdock","stopId":"1:80","stopCode":"80","lon":-71.050111,"lat":48.411498,"arrival":1522666682000,"departure":1522666683000,"zoneId":"NA","stopIndex":14,"stopSequence":15,"vertexType":"TRANSIT"},"legGeometry":{"points":"cmnfHb`tpLb@iAZ}@VPUn@","length":5},"rentedBike":false,"transitLeg":false,"duration":84.0,"steps":[{"distance":61.79599999999999,"relativeDirection":"DEPART","streetName":"Boulevard de l'Université","absoluteDirection":"SOUTHEAST","stayOn":false,"area":false,"bogusName":false,"lon":-71.05041845510732,"lat":48.41186158758105,"elevation":[]},{"distance":36.015,"relativeDirection":"UTURN_RIGHT","streetName":"Boulevard de l'Université","absoluteDirection":"NORTHWEST","stayOn":true,"area":false,"bogusName":false,"lon":-71.0498268,"lat":48.4114298,"elevation":[]}]},{"startTime":1522666683000,"endTime":1522666976000,"departureDelay":0,"arrivalDelay":0,"realTime":false,"distance":1866.5220490795061,"pathway":false,"mode":"BUS","route":"175","agencyName":"Société de Transport du Saguenay","agencyUrl":"http://ville.saguenay.ca/fr/services-aux-citoyens/transport-sts","agencyTimeZoneOffset":-14400000,"routeColor":"FF00FF","routeType":3,"routeId":"1:175","routeTextColor":"FFFFFF","interlineWithPreviousLeg":false,"tripBlockId":"6","headsign":"Costco","agencyId":"0","tripId":"1:217285","serviceDate":"20180402","from":{"name":"boul. Université / Murdock","stopId":"1:80","stopCode":"80","lon":-71.050111,"lat":48.411498,"arrival":1522666682000,"departure":1522666683000,"zoneId":"NA","stopIndex":14,"stopSequence":15,"vertexType":"TRANSIT"},"to":{"name":"boul. Talbot (no. 1494) (Tim-Horton)","stopId":"1:1854","stopCode":"1854","lon":-71.060941,"lat":48.402118,"arrival":1522666976000,"departure":1522666977000,"zoneId":"NA","stopIndex":21,"stopSequence":22,"vertexType":"TRANSIT"},"legGeometry":{"points":"aknfH~}spLr@sBhCsKz@dAjB|@dM`GzCvAXrCr@~Gx@]PEr@ObACn@FrBb@|@Ch@Kx@U~HsB^KZ|DJpII~Fa@rFUzBi@bDUxAm@nCcAlDM^RTfD`D","length":32},"routeShortName":"175","routeLongName":"Term. Chic / Costco","rentedBike":false,"transitLeg":true,"duration":293.0,"steps":[]},{"startTime":1522666977000,"endTime":1522667152000,"departureDelay":0,"arrivalDelay":0,"realTime":false,"distance":226.21,"pathway":false,"mode":"WALK","route":"","agencyTimeZoneOffset":-14400000,"interlineWithPreviousLeg":false,"from":{"name":"boul. Talbot (no. 1494) (Tim-Horton)","stopId":"1:1854","stopCode":"1854","lon":-71.060941,"lat":48.402118,"arrival":1522666976000,"departure":1522666977000,"zoneId":"NA","stopIndex":21,"stopSequence":22,"vertexType":"TRANSIT"},"to":{"name":"Destination","lon":-71.06165199,"lat":48.403188,"arrival":1522667152000,"orig":"","vertexType":"NORMAL"},"legGeometry":{"points":"}olfHhavpLgDcDMV_ArBq@fB","length":5},"rentedBike":false,"transitLeg":false,"duration":175.0,"steps":[{"distance":111.149,"relativeDirection":"DEPART","streetName":"Boulevard Talbot","absoluteDirection":"NORTHEAST","stayOn":false,"area":false,"bogusName":false,"lon":-71.06084575275527,"lat":48.40207691199218,"elevation":[]},{"distance":115.061,"relativeDirection":"LEFT","streetName":"Rue des Saguenéens","absoluteDirection":"NORTHWEST","stayOn":false,"area":false,"bogusName":false,"lon":-71.0600254,"lat":48.4029151,"elevation":[]}]}],"tooSloped":false},{"duration":554,"startTime":1522668398000,"endTime":1522668952000,"walkTime":259,"transitTime":293,"waitingTime":2,"walkDistance":324.1191202975858,"walkLimitExceeded":false,"elevationLost":0.0,"elevationGained":0.0,"transfers":0,"legs":[{"startTime":1522668398000,"endTime":1522668482000,"departureDelay":0,"arrivalDelay":0,"realTime":false,"distance":97.81099999999999,"pathway":false,"mode":"WALK","route":"","agencyTimeZoneOffset":-14400000,"interlineWithPreviousLeg":false,"from":{"name":"Origin","lon":-71.050219,"lat":48.412051,"departure":1522668398000,"orig":"","vertexType":"NORMAL"},"to":{"name":"boul. Université / Murdock","stopId":"1:80","stopCode":"80","lon":-71.050111,"lat":48.411498,"arrival":1522668482000,"departure":1522668483000,"zoneId":"NA","stopIndex":14,"stopSequence":15,"vertexType":"TRANSIT"},"legGeometry":{"points":"cmnfHb`tpLb@iAZ}@VPUn@","length":5},"rentedBike":false,"transitLeg":false,"duration":84.0,"steps":[{"distance":61.79599999999999,"relativeDirection":"DEPART","streetName":"Boulevard de l'Université","absoluteDirection":"SOUTHEAST","stayOn":false,"area":false,"bogusName":false,"lon":-71.05041845510732,"lat":48.41186158758105,"elevation":[]},{"distance":36.015,"relativeDirection":"UTURN_RIGHT","streetName":"Boulevard de l'Université","absoluteDirection":"NORTHWEST","stayOn":true,"area":false,"bogusName":false,"lon":-71.0498268,"lat":48.4114298,"elevation":[]}]},{"startTime":1522668483000,"endTime":1522668776000,"departureDelay":0,"arrivalDelay":0,"realTime":false,"distance":1866.5220490795061,"pathway":false,"mode":"BUS","route":"175","agencyName":"Société de Transport du Saguenay","agencyUrl":"http://ville.saguenay.ca/fr/services-aux-citoyens/transport-sts","agencyTimeZoneOffset":-14400000,"routeColor":"FF00FF","routeType":3,"routeId":"1:175","routeTextColor":"FFFFFF","interlineWithPreviousLeg":false,"tripBlockId":"7","headsign":"Costco","agencyId":"0","tripId":"1:217322","serviceDate":"20180402","from":{"name":"boul. Université / Murdock","stopId":"1:80","stopCode":"80","lon":-71.050111,"lat":48.411498,"arrival":1522668482000,"departure":1522668483000,"zoneId":"NA","stopIndex":14,"stopSequence":15,"vertexType":"TRANSIT"},"to":{"name":"boul. Talbot (no. 1494) (Tim-Horton)","stopId":"1:1854","stopCode":"1854","lon":-71.060941,"lat":48.402118,"arrival":1522668776000,"departure":1522668777000,"zoneId":"NA","stopIndex":21,"stopSequence":22,"vertexType":"TRANSIT"},"legGeometry":{"points":"aknfH~}spLr@sBhCsKz@dAjB|@dM`GzCvAXrCr@~Gx@]PEr@ObACn@FrBb@|@Ch@Kx@U~HsB^KZ|DJpII~Fa@rFUzBi@bDUxAm@nCcAlDM^RTfD`D","length":32},"routeShortName":"175","routeLongName":"Term. Chic / Costco","rentedBike":false,"transitLeg":true,"duration":293.0,"steps":[]},{"startTime":1522668777000,"endTime":1522668952000,"departureDelay":0,"arrivalDelay":0,"realTime":false,"distance":226.21,"pathway":false,"mode":"WALK","route":"","agencyTimeZoneOffset":-14400000,"interlineWithPreviousLeg":false,"from":{"name":"boul. Talbot (no. 1494) (Tim-Horton)","stopId":"1:1854","stopCode":"1854","lon":-71.060941,"lat":48.402118,"arrival":1522668776000,"departure":1522668777000,"zoneId":"NA","stopIndex":21,"stopSequence":22,"vertexType":"TRANSIT"},"to":{"name":"Destination","lon":-71.06165199,"lat":48.403188,"arrival":1522668952000,"orig":"","vertexType":"NORMAL"},"legGeometry":{"points":"}olfHhavpLgDcDMV_ArBq@fB","length":5},"rentedBike":false,"transitLeg":false,"duration":175.0,"steps":[{"distance":111.149,"relativeDirection":"DEPART","streetName":"Boulevard Talbot","absoluteDirection":"NORTHEAST","stayOn":false,"area":false,"bogusName":false,"lon":-71.06084575275527,"lat":48.40207691199218,"elevation":[]},{"distance":115.061,"relativeDirection":"LEFT","streetName":"Rue des Saguenéens","absoluteDirection":"NORTHWEST","stayOn":false,"area":false,"bogusName":false,"lon":-71.0600254,"lat":48.4029151,"elevation":[]}]}],"tooSloped":false}]},"debugOutput":{"precalculationTime":27,"pathCalculationTime":22,"pathTimes":[14,4,4],"renderingTime":1,"totalTime":50,"timedOut":false},"elevationMetadata":{"ellipsoidToGeoidDifference":-28.885904201182168,"geoidElevation":false}}