{"requestParameters":{"date":"2018/04/02","walkSpeed":"1.33","walkReluctance":"2.0","fromPlace":"48.403952,-71.054642","maxWalkDistance":"3000","waitReluctance":"1.0","carSpeed":"33","numItineraries":"3","waitAtBeginningFactor":"0.4","mode":"TRANSIT,WALK","ignoreRealtimeUpdates":"false","stairsReluctance":"2.0","toPlace":"48.40001,-71.044398","time":"12:35:00"},"plan":{"date":1522686900000,"from":{"name":"Origin","lon":-71.054642,"lat":48.403952,"orig":"","vertexType":"NORMAL"},"to":{"name":"Destination","lon":-71.044398,"lat":48.40001,"orig":"","vertexType":"NORMAL"},"itineraries":[{"duration":3448,"startTime":1522687321000,"endTime":1522690769000,"walkTime":2706,"transitTime":623,"waitingTime":119,"walkDistance":3495.100609008243,"walkLimitExceeded":false,"elevationLost":0.0,"elevationGained":0.0,"transfers":1,"legs":[{"startTime":1522687321000,"endTime":1522687739000,"departureDelay":0,"arrivalDelay":0,"realTime":false,"distance":516.362,"pathway":false,"mode":"WALK","route":"","agencyTimeZoneOffset":-14400000,"interlineWithPreviousLeg":false,"from":{"name":"Origin","lon":-71.054642,"lat":48.403952,"departure":1522687321000,"orig":"","vertexType":"NORMAL"},"to":{"name":"Place du Royaume (Champs-Élysées)","stopId":"1:572","stopCode":"572","lon":-71.053302,"lat":48.407097,"arrival":1522687739000,"departure":1522687740000,"zoneId":"NA","stopIndex":13,"stopSequence":14,"vertexType":"TRANSIT"},"legGeometry":{"points":"{zlfHhytpLKMS]U_@S]Yc@Vu@Ng@QSYWWUYWYY[YSSGH]bAGPMZg@rA]PGBU?[AW?KAc@Ae@A[AYWc@q@]d@","length":32},"rentedBike":false,"transitLeg":false,"duration":418.0,"steps":[{"distance":117.35300000000001,"relativeDirection":"DEPART","streetName":"parking aisle","absoluteDirection":"NORTHEAST","stayOn":false,"area":false,"bogusName":false,"lon":-71.05444515294332,"lat":48.40382759190054,"elevation":[]},{"distance":110.875,"relativeDirection":"LEFT","streetName":"service road","absoluteDirection":"NORTHEAST","stayOn":false,"area":false,"bogusName":true,"lon":-71.0532652,"lat":48.4041209,"elevation":[]},{"distance":288.134,"relativeDirection":"LEFT","streetName":"service road","absoluteDirection":"NORTHWEST","stayOn":true,"area":false,"bogusName":true,"lon":-71.05245930000001,"lat":48.4049623,"elevation":[]}]},{"startTime":1522687740000,"endTime":1522688220000,"departureDelay":0,"arrivalDelay":0,"realTime":false,"distance":3007.342587957013,"pathway":false,"mode":"BUS","route":"12","agencyName":"Société de Transport du Saguenay","agencyUrl":"http://ville.saguenay.ca/fr/services-aux-citoyens/transport-sts","agencyTimeZoneOffset":-14400000,"routeColor":"556B2F","routeType":3,"routeId":"1:12","routeTextColor":"FFFFFF","interlineWithPreviousLeg":false,"tripBlockId":"29","headsign":"Terminus Chicoutimi","agencyId":"0","tripId":"1:218064","serviceDate":"20180402","from":{"name":"Place du Royaume (Champs-Élysées)","stopId":"1:572","stopCode":"572","lon":-71.053302,"lat":48.407097,"arrival":1522687739000,"departure":1522687740000,"zoneId":"NA","stopIndex":13,"stopSequence":14,"vertexType":"TRANSIT"},"to":{"name":"rue Gascogne (face no585)","stopId":"1:1028","stopCode":"1028","lon":-71.022333,"lat":48.419226,"arrival":1522688220000,"departure":1522688220000,"zoneId":"NA","stopIndex":18,"stopSequence":19,"vertexType":"TRANSIT"},"legGeometry":{"points":"aomfHlrtpLlCyGa@yFYkD}CyA}KmFgD_BgAgBn@kFD_NoIgrAmD_WcAaLaDHoDJi`@wVoAbDbA|AnBU|B|A","length":20},"routeShortName":"12","routeLongName":"Rivière du Moulin","rentedBike":false,"transitLeg":true,"duration":480.0,"steps":[]},{"startTime":1522688220000,"endTime":1522688223000,"departureDelay":0,"arrivalDelay":0,"realTime":false,"distance":0.39,"pathway":false,"mode":"WALK","route":"","agencyTimeZoneOffset":-14400000,"interlineWithPreviousLeg":false,"from":{"name":"rue Gascogne (face no585)","stopId":"1:1028","stopCode":"1028","lon":-71.022333,"lat":48.419226,"arrival":1522688220000,"departure":1522688220000,"zoneId":"NA","stopIndex":18,"stopSequence":19,"vertexType":"TRANSIT"},"to":{"name":"Gascogne / Provence","stopId":"1:1536","stopCode":"1536","lon":-71.022239,"lat":48.419203,"arrival":1522688223000,"departure":1522688340000,"zoneId":"NA","stopIndex":24,"stopSequence":25,"vertexType":"TRANSIT"},"legGeometry":{"points":"a{ofHhpnpL??","length":2},"rentedBike":false,"transitLeg":false,"duration":3.0,"steps":[{"distance":0.39,"relativeDirection":"DEPART","streetName":"Rue de Gascogne","absoluteDirection":"SOUTH","stayOn":false,"area":false,"bogusName":false,"lon":-71.02228573392509,"lat":48.41921628444625,"elevation":[]}]},{"startTime":1522688340000,"endTime":1522688483000,"departureDelay":0,"arrivalDelay":0,"realTime":false,"distance":649.2964970068743,"pathway":false,"mode":"BUS","route":"12","agencyName":"Société de Transport du Saguenay","agencyUrl":"http://ville.saguenay.ca/fr/services-aux-citoyens/transport-sts","agencyTimeZoneOffset":-14400000,"routeColor":"556B2F","routeType":3,"routeId":"1:12","routeTextColor":"FFFFFF","interlineWithPreviousLeg":false,"tripBlockId":"27","headsign":"Terminus UQAC","agencyId":"0","tripId":"1:218012","serviceDate":"20180402","from":{"name":"Gascogne / Provence","stopId":"1:1536","stopCode":"1536","lon":-71.022239,"lat":48.419203,"arrival":1522688223000,"departure":1522688340000,"zoneId":"NA","stopIndex":24,"stopSequence":25,"vertexType":"TRANSIT"},"to":{"name":"nouveau","stopId":"1:2297","stopCode":"2297","lon":-71.02468,"lat":48.413593,"arrival":1522688483000,"departure":1522688484000,"zoneId":"NA","stopIndex":25,"stopSequence":26,"vertexType":"TRANSIT"},"legGeometry":{"points":"_{ofH~onpL`b@fN","length":2},"routeShortName":"12","routeLongName":"Rivière du Moulin","rentedBike":false,"transitLeg":true,"duration":143.0,"steps":[]},{"startTime":1522688484000,"endTime":1522690769000,"departureDelay":0,"arrivalDelay":0,"realTime":false,"distance":2977.905,"pathway":false,"mode":"WALK","route":"","agencyTimeZoneOffset":-14400000,"interlineWithPreviousLeg":false,"from":{"name":"nouveau","stopId":"1:2297","stopCode":"2297","lon":-71.02468,"lat":48.413593,"arrival":1522688483000,"departure":1522688484000,"zoneId":"NA","stopIndex":25,"stopSequence":26,"vertexType":"TRANSIT"},"to":{"name":"Destination","lon":-71.044398,"lat":48.40001,"arrival":1522690769000,"orig":"","vertexType":"NORMAL"},"legGeometry":{"points":"axnfHb~npLTEp@Kj@tKxB|MHl@TrAf@xEB\\L`CDh@@^ZvEHpAx@Of@s@|A@b@Ov@B\\Kh@@|@Ot@e@XMRS^c@JeAZTFhBBVDpAu@^CDAFF\\JFNb@ZJFN?XRHTMRN^Rb@\\NdALFJj@Pf@?PE`@C~@Tf@RZ^ZPb@ZNZHP^Tb@Pl@Tr@|B`@p@d@z@b@bAhAL|Ap@jCd@DZBXOHo@?aADw@Pu@xByE\\eATOT@HP`@`CNnCElCRlBLjGx@`Aj@|@Rd@r@tAjClDn@bA@`AFbATr@v@Tf@QRO@A","length":98},"alerts":[{"alertHeaderText":"Unpaved surface"}],"rentedBike":false,"transitLeg":false,"duration":2285.0,"steps":[{"distance":40.223,"relativeDirection":"DEPART","streetName":"Boulevard du Saguenay Est","absoluteDirection":"SOUTH","stayOn":false,"area":false,"bogusName":false,"lon":-71.02449091813529,"lat":48.41361228978169,"elevation":[]},{"distance":674.7560000000001,"relativeDirection":"RIGHT","streetName":"Boulevard de l'Université","absoluteDirection":"WEST","stayOn":false,"area":false,"bogusName":false,"lon":-71.0244078,"lat":48.413254800000004,"elevation":[]},{"distance":62.209,"relativeDirection":"LEFT","streetName":"path","absoluteDirection":"SOUTH","stayOn":false,"area":false,"bogusName":true,"lon":-71.0332252,"lat":48.411744500000005,"elevation":[],"alerts":[{"alertHeaderText":"Unpaved surface"}]},{"distance":386.934,"relativeDirection":"RIGHT","streetName":"Sentier des Moulins","absoluteDirection":"SOUTH","stayOn":false,"area":false,"bogusName":false,"lon":-71.0328834,"lat":48.4112566,"elevation":[],"alerts":[{"alertHeaderText":"Unpaved surface"}]},{"distance":63.259,"relativeDirection":"RIGHT","streetName":"steps","absoluteDirection":"NORTH","stayOn":false,"area":false,"bogusName":true,"lon":-71.03298500000001,"lat":48.408708000000004,"elevation":[]},{"distance":1750.5240000000001,"relativeDirection":"LEFT","streetName":"path","absoluteDirection":"WEST","stayOn":true,"area":false,"bogusName":true,"lon":-71.0331419,"lat":48.4089727,"elevation":[]}]}],"tooSloped":false},{"duration":3448,"startTime":1522689121000,"endTime":1522692569000,"walkTime":2706,"transitTime":623,"waitingTime":119,"walkDistance":3495.100609008243,"walkLimitExceeded":false,"elevationLost":0.0,"elevationGained":0.0,"transfers":1,"legs":[{"startTime":1522689121000,"endTime":1522689539000,"departureDelay":0,"arrivalDelay":0,"realTime":false,"distance":516.362,"pathway":false,"mode":"WALK","route":"","agencyTimeZoneOffset":-14400000,"interlineWithPreviousLeg":false,"from":{"name":"Origin","lon":-71.054642,"lat":48.403952,"departure":1522689121000,"orig":"","vertexType":"NORMAL"},"to":{"name":"Place du Royaume (Champs-Élysées)","stopId":"1:572","stopCode":"572","lon":-71.053302,"lat":48.407097,"arrival":1522689539000,"departure":1522689540000,"zoneId":"NA","stopIndex":13,"stopSequence":14,"vertexType":"TRANSIT"},"legGeometry":{"points":"{zlfHhytpLKMS]U_@S]Yc@Vu@Ng@QSYWWUYWYY[YSSGH]bAGPMZg@rA]PGBU?[AW?KAc@Ae@A[AYWc@q@]d@","length":32},"rentedBike":false,"transitLeg":false,"duration":418.0,"steps":[{"distance":117.35300000000001,"relativeDirection":"DEPART","streetName":"parking aisle","absoluteDirection":"NORTHEAST","stayOn":false,"area":false,"bogusName":false,"lon":-71.05444515294332,"lat":48.40382759190054,"elevation":[]},{"distance":110.875,"relativeDirection":"LEFT","streetName":"service road","absoluteDirection":"NORTHEAST","stayOn":false,"area":false,"bogusName":true,"lon":-71.0532652,"lat":48.4041209,"elevation":[]},{"distance":288.134,"relativeDirection":"LEFT","streetName":"service road","absoluteDirection":"NORTHWEST","stayOn":true,"area":false,"bogusName":true,"lon":-71.05245930000001,"lat":48.4049623,"elevation":[]}]},{"startTime":1522689540000,"endTime":1522690020000,"departureDelay":0,"arrivalDelay":0,"realTime":false,"distance":3007.342587957013,"pathway":false,"mode":"BUS","route":"12","agencyName":"Société de Transport du Saguenay","agencyUrl":"http://ville.saguenay.ca/fr/services-aux-citoyens/transport-sts","agencyTimeZoneOffset":-14400000,"routeColor":"556B2F","routeType":3,"routeId":"1:12","routeTextColor":"FFFFFF","interlineWithPreviousLeg":false,"tripBlockId":"26","headsign":"Terminus Chicoutimi","agencyId":"0","tripId":"1:217977","serviceDate":"20180402","from":{"name":"Place du Royaume (Champs-Élysées)","stopId":"1:572","stopCode":"572","lon":-71.053302,"lat":48.407097,"arrival":1522689539000,"departure":1522689540000,"zoneId":"NA","stopIndex":13,"stopSequence":14,"vertexType":"TRANSIT"},"to":{"name":"rue Gascogne (face no585)","stopId":"1:1028","stopCode":"1028","lon":-71.022333,"lat":48.419226,"arrival":1522690020000,"departure":1522690020000,"zoneId":"NA","stopIndex":18,"stopSequence":19,"vertexType":"TRANSIT"},"legGeometry":{"points":"aomfHlrtpLlCyGa@yFYkD}CyA}KmFgD_BgAgBn@kFD_NoIgrAmD_WcAaLaDHoDJi`@wVoAbDbA|AnBU|B|A","length":20},"routeShortName":"12","routeLongName":"Rivière du Moulin","rentedBike":false,"transitLeg":true,"duration":480.0,"steps":[]},{"startTime":1522690020000,"endTime":1522690023000,"departureDelay":0,"arrivalDelay":0,"realTime":false,"distance":0.39,"pathway":false,"mode":"WALK","route":"","agencyTimeZoneOffset":-14400000,"interlineWithPreviousLeg":false,"from":{"name":"rue Gascogne (face no585)","stopId":"1:1028","stopCode":"1028","lon":-71.022333,"lat":48.419226,"arrival":1522690020000,"departure":1522690020000,"zoneId":"NA","stopIndex":18,"stopSequence":19,"vertexType":"TRANSIT"},"to":{"name":"Gascogne / Provence","stopId":"1:1536","stopCode":"1536","lon":-71.022239,"lat":48.419203,"arrival":1522690023000,"departure":1522690140000,"zoneId":"NA","stopIndex":24,"stopSequence":25,"vertexType":"TRANSIT"},"legGeometry":{"points":"a{ofHhpnpL??","length":2},"rentedBike":false,"transitLeg":false,"duration":3.0,"steps":[{"distance":0.39,"relativeDirection":"DEPART","streetName":"Rue de Gascogne","absoluteDirection":"SOUTH","stayOn":false,"area":false,"bogusName":false,"lon":-71.02228573392509,"lat":48.41921628444625,"elevation":[]}]},{"startTime":1522690140000,"endTime":1522690283000,"departureDelay":0,"arrivalDelay":0,"realTime":false,"distance":649.2964970068743,"pathway":false,"mode":"BUS","route":"12","agencyName":"Société de Transport du Saguenay","agencyUrl":"http://ville.saguenay.ca/fr/services-aux-citoyens/transport-sts","agencyTimeZoneOffset":-14400000,"routeColor":"556B2F","routeType":3,"routeId":"1:12","routeTextColor":"FFFFFF","interlineWithPreviousLeg":false,"tripBlockId":"28","headsign":"Terminus UQAC","agencyId":"0","tripId":"1:218039","serviceDate":"20180402","from":{"name":"Gascogne / Provence","stopId":"1:1536","stopCode":"1536","lon":-71.022239,"lat":48.419203,"arrival":1522690023000,"departure":1522690140000,"zoneId":"NA","stopIndex":24,"stopSequence":25,"vertexType":"TRANSIT"},"to":{"name":"nouveau","stopId":"1:2297","stopCode":"2297","lon":-71.02468,"lat":48.413593,"arrival":1522690283000,"departure":1522690284000,"zoneId":"NA","stopIndex":25,"stopSequence":26,"vertexType":"TRANSIT"},"legGeometry":{"points":"_{ofH~onpL`b@fN","length":2},"routeShortName":"12","routeLongName":"Rivière du Moulin","rentedBike":false,"transitLeg":true,"duration":143.0,"steps":[]},{"startTime":1522690284000,"endTime":1522692569000,"departureDelay":0,"arrivalDelay":0,"realTime":false,"distance":2977.905,"pathway":false,"mode":"WALK","route":"","agencyTimeZoneOffset":-14400000,"interlineWithPreviousLeg":false,"from":{"name":"nouveau","stopId":"1:2297","stopCode":"2297","lon":-71.02468,"lat":48.413593,"arrival":1522690283000,"departure":1522690284000,"zoneId":"NA","stopIndex":25,"stopSequence":26,"vertexType":"TRANSIT"},"to":{"name":"Destination","lon":-71.044398,"lat":48.40001,"arrival":1522692569000,"orig":"","vertexType":"NORMAL"},"legGeometry":{"points":"axnfHb~npLTEp@Kj@tKxB|MHl@TrAf@xEB\\L`CDh@@^ZvEHpAx@Of@s@|A@b@Ov@B\\Kh@@|@Ot@e@XMRS^c@JeAZTFhBBVDpAu@^CDAFF\\JFNb@ZJFN?XRHTMRN^Rb@\\NdALFJj@Pf@?PE`@C~@Tf@RZ^ZPb@ZNZHP^Tb@Pl@Tr@|B`@p@d@z@b@bAhAL|Ap@jCd@DZBXOHo@?aADw@Pu@xByE\\eATOT@HP`@`CNnCElCRlBLjGx@`Aj@|@Rd@r@tAjClDn@bA@`AFbATr@v@Tf@QRO@A","length":98},"alerts":[{"alertHeaderText":"Unpaved surface"}],"rentedBike":false,"transitLeg":false,"duration":2285.0,"steps":[{"distance":40.223,"relativeDirection":"DEPART","streetName":"Boulevard du Saguenay Est","absoluteDirection":"SOUTH","stayOn":false,"area":false,"bogusName":false,"lon":-71.02449091813529,"lat":48.41361228978169,"elevation":[]},{"distance":674.7560000000001,"relativeDirection":"RIGHT","streetName":"Boulevard de l'Université","absoluteDirection":"WEST","stayOn":false,"area":false,"bogusName":false,"lon":-71.0244078,"lat":48.413254800000004,"elevation":[]},{"distance":62.209,"relativeDirection":"LEFT","streetName":"path","absoluteDirection":"SOUTH","stayOn":false,"area":false,"bogusName":true,"lon":-71.0332252,"lat":48.411744500000005,"elevation":[],"alerts":[{"alertHeaderText":"Unpaved surface"}]},{"distance":386.934,"relativeDirection":"RIGHT","streetName":"Sentier des Moulins","absoluteDirection":"SOUTH","stayOn":false,"area":false,"bogusName":false,"lon":-71.0328834,"lat":48.4112566,"elevation":[],"alerts":[{"alertHeaderText":"Unpaved surface"}]},{"distance":63.259,"relativeDirection":"RIGHT","streetName":"steps","absoluteDirection":"NORTH","stayOn":false,"area":false,"bogusName":true,"lon":-71.03298500000001,"lat":48.408708000000004,"elevation":[]},{"distance":1750.5240000000001,"relativeDirection":"LEFT","streetName":"path","absoluteDirection":"WEST","stayOn":true,"area":false,"bogusName":true,"lon":-71.0331419,"lat":48.4089727,"elevation":[]}]}],"tooSloped":false},{"duration":3448,"startTime":1522690921000,"endTime":1522694369000,"walkTime":2706,"transitTime":623,"waitingTime":119,"walkDistance":3495.100609008243,"walkLimitExceeded":false,"elevationLost":0.0,"elevationGained":0.0,"transfers":1,"legs":[{"startTime":1522690921000,"endTime":1522691339000,"departureDelay":0,"arrivalDelay":0,"realTime":false,"distance":516.362,"pathway":false,"mode":"WALK","route":"","agencyTimeZoneOffset":-14400000,"interlineWithPreviousLeg":false,"from":{"name":"Origin","lon":-71.054642,"lat":48.403952,"departure":1522690921000,"orig":"","vertexType":"NORMAL"},"to":{"name":"Place du Royaume (Champs-Élysées)","stopId":"1:572","stopCode":"572","lon":-71.053302,"lat":48.407097,"arrival":1522691339000,"departure":1522691340000,"zoneId":"NA","stopIndex":13,"stopSequence":14,"vertexType":"TRANSIT"},"legGeometry":{"points":"{zlfHhytpLKMS]U_@S]Yc@Vu@Ng@QSYWWUYWYY[YSSGH]bAGPMZg@rA]PGBU?[AW?KAc@Ae@A[AYWc@q@]d@","length":32},"rentedBike":false,"transitLeg":false,"duration":418.0,"steps":[{"distance":117.35300000000001,"relativeDirection":"DEPART","streetName":"parking aisle","absoluteDirection":"NORTHEAST","stayOn":false,"area":false,"bogusName":false,"lon":-71.05444515294332,"lat":48.40382759190054,"elevation":[]},{"distance":110.875,"relativeDirection":"LEFT","streetName":"service road","absoluteDirection":"NORTHEAST","stayOn":false,"area":false,"bogusName":true,"lon":-71.0532652,"lat":48.4041209,"elevation":[]},{"distance":288.134,"relativeDirection":"LEFT","streetName":"service road","absoluteDirection":"NORTHWEST","stayOn":true,"area":false,"bogusName":true,"lon":-71.05245930000001,"lat":48.4049623,"elevation":[]}]},{"startTime":1522691340000,"endTime":1522691820000,"departureDelay":0,"arrivalDelay":0,"realTime":false,"distance":3007.342587957013,"pathway":false,"mode":"BUS","route":"12","agencyName":"Société de Transport du Saguenay","agencyUrl":"http://ville.saguenay.ca/fr/services-aux-citoyens/transport-sts","agencyTimeZoneOffset":-14400000,"routeColor":"556B2F","routeType":3,"routeId":"1:12","routeTextColor":"FFFFFF","interlineWithPreviousLeg":false,"tripBlockId":"29","headsign":"Terminus Chicoutimi","agencyId":"0","tripId":"1:218066","serviceDate":"20180402","from":{"name":"Place du Royaume (Champs-Élysées)","stopId":"1:572","stopCode":"572","lon":-71.053302,"lat":48.407097,"arrival":1522691339000,"departure":1522691340000,"zoneId":"NA","stopIndex":13,"stopSequence":14,"vertexType":"TRANSIT"},"to":{"name":"rue Gascogne (face no585)","stopId":"1:1028","stopCode":"1028","lon":-71.022333,"lat":48.419226,"arrival":1522691820000,"departure":1522691820000,"zoneId":"NA","stopIndex":18,"stopSequence":19,"vertexType":"TRANSIT"},"legGeometry":{"points":"aomfHlrtpLlCyGa@yFYkD}CyA}KmFgD_BgAgBn@kFD_NoIgrAmD_WcAaLaDHoDJi`@wVoAbDbA|AnBU|B|A","length":20},"routeShortName":"12","routeLongName":"Rivière du Moulin","rentedBike":false,"transitLeg":true,"duration":480.0,"steps":[]},{"startTime":1522691820000,"endTime":1522691823000,"departureDelay":0,"arrivalDelay":0,"realTime":false,"distance":0.39,"pathway":false,"mode":"WALK","route":"","agencyTimeZoneOffset":-14400000,"interlineWithPreviousLeg":false,"from":{"name":"rue Gascogne (face no585)","stopId":"1:1028","stopCode":"1028","lon":-71.022333,"lat":48.419226,"arrival":1522691820000,"departure":1522691820000,"zoneId":"NA","stopIndex":18,"stopSequence":19,"vertexType":"TRANSIT"},"to":{"name":"Gascogne / Provence","stopId":"1:1536","stopCode":"1536","lon":-71.022239,"lat":48.419203,"arrival":1522691823000,"departure":1522691940000,"zoneId":"NA","stopIndex":24,"stopSequence":25,"vertexType":"TRANSIT"},"legGeometry":{"points":"a{ofHhpnpL??","length":2},"rentedBike":false,"transitLeg":false,"duration":3.0,"steps":[{"distance":0.39,"relativeDirection":"DEPART","streetName":"Rue de Gascogne","absoluteDirection":"SOUTH","stayOn":false,"area":false,"bogusName":false,"lon":-71.02228573392509,"lat":48.41921628444625,"elevation":[]}]},{"startTime":1522691940000,"endTime":1522692083000,"departureDelay":0,"arrivalDelay":0,"realTime":false,"distance":649.2964970068743,"pathway":false,"mode":"BUS","route":"12","agencyName":"Société de Transport du Saguenay","agencyUrl":"http://ville.saguenay.ca/fr/services-aux-citoyens/transport-sts","agencyTimeZoneOffset":-14400000,"routeColor":"556B2F","routeType":3,"routeId":"1:12","routeTextColor":"FFFFFF","interlineWithPreviousLeg":false,"tripBlockId":"27","headsign":"Terminus UQAC","agencyId":"0","tripId":"1:218014","serviceDate":"20180402","from":{"name":"Gascogne / Provence","stopId":"1:1536","stopCode":"1536","lon":-71.022239,"lat":48.419203,"arrival":1522691823000,"departure":1522691940000,"zoneId":"NA","stopIndex":24,"stopSequence":25,"vertexType":"TRANSIT"},"to":{"name":"nouveau","stopId":"1:2297","stopCode":"2297","lon":-71.02468,"lat":48.413593,"arrival":1522692083000,"departure":1522692084000,"zoneId":"NA","stopIndex":25,"stopSequence":26,"vertexType":"TRANSIT"},"legGeometry":{"points":"_{ofH~onpL`b@fN","length":2},"routeShortName":"12","routeLongName":"Rivière du Moulin","rentedBike":false,"transitLeg":true,"duration":143.0,"steps":[]},{"startTime":1522692084000,"endTime":1522694369000,"departureDelay":0,"arrivalDelay":0,"realTime":false,"distance":2977.905,"pathway":false,"mode":"WALK","route":"","agencyTimeZoneOffset":-14400000,"interlineWithPreviousLeg":false,"from":{"name":"nouveau","stopId":"1:2297","stopCode":"2297","lon":-71.02468,"lat":48.413593,"arrival":1522692083000,"departure":1522692084000,"zoneId":"NA","stopIndex":25,"stopSequence":26,"vertexType":"TRANSIT"},"to":{"name":"Destination","lon":-71.044398,"lat":48.40001,"arrival":1522694369000,"orig":"","vertexType":"NORMAL"},"legGeometry":{"points":"axnfHb~npLTEp@Kj@tKxB|MHl@TrAf@xEB\\L`CDh@@^ZvEHpAx@Of@s@|A@b@Ov@B\\Kh@@|@Ot@e@XMRS^c@JeAZTFhBBVDpAu@^CDAFF\\JFNb@ZJFN?XRHTMRN^Rb@\\NdALFJj@Pf@?PE`@C~@Tf@RZ^ZPb@ZNZHP^Tb@Pl@Tr@|B`@p@d@z@b@bAhAL|Ap@jCd@DZBXOHo@?aADw@Pu@xByE\\eATOT@HP`@`CNnCElCRlBLjGx@`Aj@|@Rd@r@tAjClDn@bA@`AFbATr@v@Tf@QRO@A","length":98},"alerts":[{"alertHeaderText":"Unpaved surface"}],"rentedBike":false,"transitLeg":false,"duration":2285.0,"steps":[{"distance":40.223,"relativeDirection":"DEPART","streetName":"Boulevard du Saguenay Est","absoluteDirection":"SOUTH","stayOn":false,"area":false,"bogusName":false,"lon":-71.02449091813529,"lat":48.41361228978169,"elevation":[]},{"distance":674.7560000000001,"relativeDirection":"RIGHT","streetName":"Boulevard de l'Université","absoluteDirection":"WEST","stayOn":false,"area":false,"bogusName":false,"lon":-71.0244078,"lat":48.413254800000004,"elevation":[]},{"distance":62.209,"relativeDirection":"LEFT","streetName":"path","absoluteDirection":"SOUTH","stayOn":false,"area":false,"bogusName":true,"lon":-71.0332252,"lat":48.411744500000005,"elevation":[],"alerts":[{"alertHeaderText":"Unpaved surface"}]},{"distance":386.934,"relativeDirection":"RIGHT","streetName":"Sentier des Moulins","absoluteDirection":"SOUTH","stayOn":false,"area":false,"bogusName":false,"lon":-71.0328834,"lat":48.4112566,"elevation":[],"alerts":[{"alertHeaderText":"Unpaved surface"}]},{"distance":63.259,"relativeDirection":"RIGHT","streetName":"steps","absoluteDirection":"NORTH","stayOn":false,"area":false,"bogusName":true,"lon":-71.03298500000001,"lat":48.408708000000004,"elevation":[]},{"distance":1750.5240000000001,"relativeDirection":"LEFT","streetName":"path","absoluteDirection":"WEST","stayOn":true,"area":false,"bogusName":true,"lon":-71.0331419,"lat":48.4089727,"elevation":[]}]}],"tooSloped":false}]},"debugOutput":{"precalculationTime":17,"pathCalculationTime":52,"pathTimes":[23,14,15],"renderingTime":3,"totalTime":72,"timedOut":false},"elevationMetadata":{"ellipsoidToGeoidDifference":-28.885904201182168,"geoidElevation":false}}