{"requestParameters":{"date":"2018/04/02","walkSpeed":"1.33","walkReluctance":"2.0","fromPlace":"48.403952,-71.054642","maxWalkDistance":"3000","waitReluctance":"1.0","carSpeed":"33","numItineraries":"3","waitAtBeginningFactor":"0.4","mode":"TRANSIT,WALK","ignoreRealtimeUpdates":"false","stairsReluctance":"2.0","toPlace":"48.415821,-71.046058","time":"12:5:00"},"plan":{"date":1522685100000,"from":{"name":"Origin","lon":-71.054642,"lat":48.403952,"orig":"","vertexType":"NORMAL"},"to":{"name":"Destination","lon":-71.046058,"lat":48.415821,"orig":"","vertexType":"NORMAL"},"itineraries":[{"duration":1410,"startTime":1522685100000,"endTime":1522686510000,"walkTime":1410,"transitTime":0,"waitingTime":0,"walkDistance":1807.2053909707834,"walkLimitExceeded":false,"elevationLost":0.0,"elevationGained":0.0,"transfers":0,"legs":[{"startTime":1522685100000,"endTime":1522686510000,"departureDelay":0,"arrivalDelay":0,"realTime":false,"distance":1806.9989999999996,"pathway":false,"mode":"WALK","route":"","agencyTimeZoneOffset":-14400000,"interlineWithPreviousLeg":false,"from":{"name":"Origin","lon":-71.054642,"lat":48.403952,"departure":1522685100000,"orig":"","vertexType":"NORMAL"},"to":{"name":"Destination","lon":-71.046058,"lat":48.415821,"arrival":1522686510000,"orig":"","vertexType":"NORMAL"},"legGeometry":{"points":"{zlfHhytpLKMS]U_@S]Yc@Vu@Ng@QSYWWUYWYY[YSSGH]bAGPMZg@rA]PGBU?[AW?KAc@Ae@A[AYWc@q@]d@[d@oAlEI^Md@o@LM@qFaFmAiAq@q@QSkDmDcDgDy@}@MKUYsI_JoAsAwC{Cy@{@aBeBUWHW^aAVy@","length":56},"rentedBike":false,"transitLeg":false,"duration":1410.0,"steps":[{"distance":117.35300000000001,"relativeDirection":"DEPART","streetName":"parking aisle","absoluteDirection":"NORTHEAST","stayOn":false,"area":false,"bogusName":false,"lon":-71.05444515294332,"lat":48.40382759190054,"elevation":[]},{"distance":110.875,"relativeDirection":"LEFT","streetName":"service road","absoluteDirection":"NORTHEAST","stayOn":false,"area":false,"bogusName":true,"lon":-71.0532652,"lat":48.4041209,"elevation":[]},{"distance":426.668,"relativeDirection":"LEFT","streetName":"service road","absoluteDirection":"NORTHWEST","stayOn":true,"area":false,"bogusName":true,"lon":-71.05245930000001,"lat":48.4049623,"elevation":[]},{"distance":34.36,"relativeDirection":"RIGHT","streetName":"path","absoluteDirection":"NORTH","stayOn":true,"area":false,"bogusName":true,"lon":-71.0549472,"lat":48.407719500000006,"elevation":[]},{"distance":1051.423,"relativeDirection":"RIGHT","streetName":"Boulevard Talbot","absoluteDirection":"NORTHEAST","stayOn":false,"area":false,"bogusName":false,"lon":-71.05502820000001,"lat":48.4080238,"elevation":[]},{"distance":66.32,"relativeDirection":"RIGHT","streetName":"Rue Chabanel","absoluteDirection":"SOUTHEAST","stayOn":false,"area":false,"bogusName":false,"lon":-71.0470797,"lat":48.415868800000005,"elevation":[]}]}],"tooSloped":false},{"duration":1202,"startTime":1522685521000,"endTime":1522686723000,"walkTime":1117,"transitTime":83,"waitingTime":2,"walkDistance":1410.3532631496578,"walkLimitExceeded":false,"elevationLost":0.0,"elevationGained":0.0,"transfers":0,"legs":[{"startTime":1522685521000,"endTime":1522685939000,"departureDelay":0,"arrivalDelay":0,"realTime":false,"distance":516.362,"pathway":false,"mode":"WALK","route":"","agencyTimeZoneOffset":-14400000,"interlineWithPreviousLeg":false,"from":{"name":"Origin","lon":-71.054642,"lat":48.403952,"departure":1522685521000,"orig":"","vertexType":"NORMAL"},"to":{"name":"Place du Royaume (Champs-Élysées)","stopId":"1:572","stopCode":"572","lon":-71.053302,"lat":48.407097,"arrival":1522685939000,"departure":1522685940000,"zoneId":"NA","stopIndex":13,"stopSequence":14,"vertexType":"TRANSIT"},"legGeometry":{"points":"{zlfHhytpLKMS]U_@S]Yc@Vu@Ng@QSYWWUYWYY[YSSGH]bAGPMZg@rA]PGBU?[AW?KAc@Ae@A[AYWc@q@]d@","length":32},"rentedBike":false,"transitLeg":false,"duration":418.0,"steps":[{"distance":117.35300000000001,"relativeDirection":"DEPART","streetName":"parking aisle","absoluteDirection":"NORTHEAST","stayOn":false,"area":false,"bogusName":false,"lon":-71.05444515294332,"lat":48.40382759190054,"elevation":[]},{"distance":110.875,"relativeDirection":"LEFT","streetName":"service road","absoluteDirection":"NORTHEAST","stayOn":false,"area":false,"bogusName":true,"lon":-71.0532652,"lat":48.4041209,"elevation":[]},{"distance":288.134,"relativeDirection":"LEFT","streetName":"service road","absoluteDirection":"NORTHWEST","stayOn":true,"area":false,"bogusName":true,"lon":-71.05245930000001,"lat":48.4049623,"elevation":[]}]},{"startTime":1522685940000,"endTime":1522686023000,"departureDelay":0,"arrivalDelay":0,"realTime":false,"distance":585.5548632683679,"pathway":false,"mode":"BUS","route":"12","agencyName":"Société de Transport du Saguenay","agencyUrl":"http://ville.saguenay.ca/fr/services-aux-citoyens/transport-sts","agencyTimeZoneOffset":-14400000,"routeColor":"556B2F","routeType":3,"routeId":"1:12","routeTextColor":"FFFFFF","interlineWithPreviousLeg":false,"tripBlockId":"26","headsign":"Terminus Chicoutimi","agencyId":"0","tripId":"1:217975","serviceDate":"20180402","from":{"name":"Place du Royaume (Champs-Élysées)","stopId":"1:572","stopCode":"572","lon":-71.053302,"lat":48.407097,"arrival":1522685939000,"departure":1522685940000,"zoneId":"NA","stopIndex":13,"stopSequence":14,"vertexType":"TRANSIT"},"to":{"name":"Sûreté du Québec (Roitelets / Lorenzo-Genest)","stopId":"1:195","stopCode":"195","lon":-71.048189,"lat":48.4095,"arrival":1522686023000,"departure":1522686024000,"zoneId":"NA","stopIndex":16,"stopSequence":17,"vertexType":"TRANSIT"},"legGeometry":{"points":"aomfHlrtpLlCyGa@yFYkD}CyA}KmF","length":6},"routeShortName":"12","routeLongName":"Rivière du Moulin","rentedBike":false,"transitLeg":true,"duration":83.0,"steps":[]},{"startTime":1522686024000,"endTime":1522686723000,"departureDelay":0,"arrivalDelay":0,"realTime":false,"distance":893.7360000000001,"pathway":false,"mode":"WALK","route":"","agencyTimeZoneOffset":-14400000,"interlineWithPreviousLeg":false,"from":{"name":"Sûreté du Québec (Roitelets / Lorenzo-Genest)","stopId":"1:195","stopCode":"195","lon":-71.048189,"lat":48.4095,"arrival":1522686023000,"departure":1522686024000,"zoneId":"NA","stopIndex":16,"stopSequence":17,"vertexType":"TRANSIT"},"to":{"name":"Destination","lon":-71.046058,"lat":48.415821,"arrival":1522686723000,"orig":"","vertexType":"NORMAL"},"legGeometry":{"points":"o~mfHtrspLk@Y_Bw@KEe@JYLa@n@G^yBdHWQoBsBeEcEeBmBQSi@k@ACm@m@aAsAc@mAo@_ACEu@iAeA`D","length":23},"rentedBike":false,"transitLeg":false,"duration":699.0,"steps":[{"distance":90.97600000000001,"relativeDirection":"DEPART","streetName":"Rue Des Roitelets","absoluteDirection":"NORTH","stayOn":false,"area":false,"bogusName":false,"lon":-71.04826942089277,"lat":48.40952065789795,"elevation":[]},{"distance":62.949,"relativeDirection":"SLIGHTLY_LEFT","streetName":"link","absoluteDirection":"NORTH","stayOn":false,"area":false,"bogusName":true,"lon":-71.0478246,"lat":48.4102837,"elevation":[]},{"distance":140.908,"relativeDirection":"SLIGHTLY_LEFT","streetName":"Boulevard de l'Université","absoluteDirection":"NORTHWEST","stayOn":false,"area":false,"bogusName":false,"lon":-71.04819570000001,"lat":48.410774100000005,"elevation":[]},{"distance":527.5210000000001,"relativeDirection":"RIGHT","streetName":"Rue Murdock","absoluteDirection":"NORTHEAST","stayOn":false,"area":false,"bogusName":false,"lon":-71.0498268,"lat":48.4114298,"elevation":[]},{"distance":71.382,"relativeDirection":"LEFT","streetName":"Rue Chabanel","absoluteDirection":"NORTHWEST","stayOn":false,"area":false,"bogusName":false,"lon":-71.0455232,"lat":48.4151863,"elevation":[]}]}],"tooSloped":false},{"duration":970,"startTime":1522685939000,"endTime":1522686909000,"walkTime":848,"transitTime":120,"waitingTime":2,"walkDistance":1083.7055864602091,"walkLimitExceeded":false,"elevationLost":0.0,"elevationGained":0.0,"transfers":0,"legs":[{"startTime":1522685939000,"endTime":1522686299000,"departureDelay":0,"arrivalDelay":0,"realTime":false,"distance":446.63599999999997,"pathway":false,"mode":"WALK","route":"","agencyTimeZoneOffset":-14400000,"interlineWithPreviousLeg":false,"from":{"name":"Origin","lon":-71.054642,"lat":48.403952,"departure":1522685939000,"orig":"","vertexType":"NORMAL"},"to":{"name":"Place Royaume","stopId":"1:1801","stopCode":"1801","lon":-71.057017,"lat":48.405588,"arrival":1522686299000,"departure":1522686300000,"zoneId":"NA","stopIndex":10,"stopSequence":11,"vertexType":"TRANSIT"},"legGeometry":{"points":"{zlfHhytpLJPNVVq@PCk@vDmBtGYWGGUCCCYU]Y[YYWq@tBa@zA","length":17},"rentedBike":false,"transitLeg":false,"duration":360.0,"steps":[{"distance":55.269,"relativeDirection":"DEPART","streetName":"parking aisle","absoluteDirection":"SOUTHWEST","stayOn":false,"area":false,"bogusName":false,"lon":-71.05444515294332,"lat":48.40382759190054,"elevation":[]},{"distance":191.916,"relativeDirection":"HARD_RIGHT","streetName":"path","absoluteDirection":"WEST","stayOn":false,"area":false,"bogusName":true,"lon":-71.0543818,"lat":48.403475,"elevation":[]},{"distance":109.13299999999998,"relativeDirection":"RIGHT","streetName":"service road","absoluteDirection":"NORTHEAST","stayOn":true,"area":false,"bogusName":true,"lon":-71.0566984,"lat":48.4042426,"elevation":[]},{"distance":90.318,"relativeDirection":"LEFT","streetName":"parking aisle","absoluteDirection":"NORTHWEST","stayOn":true,"area":false,"bogusName":true,"lon":-71.05600720000001,"lat":48.4050992,"elevation":[]}]},{"startTime":1522686300000,"endTime":1522686420000,"departureDelay":0,"arrivalDelay":0,"realTime":false,"distance":787.7561013906933,"pathway":false,"mode":"BUS","route":"175","agencyName":"Société de Transport du Saguenay","agencyUrl":"http://ville.saguenay.ca/fr/services-aux-citoyens/transport-sts","agencyTimeZoneOffset":-14400000,"routeColor":"FF00FF","routeType":3,"routeId":"1:175","routeTextColor":"FFFFFF","interlineWithPreviousLeg":false,"tripBlockId":"11","headsign":"Terminus Chicoutimi","agencyId":"0","tripId":"1:217473","serviceDate":"20180402","from":{"name":"Place Royaume","stopId":"1:1801","stopCode":"1801","lon":-71.057017,"lat":48.405588,"arrival":1522686299000,"departure":1522686300000,"zoneId":"NA","stopIndex":10,"stopSequence":11,"vertexType":"TRANSIT"},"to":{"name":"missingStopName","stopId":"1:1812","stopCode":"1812","lon":-71.051352,"lat":48.411592,"arrival":1522686420000,"departure":1522686421000,"zoneId":"NA","stopIndex":11,"stopSequence":12,"vertexType":"TRANSIT"},"legGeometry":{"points":"sfmfH`kupL_U_TcNgN","length":3},"routeShortName":"175","routeLongName":"Term. Chic / Costco","rentedBike":false,"transitLeg":true,"duration":120.0,"steps":[]},{"startTime":1522686421000,"endTime":1522686909000,"departureDelay":0,"arrivalDelay":0,"realTime":false,"distance":636.885,"pathway":false,"mode":"WALK","route":"","agencyTimeZoneOffset":-14400000,"interlineWithPreviousLeg":false,"from":{"name":"missingStopName","stopId":"1:1812","stopCode":"1812","lon":-71.051352,"lat":48.411592,"arrival":1522686420000,"departure":1522686421000,"zoneId":"NA","stopIndex":11,"stopSequence":12,"vertexType":"TRANSIT"},"to":{"name":"Destination","lon":-71.046058,"lat":48.415821,"arrival":1522686909000,"orig":"","vertexType":"NORMAL"},"legGeometry":{"points":"wknfHtftpLy@}@MKUYsI_JoAsAwC{Cy@{@aBeBUWHW^aAVy@","length":13},"rentedBike":false,"transitLeg":false,"duration":488.0,"steps":[{"distance":570.5649999999999,"relativeDirection":"DEPART","streetName":"Boulevard Talbot","absoluteDirection":"NORTHEAST","stayOn":false,"area":false,"bogusName":false,"lon":-71.05146038442705,"lat":48.41164093434771,"elevation":[]},{"distance":66.32,"relativeDirection":"RIGHT","streetName":"Rue Chabanel","absoluteDirection":"SOUTHEAST","stayOn":false,"area":false,"bogusName":false,"lon":-71.0470797,"lat":48.415868800000005,"elevation":[]}]}],"tooSloped":false}]},"debugOutput":{"precalculationTime":37,"pathCalculationTime":33,"pathTimes":[24,4,5],"renderingTime":0,"totalTime":70,"timedOut":false},"elevationMetadata":{"ellipsoidToGeoidDifference":-28.885904201182168,"geoidElevation":false}}