{"requestParameters":{"date":"2018/04/02","walkSpeed":"1.33","walkReluctance":"2.0","fromPlace":"48.40513,-71.06202999","maxWalkDistance":"3000","waitReluctance":"1.0","carSpeed":"33","numItineraries":"3","waitAtBeginningFactor":"0.4","mode":"TRANSIT,WALK","ignoreRealtimeUpdates":"false","stairsReluctance":"2.0","toPlace":"48.414993,-71.07373","time":"14:0:00"},"plan":{"date":1522692000000,"from":{"name":"Origin","lon":-71.06202999,"lat":48.40513,"orig":"","vertexType":"NORMAL"},"to":{"name":"Destination","lon":-71.07373,"lat":48.414993,"orig":"","vertexType":"NORMAL"},"itineraries":[{"duration":1423,"startTime":1522692000000,"endTime":1522693423000,"walkTime":1423,"transitTime":0,"waitingTime":0,"walkDistance":1842.8336014992228,"walkLimitExceeded":false,"elevationLost":0.0,"elevationGained":0.0,"transfers":0,"legs":[{"startTime":1522692000000,"endTime":1522693423000,"departureDelay":0,"arrivalDelay":0,"realTime":false,"distance":1842.6930000000002,"pathway":false,"mode":"WALK","route":"","agencyTimeZoneOffset":-14400000,"interlineWithPreviousLeg":false,"from":{"name":"Origin","lon":-71.06202999,"lat":48.40513,"departure":1522692000000,"orig":"","vertexType":"NORMAL"},"to":{"name":"Destination","lon":-71.07373,"lat":48.414993,"arrival":1522693423000,"orig":"","vertexType":"NORMAL"},"legGeometry":{"points":"kemfHdfvpLcAjCQd@bBlFcA~@CB?@gAvA{@dCm@|AGNgBxEGNELQ`@??aD`IKZSO]CGAo@HqBFi@?uBJi@?SAa@UkA{@A?m@e@w@Yw@E{CGK?MUs@m@{@u@UIIP}AhEi@xAc@jAzBtEaEzKcBjE","length":46},"rentedBike":false,"transitLeg":false,"duration":1423.0,"steps":[{"distance":184.543,"relativeDirection":"DEPART","streetName":"Rue Des Maristes","absoluteDirection":"NORTHWEST","stayOn":false,"area":false,"bogusName":false,"lon":-71.06162332321281,"lat":48.40550660167406,"elevation":[]},{"distance":498.9550000000001,"relativeDirection":"RIGHT","streetName":"Rue des Saguenéens","absoluteDirection":"NORTHWEST","stayOn":false,"area":false,"bogusName":false,"lon":-71.0637066,"lat":48.4054395,"elevation":[]},{"distance":503.3069999999999,"relativeDirection":"RIGHT","streetName":"Rue Bégin","absoluteDirection":"NORTHEAST","stayOn":false,"area":false,"bogusName":false,"lon":-71.0688714,"lat":48.4082796,"elevation":[]},{"distance":96.293,"relativeDirection":"RIGHT","streetName":"Rue Bégin","absoluteDirection":"NORTHEAST","stayOn":true,"area":false,"bogusName":false,"lon":-71.0681022,"lat":48.4126786,"elevation":[]},{"distance":174.902,"relativeDirection":"LEFT","streetName":"Rue Des Oblats Est","absoluteDirection":"NORTHWEST","stayOn":false,"area":false,"bogusName":false,"lon":-71.06744280000001,"lat":48.413416500000004,"elevation":[]},{"distance":104.642,"relativeDirection":"LEFT","streetName":"Rue Jolliet","absoluteDirection":"SOUTHWEST","stayOn":false,"area":false,"bogusName":false,"lon":-71.0693767,"lat":48.414325600000005,"elevation":[]},{"distance":280.051,"relativeDirection":"RIGHT","streetName":"Rue Villeneuve","absoluteDirection":"NORTHWEST","stayOn":false,"area":false,"bogusName":false,"lon":-71.0704453,"lat":48.4137071,"elevation":[]}]}],"tooSloped":false},{"duration":1557,"startTime":1522692119000,"endTime":1522693676000,"walkTime":444,"transitTime":1111,"waitingTime":2,"walkDistance":567.5781503723857,"walkLimitExceeded":false,"elevationLost":0.0,"elevationGained":0.0,"transfers":0,"legs":[{"startTime":1522692119000,"endTime":1522692293000,"departureDelay":0,"arrivalDelay":0,"realTime":false,"distance":228.815,"pathway":false,"mode":"WALK","route":"","agencyTimeZoneOffset":-14400000,"interlineWithPreviousLeg":false,"from":{"name":"Origin","lon":-71.06202999,"lat":48.40513,"departure":1522692119000,"orig":"","vertexType":"NORMAL"},"to":{"name":"Saguenéens / Maristes","stopId":"1:1999","stopCode":"1999","lon":-71.06394,"lat":48.405813,"arrival":1522692293000,"departure":1522692294000,"zoneId":"NA","stopIndex":21,"stopSequence":22,"vertexType":"TRANSIT"},"legGeometry":{"points":"kemfHdfvpLcAjCQd@bBlFcA~@","length":5},"rentedBike":false,"transitLeg":false,"duration":174.0,"steps":[{"distance":184.543,"relativeDirection":"DEPART","streetName":"Rue Des Maristes","absoluteDirection":"NORTHWEST","stayOn":false,"area":false,"bogusName":false,"lon":-71.06162332321281,"lat":48.40550660167406,"elevation":[]},{"distance":44.272,"relativeDirection":"RIGHT","streetName":"Rue des Saguenéens","absoluteDirection":"NORTHWEST","stayOn":false,"area":false,"bogusName":false,"lon":-71.0637066,"lat":48.4054395,"elevation":[]}]},{"startTime":1522692294000,"endTime":1522692720000,"departureDelay":0,"arrivalDelay":0,"realTime":false,"distance":3754.725243515113,"pathway":false,"mode":"BUS","route":"15","agencyName":"Société de Transport du Saguenay","agencyUrl":"http://ville.saguenay.ca/fr/services-aux-citoyens/transport-sts","agencyTimeZoneOffset":-14400000,"routeColor":"FF00FF","routeType":3,"routeId":"1:15","routeTextColor":"FFFFFF","interlineWithPreviousLeg":false,"tripBlockId":"31","headsign":"Talbot / Barrette","agencyId":"0","tripId":"1:218136","serviceDate":"20180402","from":{"name":"Saguenéens / Maristes","stopId":"1:1999","stopCode":"1999","lon":-71.06394,"lat":48.405813,"arrival":1522692293000,"departure":1522692294000,"zoneId":"NA","stopIndex":21,"stopSequence":22,"vertexType":"TRANSIT"},"to":{"name":"Roitelets / Sapins","stopId":"1:1543","stopCode":"1543","lon":-71.069553,"lat":48.393375,"arrival":1522692720000,"departure":1522692720000,"zoneId":"NA","stopIndex":35,"stopSequence":36,"vertexType":"TRANSIT"},"legGeometry":{"points":"{emfHpvvpLtDsH~DeItC{FnBoLbCaO?qLa@uJzF`ApF~@~@PzAgEeDcBf@qAWcKUqEx@Ef@ExDVjDxAFBrBvAfGjG@BjCzC~DxC@@zA~Cb@fCJlC?BsBre@?DWbOAn@?nEGnM@H\\hCzA~ELvAAlAi@jDo@nB","length":44},"routeShortName":"15","routeLongName":"Term. Chic / Costco","rentedBike":false,"transitLeg":true,"duration":426.0,"steps":[]},{"startTime":1522692720000,"endTime":1522693405000,"departureDelay":0,"arrivalDelay":0,"realTime":false,"distance":5933.97446929511,"pathway":false,"mode":"BUS","route":"14","agencyName":"Société de Transport du Saguenay","agencyUrl":"http://ville.saguenay.ca/fr/services-aux-citoyens/transport-sts","agencyTimeZoneOffset":-14400000,"routeColor":"C0C000","routeType":3,"routeId":"1:14","routeTextColor":"000000","interlineWithPreviousLeg":true,"tripBlockId":"31","headsign":"Terminus Chicoutimi","agencyId":"0","tripId":"1:218137","serviceDate":"20180402","from":{"name":"Roitelets / Sapins","stopId":"1:1513","stopCode":"1513","lon":-71.069396,"lat":48.393523,"arrival":1522692720000,"departure":1522692720000,"zoneId":"NA","stopIndex":0,"stopSequence":1,"vertexType":"TRANSIT"},"to":{"name":"Boily / Oblats","stopId":"1:549","stopCode":"549","lon":-71.075339,"lat":48.416894,"arrival":1522693405000,"departure":1522693406000,"zoneId":"NA","stopIndex":24,"stopSequence":25,"vertexType":"TRANSIT"},"legGeometry":{"points":"azjfHfwwpLiEfLuBzFsAnDgGzSWfAcD`Mi@dCgChLmCzMwGd\\aDxOdFtFhCtCdDY|F_On@aB`B_GNoBvAyT|@sNuAyAuF}F}AaB_BkAC@qC\\gAWiBwBiKgMiCwEgEyHCGy@uB}@rAa@nAc@lFEf@mGvUYfAqCs@ICMCqFmDc@s@mAkBuEoESUgAhDiAfD}@zDyAcA_@Um@U{AWgB_Au@s@EEsBkCqFgF{IiI","length":61},"routeShortName":"14","routeLongName":"Coopérative","rentedBike":false,"transitLeg":true,"duration":685.0,"steps":[]},{"startTime":1522693406000,"endTime":1522693676000,"departureDelay":0,"arrivalDelay":0,"realTime":false,"distance":338.653,"pathway":false,"mode":"WALK","route":"","agencyTimeZoneOffset":-14400000,"interlineWithPreviousLeg":false,"from":{"name":"Boily / Oblats","stopId":"1:549","stopCode":"549","lon":-71.075339,"lat":48.416894,"arrival":1522693405000,"departure":1522693406000,"zoneId":"NA","stopIndex":24,"stopSequence":25,"vertexType":"TRANSIT"},"to":{"name":"Destination","lon":-71.07373,"lat":48.414993,"arrival":1522693676000,"orig":"","vertexType":"NORMAL"},"legGeometry":{"points":"ulofHf|xpLYWd@qAhCoHPa@jCtCf@oA","length":7},"rentedBike":false,"transitLeg":false,"duration":270.0,"steps":[{"distance":16.791,"relativeDirection":"DEPART","streetName":"Rue Boily","absoluteDirection":"NORTHEAST","stayOn":false,"area":false,"bogusName":false,"lon":-71.07539806257614,"lat":48.41691923898224,"elevation":[]},{"distance":189.16500000000002,"relativeDirection":"RIGHT","streetName":"Rue Des Oblats Est","absoluteDirection":"SOUTHEAST","stayOn":false,"area":false,"bogusName":false,"lon":-71.07527490000001,"lat":48.4170462,"elevation":[]},{"distance":95.961,"relativeDirection":"RIGHT","streetName":"Rue McLaren","absoluteDirection":"SOUTHWEST","stayOn":false,"area":false,"bogusName":false,"lon":-71.0731719,"lat":48.416073700000005,"elevation":[]},{"distance":36.736,"relativeDirection":"LEFT","streetName":"Rue Villeneuve","absoluteDirection":"SOUTHEAST","stayOn":false,"area":false,"bogusName":false,"lon":-71.0739284,"lat":48.4153718,"elevation":[]}]}],"tooSloped":false},{"duration":1003,"startTime":1522693059000,"endTime":1522694062000,"walkTime":648,"transitTime":353,"waitingTime":2,"walkDistance":840.7301202975859,"walkLimitExceeded":false,"elevationLost":0.0,"elevationGained":0.0,"transfers":0,"legs":[{"startTime":1522693059000,"endTime":1522693233000,"departureDelay":0,"arrivalDelay":0,"realTime":false,"distance":228.815,"pathway":false,"mode":"WALK","route":"","agencyTimeZoneOffset":-14400000,"interlineWithPreviousLeg":false,"from":{"name":"Origin","lon":-71.06202999,"lat":48.40513,"departure":1522693059000,"orig":"","vertexType":"NORMAL"},"to":{"name":"Saguenéens / Maristes","stopId":"1:1999","stopCode":"1999","lon":-71.06394,"lat":48.405813,"arrival":1522693233000,"departure":1522693234000,"zoneId":"NA","stopIndex":14,"stopSequence":15,"vertexType":"TRANSIT"},"legGeometry":{"points":"kemfHdfvpLcAjCQd@bBlFcA~@","length":5},"rentedBike":false,"transitLeg":false,"duration":174.0,"steps":[{"distance":184.543,"relativeDirection":"DEPART","streetName":"Rue Des Maristes","absoluteDirection":"NORTHWEST","stayOn":false,"area":false,"bogusName":false,"lon":-71.06162332321281,"lat":48.40550660167406,"elevation":[]},{"distance":44.272,"relativeDirection":"RIGHT","streetName":"Rue des Saguenéens","absoluteDirection":"NORTHWEST","stayOn":false,"area":false,"bogusName":false,"lon":-71.0637066,"lat":48.4054395,"elevation":[]}]},{"startTime":1522693234000,"endTime":1522693587000,"departureDelay":0,"arrivalDelay":0,"realTime":false,"distance":1973.0231897735894,"pathway":false,"mode":"BUS","route":"15","agencyName":"Société de Transport du Saguenay","agencyUrl":"http://ville.saguenay.ca/fr/services-aux-citoyens/transport-sts","agencyTimeZoneOffset":-14400000,"routeColor":"FF00FF","routeType":3,"routeId":"1:15","routeTextColor":"FFFFFF","interlineWithPreviousLeg":false,"tripBlockId":"30","headsign":"Terminus Chicoutimi","agencyId":"0","tripId":"1:218102","serviceDate":"20180402","from":{"name":"Saguenéens / Maristes","stopId":"1:1999","stopCode":"1999","lon":-71.06394,"lat":48.405813,"arrival":1522693233000,"departure":1522693234000,"zoneId":"NA","stopIndex":14,"stopSequence":15,"vertexType":"TRANSIT"},"to":{"name":"École secondaire de l'Odyssé Dominique-Racine","stopId":"1:580","stopCode":"580","lon":-71.067703,"lat":48.412977,"arrival":1522693587000,"departure":1522693588000,"zoneId":"NA","stopIndex":24,"stopSequence":25,"vertexType":"TRANSIT"},"legGeometry":{"points":"_gmfHluvpLUP_@d@Yl@oBdFeCxG_CfGYVQXS\\dK|HlFZbC\\p@zA\\rB@hBiArG{BNw@FiG}@iDwAECcCcBo@y@sEeGe@o@qAa@m@MoB?C@}BZwAc@oA_Bs@gDCKZ{Di@QECc@_@","length":39},"routeShortName":"15","routeLongName":"Term. Chic / Costco","rentedBike":false,"transitLeg":true,"duration":353.0,"steps":[]},{"startTime":1522693588000,"endTime":1522694062000,"departureDelay":0,"arrivalDelay":0,"realTime":false,"distance":611.817,"pathway":false,"mode":"WALK","route":"","agencyTimeZoneOffset":-14400000,"interlineWithPreviousLeg":false,"from":{"name":"École secondaire de l'Odyssé Dominique-Racine","stopId":"1:580","stopCode":"580","lon":-71.067703,"lat":48.412977,"arrival":1522693587000,"departure":1522693588000,"zoneId":"NA","stopIndex":24,"stopSequence":25,"vertexType":"TRANSIT"},"to":{"name":"Destination","lon":-71.07373,"lat":48.414993,"arrival":1522694062000,"orig":"","vertexType":"NORMAL"},"legGeometry":{"points":"gtnfHplwpL{@u@UIIP}AhEi@xAc@jAzBtEaEzKcBjE","length":10},"rentedBike":false,"transitLeg":false,"duration":474.0,"steps":[{"distance":52.222,"relativeDirection":"DEPART","streetName":"Rue Bégin","absoluteDirection":"NORTHEAST","stayOn":false,"area":false,"bogusName":false,"lon":-71.06776357747735,"lat":48.41300064951352,"elevation":[]},{"distance":174.902,"relativeDirection":"LEFT","streetName":"Rue Des Oblats Est","absoluteDirection":"NORTHWEST","stayOn":false,"area":false,"bogusName":false,"lon":-71.06744280000001,"lat":48.413416500000004,"elevation":[]},{"distance":104.642,"relativeDirection":"LEFT","streetName":"Rue Jolliet","absoluteDirection":"SOUTHWEST","stayOn":false,"area":false,"bogusName":false,"lon":-71.0693767,"lat":48.414325600000005,"elevation":[]},{"distance":280.051,"relativeDirection":"RIGHT","streetName":"Rue Villeneuve","absoluteDirection":"NORTHWEST","stayOn":false,"area":false,"bogusName":false,"lon":-71.0704453,"lat":48.4137071,"elevation":[]}]}],"tooSloped":false}]},"debugOutput":{"precalculationTime":29,"pathCalculationTime":34,"pathTimes":[25,4,5],"renderingTime":1,"totalTime":64,"timedOut":false},"elevationMetadata":{"ellipsoidToGeoidDifference":-28.885904201182168,"geoidElevation":false}}