{"requestParameters":{"date":"2018/04/02","walkSpeed":"1.33","walkReluctance":"2.0","fromPlace":"48.413599,-71.071864","maxWalkDistance":"3000","waitReluctance":"1.0","carSpeed":"33","numItineraries":"3","waitAtBeginningFactor":"0.4","mode":"TRANSIT,WALK","ignoreRealtimeUpdates":"false","stairsReluctance":"2.0","toPlace":"48.418729,-71.053021","time":"8:15:00"},"plan":{"date":1522671300000,"from":{"name":"Origin","lon":-71.071864,"lat":48.413599,"orig":"","vertexType":"NORMAL"},"to":{"name":"Destination","lon":-71.053021,"lat":48.418729,"orig":"","vertexType":"NORMAL"},"itineraries":[{"duration":932,"startTime":1522671606000,"endTime":1522672538000,"walkTime":657,"transitTime":273,"waitingTime":2,"walkDistance":836.3588947317475,"walkLimitExceeded":false,"elevationLost":0.0,"elevationGained":0.0,"transfers":0,"legs":[{"startTime":1522671606000,"endTime":1522671986000,"departureDelay":0,"arrivalDelay":0,"realTime":false,"distance":487.682,"pathway":false,"mode":"WALK","route":"","agencyTimeZoneOffset":-14400000,"interlineWithPreviousLeg":false,"from":{"name":"Origin","lon":-71.071864,"lat":48.413599,"departure":1522671606000,"orig":"","vertexType":"NORMAL"},"to":{"name":"École secondaire de l'Odyssé Dominique-Racine","stopId":"1:580","stopCode":"580","lon":-71.067703,"lat":48.412977,"arrival":1522671986000,"departure":1522671987000,"zoneId":"NA","stopIndex":24,"stopSequence":25,"vertexType":"TRANSIT"},"legGeometry":{"points":"{vnfHlgxpL|@}BuBeE{BuEb@kAh@yA|AiEHQTHz@t@","length":10},"rentedBike":false,"transitLeg":false,"duration":380.0,"steps":[{"distance":57.676,"relativeDirection":"DEPART","streetName":"Rue Duvernay","absoluteDirection":"SOUTHEAST","stayOn":false,"area":false,"bogusName":false,"lon":-71.07206024458216,"lat":48.41342323660567,"elevation":[]},{"distance":202.882,"relativeDirection":"LEFT","streetName":"Rue Jolliet","absoluteDirection":"NORTHEAST","stayOn":false,"area":false,"bogusName":false,"lon":-71.0714324,"lat":48.413114400000005,"elevation":[]},{"distance":174.902,"relativeDirection":"RIGHT","streetName":"Rue Des Oblats Est","absoluteDirection":"SOUTHEAST","stayOn":false,"area":false,"bogusName":false,"lon":-71.0693767,"lat":48.414325600000005,"elevation":[]},{"distance":52.222,"relativeDirection":"RIGHT","streetName":"Rue Bégin","absoluteDirection":"SOUTH","stayOn":false,"area":false,"bogusName":false,"lon":-71.06744280000001,"lat":48.413416500000004,"elevation":[]}]},{"startTime":1522671987000,"endTime":1522672260000,"departureDelay":0,"arrivalDelay":0,"realTime":false,"distance":1490.8792790752962,"pathway":false,"mode":"BUS","route":"15","agencyName":"Société de Transport du Saguenay","agencyUrl":"http://ville.saguenay.ca/fr/services-aux-citoyens/transport-sts","agencyTimeZoneOffset":-14400000,"routeColor":"FF00FF","routeType":3,"routeId":"1:15","routeTextColor":"FFFFFF","interlineWithPreviousLeg":false,"tripBlockId":"30","headsign":"Terminus Chicoutimi","agencyId":"0","tripId":"1:218090","serviceDate":"20180402","from":{"name":"École secondaire de l'Odyssé Dominique-Racine","stopId":"1:580","stopCode":"580","lon":-71.067703,"lat":48.412977,"arrival":1522671986000,"departure":1522671987000,"zoneId":"NA","stopIndex":24,"stopSequence":25,"vertexType":"TRANSIT"},"to":{"name":"Terminus UQAC","stopId":"1:1670","stopCode":"1670","lon":-71.053369,"lat":48.420903,"arrival":1522672260000,"departure":1522672261000,"zoneId":"NA","stopIndex":29,"stopSequence":30,"vertexType":"TRANSIT"},"legGeometry":{"points":"ktnfH~lwpLsAkAoBwB_EcE{A_BoAmAk@o@cCaCkIkIaJaJUUwBaCj@wCjAsCzGoG_CoHL{D_@kAqD{CQr@iAcA","length":21},"routeShortName":"15","routeLongName":"Term. Chic / Costco","rentedBike":false,"transitLeg":true,"duration":273.0,"steps":[]},{"startTime":1522672261000,"endTime":1522672538000,"departureDelay":0,"arrivalDelay":0,"realTime":false,"distance":348.51900000000006,"pathway":false,"mode":"WALK","route":"","agencyTimeZoneOffset":-14400000,"interlineWithPreviousLeg":false,"from":{"name":"Terminus UQAC","stopId":"1:1670","stopCode":"1670","lon":-71.053369,"lat":48.420903,"arrival":1522672260000,"departure":1522672261000,"zoneId":"NA","stopIndex":29,"stopSequence":30,"vertexType":"TRANSIT"},"to":{"name":"Destination","lon":-71.053021,"lat":48.418729,"arrival":1522672538000,"orig":"","vertexType":"NORMAL"},"legGeometry":{"points":"sepfHrrtpLbA`ATq@f@wAd@wATs@X{@p@Y~@`AB@vBtB","length":11},"rentedBike":false,"transitLeg":false,"duration":277.0,"steps":[{"distance":269.46700000000004,"relativeDirection":"DEPART","streetName":"service road","absoluteDirection":"SOUTHWEST","stayOn":false,"area":false,"bogusName":true,"lon":-71.0533724395415,"lat":48.420904465432976,"elevation":[]},{"distance":79.052,"relativeDirection":"CONTINUE","streetName":"path","absoluteDirection":"SOUTHWEST","stayOn":false,"area":false,"bogusName":false,"lon":-71.05222810000001,"lat":48.41923430000001,"elevation":[]}]}],"tooSloped":false},{"duration":1210,"startTime":1522671328000,"endTime":1522672538000,"walkTime":709,"transitTime":499,"waitingTime":2,"walkDistance":903.6031954829722,"walkLimitExceeded":false,"elevationLost":0.0,"elevationGained":0.0,"transfers":0,"legs":[{"startTime":1522671328000,"endTime":1522671760000,"departureDelay":0,"arrivalDelay":0,"realTime":false,"distance":554.9060000000001,"pathway":false,"mode":"WALK","route":"","agencyTimeZoneOffset":-14400000,"interlineWithPreviousLeg":false,"from":{"name":"Origin","lon":-71.071864,"lat":48.413599,"departure":1522671328000,"orig":"","vertexType":"NORMAL"},"to":{"name":"Parc Saint-Joachim (Boily)","stopId":"1:548","stopCode":"548","lon":-71.076897,"lat":48.415117,"arrival":1522671760000,"departure":1522671761000,"zoneId":"NA","stopIndex":23,"stopSequence":24,"vertexType":"TRANSIT"},"legGeometry":{"points":"{vnfHlgxpLqBdFjC|CmCdHaDzCyBtBn@j@","length":7},"rentedBike":false,"transitLeg":false,"duration":432.0,"steps":[{"distance":106.199,"relativeDirection":"DEPART","streetName":"Rue Duvernay","absoluteDirection":"NORTHWEST","stayOn":false,"area":false,"bogusName":false,"lon":-71.07206024458216,"lat":48.41342323660567,"elevation":[]},{"distance":96.595,"relativeDirection":"LEFT","streetName":"Rue Couture","absoluteDirection":"SOUTHWEST","stayOn":false,"area":false,"bogusName":false,"lon":-71.0732163,"lat":48.413991900000006,"elevation":[]},{"distance":321.194,"relativeDirection":"RIGHT","streetName":"Rue Thomas Duperré","absoluteDirection":"NORTHWEST","stayOn":false,"area":false,"bogusName":false,"lon":-71.07400530000001,"lat":48.4132988,"elevation":[]},{"distance":30.918,"relativeDirection":"HARD_LEFT","streetName":"Rue Boily","absoluteDirection":"SOUTHWEST","stayOn":false,"area":false,"bogusName":false,"lon":-71.0768455,"lat":48.4154246,"elevation":[]}]},{"startTime":1522671761000,"endTime":1522672260000,"departureDelay":0,"arrivalDelay":0,"realTime":false,"distance":2222.6378987876087,"pathway":false,"mode":"BUS","route":"14","agencyName":"Société de Transport du Saguenay","agencyUrl":"http://ville.saguenay.ca/fr/services-aux-citoyens/transport-sts","agencyTimeZoneOffset":-14400000,"routeColor":"C0C000","routeType":3,"routeId":"1:14","routeTextColor":"000000","interlineWithPreviousLeg":false,"tripBlockId":"31","headsign":"Terminus Chicoutimi","agencyId":"0","tripId":"1:218125","serviceDate":"20180402","from":{"name":"Parc Saint-Joachim (Boily)","stopId":"1:548","stopCode":"548","lon":-71.076897,"lat":48.415117,"arrival":1522671760000,"departure":1522671761000,"zoneId":"NA","stopIndex":23,"stopSequence":24,"vertexType":"TRANSIT"},"to":{"name":"Terminus UQAC","stopId":"1:1670","stopCode":"1670","lon":-71.053369,"lat":48.420903,"arrival":1522672260000,"departure":1522672261000,"zoneId":"NA","stopIndex":29,"stopSequence":30,"vertexType":"TRANSIT"},"legGeometry":{"points":"{aofHrfypL{IiI][aBhE}@}@oBmBwE{EwE{Ej@mBZeAa@SyEQg@CPcALuCx@{b@t@{[XoDd@sBl@iB~@gA`G{F{A{D_@sBFqDOq@iG{F","length":27},"routeShortName":"14","routeLongName":"Coopérative","rentedBike":false,"transitLeg":true,"duration":499.0,"steps":[]},{"startTime":1522672261000,"endTime":1522672538000,"departureDelay":0,"arrivalDelay":0,"realTime":false,"distance":348.51900000000006,"pathway":false,"mode":"WALK","route":"","agencyTimeZoneOffset":-14400000,"interlineWithPreviousLeg":false,"from":{"name":"Terminus UQAC","stopId":"1:1670","stopCode":"1670","lon":-71.053369,"lat":48.420903,"arrival":1522672260000,"departure":1522672261000,"zoneId":"NA","stopIndex":29,"stopSequence":30,"vertexType":"TRANSIT"},"to":{"name":"Destination","lon":-71.053021,"lat":48.418729,"arrival":1522672538000,"orig":"","vertexType":"NORMAL"},"legGeometry":{"points":"sepfHrrtpLbA`ATq@f@wAd@wATs@X{@p@Y~@`AB@vBtB","length":11},"rentedBike":false,"transitLeg":false,"duration":277.0,"steps":[{"distance":269.46700000000004,"relativeDirection":"DEPART","streetName":"service road","absoluteDirection":"SOUTHWEST","stayOn":false,"area":false,"bogusName":true,"lon":-71.0533724395415,"lat":48.420904465432976,"elevation":[]},{"distance":79.052,"relativeDirection":"CONTINUE","streetName":"path","absoluteDirection":"SOUTHWEST","stayOn":false,"area":false,"bogusName":false,"lon":-71.05222810000001,"lat":48.41923430000001,"elevation":[]}]}],"tooSloped":false},{"duration":1125,"startTime":1522672133000,"endTime":1522673258000,"walkTime":925,"transitTime":198,"waitingTime":2,"walkDistance":1182.6616090163088,"walkLimitExceeded":false,"elevationLost":0.0,"elevationGained":0.0,"transfers":0,"legs":[{"startTime":1522672133000,"endTime":1522672781000,"departureDelay":0,"arrivalDelay":0,"realTime":false,"distance":833.949,"pathway":false,"mode":"WALK","route":"","agencyTimeZoneOffset":-14400000,"interlineWithPreviousLeg":false,"from":{"name":"Origin","lon":-71.071864,"lat":48.413599,"departure":1522672133000,"orig":"","vertexType":"NORMAL"},"to":{"name":"Champs-Élysées / Bégin","stopId":"1:587","stopCode":"587","lon":-71.064119,"lat":48.41589,"arrival":1522672781000,"departure":1522672782000,"zoneId":"NA","stopIndex":32,"stopSequence":33,"vertexType":"TRANSIT"},"legGeometry":{"points":"{vnfHlgxpL|@}BuBeE{BuEb@kAh@yA|AiEHQ_BwBsCqCw@w@CCGGsCqCMOo@m@j@kB","length":17},"rentedBike":false,"transitLeg":false,"duration":648.0,"steps":[{"distance":57.676,"relativeDirection":"DEPART","streetName":"Rue Duvernay","absoluteDirection":"SOUTHEAST","stayOn":false,"area":false,"bogusName":false,"lon":-71.07206024458216,"lat":48.41342323660567,"elevation":[]},{"distance":202.882,"relativeDirection":"LEFT","streetName":"Rue Jolliet","absoluteDirection":"NORTHEAST","stayOn":false,"area":false,"bogusName":false,"lon":-71.0714324,"lat":48.413114400000005,"elevation":[]},{"distance":174.902,"relativeDirection":"RIGHT","streetName":"Rue Des Oblats Est","absoluteDirection":"SOUTHEAST","stayOn":false,"area":false,"bogusName":false,"lon":-71.0693767,"lat":48.414325600000005,"elevation":[]},{"distance":352.20399999999995,"relativeDirection":"LEFT","streetName":"Rue Bégin","absoluteDirection":"NORTHEAST","stayOn":false,"area":false,"bogusName":false,"lon":-71.06744280000001,"lat":48.413416500000004,"elevation":[]},{"distance":46.285,"relativeDirection":"RIGHT","streetName":"Rue des Champs-Élysées","absoluteDirection":"SOUTHEAST","stayOn":false,"area":false,"bogusName":false,"lon":-71.0647342,"lat":48.416021,"elevation":[]}]},{"startTime":1522672782000,"endTime":1522672980000,"departureDelay":0,"arrivalDelay":0,"realTime":false,"distance":1416.782785464648,"pathway":false,"mode":"BUS","route":"12","agencyName":"Société de Transport du Saguenay","agencyUrl":"http://ville.saguenay.ca/fr/services-aux-citoyens/transport-sts","agencyTimeZoneOffset":-14400000,"routeColor":"556B2F","routeType":3,"routeId":"1:12","routeTextColor":"FFFFFF","interlineWithPreviousLeg":false,"tripBlockId":"28","headsign":"Terminus UQAC","agencyId":"0","tripId":"1:218029","serviceDate":"20180402","from":{"name":"Champs-Élysées / Bégin","stopId":"1:587","stopCode":"587","lon":-71.064119,"lat":48.41589,"arrival":1522672781000,"departure":1522672782000,"zoneId":"NA","stopIndex":32,"stopSequence":33,"vertexType":"TRANSIT"},"to":{"name":"Terminus UQAC","stopId":"1:1670","stopCode":"1670","lon":-71.053369,"lat":48.420903,"arrival":1522672980000,"departure":1522672981000,"zoneId":"NA","stopIndex":39,"stopSequence":40,"vertexType":"TRANSIT"},"legGeometry":{"points":"ifofHvuvpLuCYmIeIeJ_J{J{JwCiThFaQhC`E","length":8},"routeShortName":"12","routeLongName":"Rivière du Moulin","rentedBike":false,"transitLeg":true,"duration":198.0,"steps":[]},{"startTime":1522672981000,"endTime":1522673258000,"departureDelay":0,"arrivalDelay":0,"realTime":false,"distance":348.51900000000006,"pathway":false,"mode":"WALK","route":"","agencyTimeZoneOffset":-14400000,"interlineWithPreviousLeg":false,"from":{"name":"Terminus UQAC","stopId":"1:1670","stopCode":"1670","lon":-71.053369,"lat":48.420903,"arrival":1522672980000,"departure":1522672981000,"zoneId":"NA","stopIndex":39,"stopSequence":40,"vertexType":"TRANSIT"},"to":{"name":"Destination","lon":-71.053021,"lat":48.418729,"arrival":1522673258000,"orig":"","vertexType":"NORMAL"},"legGeometry":{"points":"sepfHrrtpLbA`ATq@f@wAd@wATs@X{@p@Y~@`AB@vBtB","length":11},"rentedBike":false,"transitLeg":false,"duration":277.0,"steps":[{"distance":269.46700000000004,"relativeDirection":"DEPART","streetName":"service road","absoluteDirection":"SOUTHWEST","stayOn":false,"area":false,"bogusName":true,"lon":-71.0533724395415,"lat":48.420904465432976,"elevation":[]},{"distance":79.052,"relativeDirection":"CONTINUE","streetName":"path","absoluteDirection":"SOUTHWEST","stayOn":false,"area":false,"bogusName":false,"lon":-71.05222810000001,"lat":48.41923430000001,"elevation":[]}]}],"tooSloped":false}]},"debugOutput":{"precalculationTime":30,"pathCalculationTime":20,"pathTimes":[13,3,3],"renderingTime":0,"totalTime":50,"timedOut":false},"elevationMetadata":{"ellipsoidToGeoidDifference":-28.885904201182168,"geoidElevation":false}}