{"requestParameters":{"date":"2018/04/02","walkSpeed":"1.33","walkReluctance":"2.0","fromPlace":"48.43031,-71.055226","maxWalkDistance":"3000","waitReluctance":"1.0","carSpeed":"33","numItineraries":"3","waitAtBeginningFactor":"0.4","mode":"TRANSIT,WALK","ignoreRealtimeUpdates":"false","stairsReluctance":"2.0","toPlace":"48.412511,-71.073554","time":"19:40:00"},"plan":{"date":1522712400000,"from":{"name":"Origin","lon":-71.055226,"lat":48.43031,"orig":"","vertexType":"NORMAL"},"to":{"name":"Destination","lon":-71.073554,"lat":48.412511,"orig":"","vertexType":"NORMAL"},"itineraries":[{"duration":2223,"startTime":1522712400000,"endTime":1522714623000,"walkTime":2223,"transitTime":0,"waitingTime":0,"walkDistance":2871.220556383796,"walkLimitExceeded":false,"elevationLost":0.0,"elevationGained":0.0,"transfers":0,"legs":[{"startTime":1522712400000,"endTime":1522714623000,"departureDelay":0,"arrivalDelay":0,"realTime":false,"distance":2870.998,"pathway":false,"mode":"WALK","route":"","agencyTimeZoneOffset":-14400000,"interlineWithPreviousLeg":false,"from":{"name":"Origin","lon":-71.055226,"lat":48.43031,"departure":1522712400000,"orig":"","vertexType":"NORMAL"},"to":{"name":"Destination","lon":-71.073554,"lat":48.412511,"arrival":1522714623000,"orig":"","vertexType":"NORMAL"},"legGeometry":{"points":"a~qfHl|tpLRx@Jh@b@rBPdAHb@DVB`@Z`GPlI?FJ?`@B|@B\\@h@?b@DzANlAD^@An@XnAJb@Hb@F^FtABjA?~@Bt@@j@Hr@R~ADPJPr@pBbAxBt@jBVn@Vn@PF@n@j@f@n@pBf@dA`BtDh@nALLb@n@l@DzBNd@BxAFt@Dr@DR@P@L@jBNfCPRB\\EhBNd@Cz@AXKx@WFC\\E^Kn@MV?b@BN?rBH|CJ`BD`ADdETzBtEtBdEjEnI@Ru@fB","length":83},"rentedBike":false,"transitLeg":false,"duration":2223.0,"steps":[{"distance":374.922,"relativeDirection":"DEPART","streetName":"bike path","absoluteDirection":"SOUTHWEST","stayOn":false,"area":false,"bogusName":false,"lon":-71.0549480864432,"lat":48.429931123692796,"elevation":[]},{"distance":232.87,"relativeDirection":"LEFT","streetName":"Rue La Fontaine","absoluteDirection":"SOUTH","stayOn":false,"area":false,"bogusName":false,"lon":-71.0598423,"lat":48.4291725,"elevation":[]},{"distance":490.78299999999996,"relativeDirection":"RIGHT","streetName":"service road","absoluteDirection":"WEST","stayOn":false,"area":false,"bogusName":true,"lon":-71.0600417,"lat":48.427084,"elevation":[]},{"distance":10.208,"relativeDirection":"SLIGHTLY_LEFT","streetName":"Rue Morin","absoluteDirection":"SOUTH","stayOn":false,"area":false,"bogusName":false,"lon":-71.0659473,"lat":48.425372700000004,"elevation":[]},{"distance":17.515,"relativeDirection":"RIGHT","streetName":"Rue Price Est","absoluteDirection":"WEST","stayOn":false,"area":false,"bogusName":false,"lon":-71.06598410000001,"lat":48.4252842,"elevation":[]},{"distance":272.594,"relativeDirection":"LEFT","streetName":"path","absoluteDirection":"SOUTHWEST","stayOn":false,"area":false,"bogusName":true,"lon":-71.0662212,"lat":48.425276600000004,"elevation":[]},{"distance":547.586,"relativeDirection":"SLIGHTLY_LEFT","streetName":"Rue Sainte-Anne","absoluteDirection":"SOUTH","stayOn":false,"area":false,"bogusName":false,"lon":-71.06896330000001,"lat":48.423667200000004,"elevation":[]},{"distance":875.253,"relativeDirection":"CONTINUE","streetName":"Rue Jolliet","absoluteDirection":"SOUTH","stayOn":false,"area":false,"bogusName":false,"lon":-71.0693796,"lat":48.418765,"elevation":[]},{"distance":49.267,"relativeDirection":"RIGHT","streetName":"Rue Henri Bourassa","absoluteDirection":"NORTHWEST","stayOn":false,"area":false,"bogusName":false,"lon":-71.0732124,"lat":48.4120822,"elevation":[]}]}],"tooSloped":false},{"duration":1802,"startTime":1522713475000,"endTime":1522715277000,"walkTime":1641,"transitTime":159,"waitingTime":2,"walkDistance":2096.5895413447824,"walkLimitExceeded":false,"elevationLost":0.0,"elevationGained":0.0,"transfers":0,"legs":[{"startTime":1522713475000,"endTime":1522714340000,"departureDelay":0,"arrivalDelay":0,"realTime":false,"distance":1095.328,"pathway":false,"mode":"WALK","route":"","agencyTimeZoneOffset":-14400000,"interlineWithPreviousLeg":false,"from":{"name":"Origin","lon":-71.055226,"lat":48.43031,"departure":1522713475000,"orig":"","vertexType":"NORMAL"},"to":{"name":"Bégin / Saint-Thomas","stopId":"1:1998","stopCode":"1998","lon":-71.058439,"lat":48.422491,"arrival":1522714340000,"departure":1522714341000,"zoneId":"NA","stopIndex":3,"stopSequence":4,"vertexType":"TRANSIT"},"legGeometry":{"points":"a~qfHl|tpL]{AKs@QqBDCB?\\IDAfB[zC]Dn@jAGvBKd@CJBxAtABB`A|@h@`@ZVz@r@p@p@`@`@b@b@Z\\d@r@LR\\Rh@r@~@x@pBlBXVDDJHHHVVRN`AbAhAfAVX","length":40},"rentedBike":false,"transitLeg":false,"duration":865.0,"steps":[{"distance":101.965,"relativeDirection":"DEPART","streetName":"bike path","absoluteDirection":"NORTHEAST","stayOn":false,"area":false,"bogusName":false,"lon":-71.0549480864432,"lat":48.429931123692796,"elevation":[]},{"distance":6.262,"relativeDirection":"RIGHT","streetName":"path","absoluteDirection":"SOUTH","stayOn":false,"area":false,"bogusName":true,"lon":-71.0536536,"lat":48.4302398,"elevation":[]},{"distance":166.236,"relativeDirection":"CONTINUE","streetName":"Rue Salaberry","absoluteDirection":"SOUTH","stayOn":false,"area":false,"bogusName":false,"lon":-71.053634,"lat":48.430185,"elevation":[]},{"distance":18.475,"relativeDirection":"RIGHT","streetName":"Rue Racine Est","absoluteDirection":"WEST","stayOn":false,"area":false,"bogusName":false,"lon":-71.0532845,"lat":48.428708900000004,"elevation":[]},{"distance":802.3899999999999,"relativeDirection":"LEFT","streetName":"Rue Bégin","absoluteDirection":"SOUTH","stayOn":false,"area":false,"bogusName":false,"lon":-71.0535297,"lat":48.4286752,"elevation":[]}]},{"startTime":1522714341000,"endTime":1522714500000,"departureDelay":0,"arrivalDelay":0,"realTime":false,"distance":878.8371327207562,"pathway":false,"mode":"BUS","route":"12","agencyName":"Société de Transport du Saguenay","agencyUrl":"http://ville.saguenay.ca/fr/services-aux-citoyens/transport-sts","agencyTimeZoneOffset":-14400000,"routeColor":"556B2F","routeType":3,"routeId":"1:12","routeTextColor":"FFFFFF","interlineWithPreviousLeg":false,"tripBlockId":"26","headsign":"Terminus Chicoutimi","agencyId":"0","tripId":"1:217991","serviceDate":"20180402","from":{"name":"Bégin / Saint-Thomas","stopId":"1:1998","stopCode":"1998","lon":-71.058439,"lat":48.422491,"arrival":1522714340000,"departure":1522714341000,"zoneId":"NA","stopIndex":3,"stopSequence":4,"vertexType":"TRANSIT"},"to":{"name":"Champs-Élysées / Bégin","stopId":"1:566","stopCode":"566","lon":-71.064237,"lat":48.415762,"arrival":1522714500000,"departure":1522714501000,"zoneId":"NA","stopIndex":7,"stopSequence":8,"vertexType":"TRANSIT"},"legGeometry":{"points":"copfHjqupL~MfNjJnJ~GbHnCpCv@iB","length":6},"routeShortName":"12","routeLongName":"Rivière du Moulin","rentedBike":false,"transitLeg":true,"duration":159.0,"steps":[]},{"startTime":1522714501000,"endTime":1522715277000,"departureDelay":0,"arrivalDelay":0,"realTime":false,"distance":1000.995,"pathway":false,"mode":"WALK","route":"","agencyTimeZoneOffset":-14400000,"interlineWithPreviousLeg":false,"from":{"name":"Champs-Élysées / Bégin","stopId":"1:566","stopCode":"566","lon":-71.064237,"lat":48.415762,"arrival":1522714500000,"departure":1522714501000,"zoneId":"NA","stopIndex":7,"stopSequence":8,"vertexType":"TRANSIT"},"to":{"name":"Destination","lon":-71.073554,"lat":48.412511,"arrival":1522715277000,"orig":"","vertexType":"NORMAL"},"legGeometry":{"points":"weofHfvvpLk@jBn@l@LNrCpCFFBBv@v@rCpC~AvBIP}AhEi@xAc@jAzBtEtBdEjEnI@Ru@fB","length":19},"rentedBike":false,"transitLeg":false,"duration":776.0,"steps":[{"distance":46.285,"relativeDirection":"DEPART","streetName":"Rue des Champs-Élysées","absoluteDirection":"NORTHWEST","stayOn":false,"area":false,"bogusName":false,"lon":-71.06419656014225,"lat":48.415806692432525,"elevation":[]},{"distance":352.20399999999995,"relativeDirection":"LEFT","streetName":"Rue Bégin","absoluteDirection":"SOUTHWEST","stayOn":false,"area":false,"bogusName":false,"lon":-71.0647342,"lat":48.416021,"elevation":[]},{"distance":174.902,"relativeDirection":"RIGHT","streetName":"Rue Des Oblats Est","absoluteDirection":"NORTHWEST","stayOn":false,"area":false,"bogusName":false,"lon":-71.06744280000001,"lat":48.413416500000004,"elevation":[]},{"distance":378.337,"relativeDirection":"LEFT","streetName":"Rue Jolliet","absoluteDirection":"SOUTHWEST","stayOn":false,"area":false,"bogusName":false,"lon":-71.0693767,"lat":48.414325600000005,"elevation":[]},{"distance":49.267,"relativeDirection":"RIGHT","streetName":"Rue Henri Bourassa","absoluteDirection":"NORTHWEST","stayOn":false,"area":false,"bogusName":false,"lon":-71.0732124,"lat":48.4120822,"elevation":[]}]}],"tooSloped":false},{"duration":1561,"startTime":1522714168000,"endTime":1522715729000,"walkTime":1074,"transitTime":485,"waitingTime":2,"walkDistance":1365.8372481122578,"walkLimitExceeded":false,"elevationLost":0.0,"elevationGained":0.0,"transfers":0,"legs":[{"startTime":1522714168000,"endTime":1522714734000,"departureDelay":0,"arrivalDelay":0,"realTime":false,"distance":710.86,"pathway":false,"mode":"WALK","route":"","agencyTimeZoneOffset":-14400000,"interlineWithPreviousLeg":false,"from":{"name":"Origin","lon":-71.055226,"lat":48.43031,"departure":1522714168000,"orig":"","vertexType":"NORMAL"},"to":{"name":"Bégin / Jacques-Cartier","stopId":"1:67","stopCode":"67","lon":-71.055431,"lat":48.425501,"arrival":1522714734000,"departure":1522714735000,"zoneId":"NA","stopIndex":4,"stopSequence":5,"vertexType":"TRANSIT"},"legGeometry":{"points":"a~qfHl|tpL]{AKs@QqBDCB?\\IDAfB[zC]Dn@jAGvBKd@CJBxAtABB`A|@h@`@ZVz@r@p@p@`@`@b@b@KZ","length":25},"rentedBike":false,"transitLeg":false,"duration":566.0,"steps":[{"distance":101.965,"relativeDirection":"DEPART","streetName":"bike path","absoluteDirection":"NORTHEAST","stayOn":false,"area":false,"bogusName":false,"lon":-71.0549480864432,"lat":48.429931123692796,"elevation":[]},{"distance":6.262,"relativeDirection":"RIGHT","streetName":"path","absoluteDirection":"SOUTH","stayOn":false,"area":false,"bogusName":true,"lon":-71.0536536,"lat":48.4302398,"elevation":[]},{"distance":166.236,"relativeDirection":"CONTINUE","streetName":"Rue Salaberry","absoluteDirection":"SOUTH","stayOn":false,"area":false,"bogusName":false,"lon":-71.053634,"lat":48.430185,"elevation":[]},{"distance":18.475,"relativeDirection":"RIGHT","streetName":"Rue Racine Est","absoluteDirection":"WEST","stayOn":false,"area":false,"bogusName":false,"lon":-71.0532845,"lat":48.428708900000004,"elevation":[]},{"distance":405.877,"relativeDirection":"LEFT","streetName":"Rue Bégin","absoluteDirection":"SOUTH","stayOn":false,"area":false,"bogusName":false,"lon":-71.0535297,"lat":48.4286752,"elevation":[]},{"distance":12.045,"relativeDirection":"RIGHT","streetName":"Rue Gaudreault","absoluteDirection":"NORTHWEST","stayOn":false,"area":false,"bogusName":false,"lon":-71.0553392,"lat":48.4253936,"elevation":[]}]},{"startTime":1522714735000,"endTime":1522715220000,"departureDelay":0,"arrivalDelay":0,"realTime":false,"distance":2157.0277173973413,"pathway":false,"mode":"BUS","route":"15","agencyName":"Société de Transport du Saguenay","agencyUrl":"http://ville.saguenay.ca/fr/services-aux-citoyens/transport-sts","agencyTimeZoneOffset":-14400000,"routeColor":"FF00FF","routeType":3,"routeId":"1:15","routeTextColor":"FFFFFF","interlineWithPreviousLeg":false,"tripBlockId":"33","headsign":"Talbot / Barrette","agencyId":"0","tripId":"1:218199","serviceDate":"20180402","from":{"name":"Bégin / Jacques-Cartier","stopId":"1:67","stopCode":"67","lon":-71.055431,"lat":48.425501,"arrival":1522714734000,"departure":1522714735000,"zoneId":"NA","stopIndex":4,"stopSequence":5,"vertexType":"TRANSIT"},"to":{"name":"École secondaire de l'Odyssé Dominique-Racine","stopId":"1:580","stopCode":"580","lon":-71.067703,"lat":48.412977,"arrival":1522715220000,"departure":1522715221000,"zoneId":"NA","stopIndex":12,"stopSequence":13,"vertexType":"TRANSIT"},"legGeometry":{"points":"_bqfHt~tpLvIpIr@r@\\mBfAaA`@gBOkB_@uF|DyL|DpDQ|@|@z@bA`ATw@dD~Ch@fA@`E~AjGuH`Iy@bBi@dCbEdEjJlJ`HbHlJpJ|J~J","length":26},"routeShortName":"15","routeLongName":"Term. Chic / Costco","rentedBike":false,"transitLeg":true,"duration":485.0,"steps":[]},{"startTime":1522715221000,"endTime":1522715729000,"departureDelay":0,"arrivalDelay":0,"realTime":false,"distance":654.7280000000001,"pathway":false,"mode":"WALK","route":"","agencyTimeZoneOffset":-14400000,"interlineWithPreviousLeg":false,"from":{"name":"École secondaire de l'Odyssé Dominique-Racine","stopId":"1:580","stopCode":"580","lon":-71.067703,"lat":48.412977,"arrival":1522715220000,"departure":1522715221000,"zoneId":"NA","stopIndex":12,"stopSequence":13,"vertexType":"TRANSIT"},"to":{"name":"Destination","lon":-71.073554,"lat":48.412511,"arrival":1522715729000,"orig":"","vertexType":"NORMAL"},"legGeometry":{"points":"gtnfHplwpL{@u@UIIP}AhEi@xAc@jAzBtEtBdEjEnI@Ru@fB","length":12},"rentedBike":false,"transitLeg":false,"duration":508.0,"steps":[{"distance":52.222,"relativeDirection":"DEPART","streetName":"Rue Bégin","absoluteDirection":"NORTHEAST","stayOn":false,"area":false,"bogusName":false,"lon":-71.06776357747735,"lat":48.41300064951352,"elevation":[]},{"distance":174.902,"relativeDirection":"LEFT","streetName":"Rue Des Oblats Est","absoluteDirection":"NORTHWEST","stayOn":false,"area":false,"bogusName":false,"lon":-71.06744280000001,"lat":48.413416500000004,"elevation":[]},{"distance":378.337,"relativeDirection":"LEFT","streetName":"Rue Jolliet","absoluteDirection":"SOUTHWEST","stayOn":false,"area":false,"bogusName":false,"lon":-71.0693767,"lat":48.414325600000005,"elevation":[]},{"distance":49.267,"relativeDirection":"RIGHT","streetName":"Rue Henri Bourassa","absoluteDirection":"NORTHWEST","stayOn":false,"area":false,"bogusName":false,"lon":-71.0732124,"lat":48.4120822,"elevation":[]}]}],"tooSloped":false}]},"debugOutput":{"precalculationTime":44,"pathCalculationTime":63,"pathTimes":[31,15,16],"renderingTime":0,"totalTime":107,"timedOut":false},"elevationMetadata":{"ellipsoidToGeoidDifference":-28.885904201182168,"geoidElevation":false}}