{"requestParameters":{"date":"2018/04/02","walkSpeed":"1.33","walkReluctance":"2.0","fromPlace":"48.412511,-71.073554","maxWalkDistance":"3000","waitReluctance":"1.0","carSpeed":"33","numItineraries":"3","waitAtBeginningFactor":"0.4","mode":"TRANSIT,WALK","ignoreRealtimeUpdates":"false","stairsReluctance":"2.0","toPlace":"48.410863,-71.067079","time":"8:0:00"},"plan":{"date":1522670400000,"from":{"name":"Origin","lon":-71.073554,"lat":48.412511,"orig":"","vertexType":"NORMAL"},"to":{"name":"Destination","lon":-71.067079,"lat":48.410863,"orig":"","vertexType":"NORMAL"},"itineraries":[{"duration":925,"startTime":1522670400000,"endTime":1522671325000,"walkTime":925,"transitTime":0,"waitingTime":0,"walkDistance":1192.6800150325598,"walkLimitExceeded":false,"elevationLost":0.0,"elevationGained":0.0,"transfers":0,"legs":[{"startTime":1522670400000,"endTime":1522671325000,"departureDelay":0,"arrivalDelay":0,"realTime":false,"distance":1192.524,"pathway":false,"mode":"WALK","route":"","agencyTimeZoneOffset":-14400000,"interlineWithPreviousLeg":false,"from":{"name":"Origin","lon":-71.073554,"lat":48.412511,"departure":1522670400000,"orig":"","vertexType":"NORMAL"},"to":{"name":"Destination","lon":-71.067079,"lat":48.410863,"arrival":1522671325000,"orig":"","vertexType":"NORMAL"},"legGeometry":{"points":"epnfHzqxpLt@gBASkEoIuBeE{BuEb@kAh@yA|AiEHQTHz@t@r@l@LTJ?zCFv@Dv@Xl@d@@?jAz@`@TR@h@qB`AyDYa@q@W[Ia@YQ_@","length":30},"rentedBike":false,"transitLeg":false,"duration":925.0,"steps":[{"distance":49.267,"relativeDirection":"DEPART","streetName":"Rue Henri Bourassa","absoluteDirection":"SOUTHEAST","stayOn":false,"area":false,"bogusName":false,"lon":-71.07373757394286,"lat":48.412355690582814,"elevation":[]},{"distance":378.337,"relativeDirection":"LEFT","streetName":"Rue Jolliet","absoluteDirection":"NORTHEAST","stayOn":false,"area":false,"bogusName":false,"lon":-71.0732124,"lat":48.4120822,"elevation":[]},{"distance":174.902,"relativeDirection":"RIGHT","streetName":"Rue Des Oblats Est","absoluteDirection":"SOUTHEAST","stayOn":false,"area":false,"bogusName":false,"lon":-71.0693767,"lat":48.414325600000005,"elevation":[]},{"distance":96.293,"relativeDirection":"RIGHT","streetName":"Rue Bégin","absoluteDirection":"SOUTH","stayOn":false,"area":false,"bogusName":false,"lon":-71.06744280000001,"lat":48.413416500000004,"elevation":[]},{"distance":266.649,"relativeDirection":"LEFT","streetName":"Rue Bégin","absoluteDirection":"SOUTH","stayOn":true,"area":false,"bogusName":false,"lon":-71.0681022,"lat":48.4126786,"elevation":[]},{"distance":126.486,"relativeDirection":"LEFT","streetName":"Rue Don Bosco","absoluteDirection":"SOUTHEAST","stayOn":false,"area":false,"bogusName":false,"lon":-71.06891440000001,"lat":48.410389300000006,"elevation":[]},{"distance":100.59,"relativeDirection":"LEFT","streetName":"service road","absoluteDirection":"NORTHEAST","stayOn":false,"area":false,"bogusName":false,"lon":-71.0674104,"lat":48.4098446,"elevation":[]}]}],"tooSloped":false},{"duration":904,"startTime":1522671511000,"endTime":1522672415000,"walkTime":826,"transitTime":76,"waitingTime":2,"walkDistance":1053.670150369159,"walkLimitExceeded":false,"elevationLost":0.0,"elevationGained":0.0,"transfers":0,"legs":[{"startTime":1522671511000,"endTime":1522672019000,"departureDelay":0,"arrivalDelay":0,"realTime":false,"distance":654.728,"pathway":false,"mode":"WALK","route":"","agencyTimeZoneOffset":-14400000,"interlineWithPreviousLeg":false,"from":{"name":"Origin","lon":-71.073554,"lat":48.412511,"departure":1522671511000,"orig":"","vertexType":"NORMAL"},"to":{"name":"École secondaire de l'Odyssé Dominique-Racine","stopId":"1:580","stopCode":"580","lon":-71.067703,"lat":48.412977,"arrival":1522672019000,"departure":1522672020000,"zoneId":"NA","stopIndex":12,"stopSequence":13,"vertexType":"TRANSIT"},"legGeometry":{"points":"epnfHzqxpLt@gBASkEoIuBeE{BuEb@kAh@yA|AiEHQTHz@t@","length":12},"rentedBike":false,"transitLeg":false,"duration":508.0,"steps":[{"distance":49.267,"relativeDirection":"DEPART","streetName":"Rue Henri Bourassa","absoluteDirection":"SOUTHEAST","stayOn":false,"area":false,"bogusName":false,"lon":-71.07373757394286,"lat":48.412355690582814,"elevation":[]},{"distance":378.337,"relativeDirection":"LEFT","streetName":"Rue Jolliet","absoluteDirection":"NORTHEAST","stayOn":false,"area":false,"bogusName":false,"lon":-71.0732124,"lat":48.4120822,"elevation":[]},{"distance":174.902,"relativeDirection":"RIGHT","streetName":"Rue Des Oblats Est","absoluteDirection":"SOUTHEAST","stayOn":false,"area":false,"bogusName":false,"lon":-71.0693767,"lat":48.414325600000005,"elevation":[]},{"distance":52.222,"relativeDirection":"RIGHT","streetName":"Rue Bégin","absoluteDirection":"SOUTH","stayOn":false,"area":false,"bogusName":false,"lon":-71.06744280000001,"lat":48.413416500000004,"elevation":[]}]},{"startTime":1522672020000,"endTime":1522672096000,"departureDelay":0,"arrivalDelay":0,"realTime":false,"distance":332.3920636080197,"pathway":false,"mode":"BUS","route":"15","agencyName":"Société de Transport du Saguenay","agencyUrl":"http://ville.saguenay.ca/fr/services-aux-citoyens/transport-sts","agencyTimeZoneOffset":-14400000,"routeColor":"FF00FF","routeType":3,"routeId":"1:15","routeTextColor":"FFFFFF","interlineWithPreviousLeg":false,"tripBlockId":"33","headsign":"Talbot / Barrette","agencyId":"0","tripId":"1:218175","serviceDate":"20180402","from":{"name":"École secondaire de l'Odyssé Dominique-Racine","stopId":"1:580","stopCode":"580","lon":-71.067703,"lat":48.412977,"arrival":1522672019000,"departure":1522672020000,"zoneId":"NA","stopIndex":12,"stopSequence":13,"vertexType":"TRANSIT"},"to":{"name":"Angoulême (no. 1090)","stopId":"1:532","stopCode":"532","lon":-71.070613,"lat":48.410996,"arrival":1522672096000,"departure":1522672097000,"zoneId":"NA","stopIndex":14,"stopSequence":15,"vertexType":"TRANSIT"},"legGeometry":{"points":"ctnfHhlwpLdAfALzDNzDrAdBrEK","length":6},"routeShortName":"15","routeLongName":"Term. Chic / Costco","rentedBike":false,"transitLeg":true,"duration":76.0,"steps":[]},{"startTime":1522672097000,"endTime":1522672415000,"departureDelay":0,"arrivalDelay":0,"realTime":false,"distance":398.73199999999997,"pathway":false,"mode":"WALK","route":"","agencyTimeZoneOffset":-14400000,"interlineWithPreviousLeg":false,"from":{"name":"Angoulême (no. 1090)","stopId":"1:532","stopCode":"532","lon":-71.070613,"lat":48.410996,"arrival":1522672096000,"departure":1522672097000,"zoneId":"NA","stopIndex":14,"stopSequence":15,"vertexType":"TRANSIT"},"to":{"name":"Destination","lon":-71.067079,"lat":48.410863,"arrival":1522672415000,"orig":"","vertexType":"NORMAL"},"legGeometry":{"points":"{gnfHh}wpLDA@?lA?BgB@[@YLsCR@h@qB`AyDYa@q@W[Ia@YQ_@","length":16},"rentedBike":false,"transitLeg":false,"duration":318.0,"steps":[{"distance":47.746,"relativeDirection":"DEPART","streetName":"Rue d'Angoulème","absoluteDirection":"SOUTH","stayOn":false,"area":false,"bogusName":false,"lon":-71.07044896135653,"lat":48.411026947725055,"elevation":[]},{"distance":113.584,"relativeDirection":"LEFT","streetName":"path","absoluteDirection":"EAST","stayOn":false,"area":false,"bogusName":true,"lon":-71.0704312,"lat":48.4105992,"elevation":[]},{"distance":10.326,"relativeDirection":"RIGHT","streetName":"Rue Bégin","absoluteDirection":"SOUTH","stayOn":false,"area":false,"bogusName":false,"lon":-71.0689037,"lat":48.4104819,"elevation":[]},{"distance":126.486,"relativeDirection":"LEFT","streetName":"Rue Don Bosco","absoluteDirection":"SOUTHEAST","stayOn":false,"area":false,"bogusName":false,"lon":-71.06891440000001,"lat":48.410389300000006,"elevation":[]},{"distance":100.59,"relativeDirection":"LEFT","streetName":"service road","absoluteDirection":"NORTHEAST","stayOn":false,"area":false,"bogusName":false,"lon":-71.0674104,"lat":48.4098446,"elevation":[]}]}],"tooSloped":false}]},"debugOutput":{"precalculationTime":49,"pathCalculationTime":29,"pathTimes":[14,7,8],"renderingTime":1,"totalTime":79,"timedOut":false},"elevationMetadata":{"ellipsoidToGeoidDifference":-28.885904201182168,"geoidElevation":false}}