{"requestParameters":{"date":"2018/04/02","walkSpeed":"1.33","walkReluctance":"2.0","fromPlace":"48.412951,-71.075585","maxWalkDistance":"3000","waitReluctance":"1.0","carSpeed":"33","numItineraries":"3","waitAtBeginningFactor":"0.4","mode":"TRANSIT,WALK","ignoreRealtimeUpdates":"false","stairsReluctance":"2.0","toPlace":"48.428197,-71.06305199","time":"7:10:00"},"plan":{"date":1522667400000,"from":{"name":"Origin","lon":-71.075585,"lat":48.412951,"orig":"","vertexType":"NORMAL"},"to":{"name":"Destination","lon":-71.06305199,"lat":48.428197,"orig":"","vertexType":"NORMAL"},"itineraries":[{"duration":1212,"startTime":1522667557000,"endTime":1522668769000,"walkTime":859,"transitTime":351,"waitingTime":2,"walkDistance":1103.187654130122,"walkLimitExceeded":false,"elevationLost":0.0,"elevationGained":0.0,"transfers":0,"legs":[{"startTime":1522667557000,"endTime":1522668179000,"departureDelay":0,"arrivalDelay":0,"realTime":false,"distance":804.8949999999999,"pathway":false,"mode":"WALK","route":"","agencyTimeZoneOffset":-14400000,"interlineWithPreviousLeg":false,"from":{"name":"Origin","lon":-71.075585,"lat":48.412951,"departure":1522667557000,"orig":"","vertexType":"NORMAL"},"to":{"name":"École secondaire de l'Odyssé Dominique-Racine","stopId":"1:580","stopCode":"580","lon":-71.067703,"lat":48.412977,"arrival":1522668179000,"departure":1522668180000,"zoneId":"NA","stopIndex":35,"stopSequence":36,"vertexType":"TRANSIT"},"legGeometry":{"points":"eunfHd|xpLlAkDfCeGASkEoIuBeE{BuEb@kAh@yA|AiEHQTHz@t@","length":13},"rentedBike":false,"transitLeg":false,"duration":622.0,"steps":[{"distance":199.434,"relativeDirection":"DEPART","streetName":"Rue Henri Bourassa","absoluteDirection":"SOUTHEAST","stayOn":false,"area":false,"bogusName":false,"lon":-71.07538028131626,"lat":48.41315115365251,"elevation":[]},{"distance":378.337,"relativeDirection":"LEFT","streetName":"Rue Jolliet","absoluteDirection":"NORTHEAST","stayOn":false,"area":false,"bogusName":false,"lon":-71.0732124,"lat":48.4120822,"elevation":[]},{"distance":174.902,"relativeDirection":"RIGHT","streetName":"Rue Des Oblats Est","absoluteDirection":"SOUTHEAST","stayOn":false,"area":false,"bogusName":false,"lon":-71.0693767,"lat":48.414325600000005,"elevation":[]},{"distance":52.222,"relativeDirection":"RIGHT","streetName":"Rue Bégin","absoluteDirection":"SOUTH","stayOn":false,"area":false,"bogusName":false,"lon":-71.06744280000001,"lat":48.413416500000004,"elevation":[]}]},{"startTime":1522668180000,"endTime":1522668531000,"departureDelay":0,"arrivalDelay":0,"realTime":false,"distance":2426.203695654457,"pathway":false,"mode":"BUS","route":"105S","agencyName":"Société de Transport du Saguenay","agencyUrl":"http://ville.saguenay.ca/fr/services-aux-citoyens/transport-sts","agencyTimeZoneOffset":-14400000,"routeColor":"8B0000","routeType":3,"routeId":"1:105S","routeTextColor":"FFFFFF","interlineWithPreviousLeg":false,"tripBlockId":"39","headsign":"Terminus Chicoutimi","agencyId":"0","tripId":"1:218335","serviceDate":"20180402","from":{"name":"École secondaire de l'Odyssé Dominique-Racine","stopId":"1:580","stopCode":"580","lon":-71.067703,"lat":48.412977,"arrival":1522668179000,"departure":1522668180000,"zoneId":"NA","stopIndex":35,"stopSequence":36,"vertexType":"TRANSIT"},"to":{"name":"Jacques-Cartier / Morin","stopId":"1:1930","stopCode":"1930","lon":-71.065007,"lat":48.426603,"arrival":1522668531000,"departure":1522668532000,"zoneId":"NA","stopIndex":45,"stopSequence":46,"vertexType":"TRANSIT"},"legGeometry":{"points":"ktnfH~lwpLsAkAoBwB_EcE{A_BoAmAk@o@cCaCkIkIaJaJUUiCwCw@q@aD_D}MyMmEkE]a@kAqAU|@WnKG|DGxDOdPKvJU|F?X","length":26},"routeShortName":"105S","routeLongName":"Terminus Chicoutimi via Bégin","rentedBike":false,"transitLeg":true,"duration":351.0,"steps":[]},{"startTime":1522668532000,"endTime":1522668769000,"departureDelay":0,"arrivalDelay":0,"realTime":false,"distance":298.13100000000003,"pathway":false,"mode":"WALK","route":"","agencyTimeZoneOffset":-14400000,"interlineWithPreviousLeg":false,"from":{"name":"Jacques-Cartier / Morin","stopId":"1:1930","stopCode":"1930","lon":-71.065007,"lat":48.426603,"arrival":1522668531000,"departure":1522668532000,"zoneId":"NA","stopIndex":45,"stopSequence":46,"vertexType":"TRANSIT"},"to":{"name":"Destination","lon":-71.06305199,"lat":48.428197,"arrival":1522668769000,"orig":"","vertexType":"NORMAL"},"legGeometry":{"points":"{hqfHj{vpL@s@@_@EKGMEWw@cFG[KMMKkCC[@I?c@@?V","length":15},"rentedBike":false,"transitLeg":false,"duration":237.0,"steps":[{"distance":30.978,"relativeDirection":"DEPART","streetName":"Rue Jacques-Cartier Est","absoluteDirection":"EAST","stayOn":false,"area":false,"bogusName":false,"lon":-71.06501225432459,"lat":48.42654615659386,"elevation":[]},{"distance":130.592,"relativeDirection":"LEFT","streetName":"Rue de l'Hôtel-de-Ville","absoluteDirection":"NORTHEAST","stayOn":false,"area":false,"bogusName":false,"lon":-71.0645932,"lat":48.4265291,"elevation":[]},{"distance":128.049,"relativeDirection":"LEFT","streetName":"Rue de l'Hôtel-de-Ville","absoluteDirection":"NORTH","stayOn":true,"area":false,"bogusName":false,"lon":-71.0629919,"lat":48.4270002,"elevation":[]},{"distance":8.512,"relativeDirection":"LEFT","streetName":"path","absoluteDirection":"WEST","stayOn":false,"area":false,"bogusName":false,"lon":-71.06293600000001,"lat":48.4281438,"elevation":[]}]}],"tooSloped":false},{"duration":1435,"startTime":1522667764000,"endTime":1522669199000,"walkTime":859,"transitTime":574,"waitingTime":2,"walkDistance":1103.187654130122,"walkLimitExceeded":false,"elevationLost":0.0,"elevationGained":0.0,"transfers":0,"legs":[{"startTime":1522667764000,"endTime":1522668386000,"departureDelay":0,"arrivalDelay":0,"realTime":false,"distance":804.8949999999999,"pathway":false,"mode":"WALK","route":"","agencyTimeZoneOffset":-14400000,"interlineWithPreviousLeg":false,"from":{"name":"Origin","lon":-71.075585,"lat":48.412951,"departure":1522667764000,"orig":"","vertexType":"NORMAL"},"to":{"name":"École secondaire de l'Odyssé Dominique-Racine","stopId":"1:580","stopCode":"580","lon":-71.067703,"lat":48.412977,"arrival":1522668386000,"departure":1522668387000,"zoneId":"NA","stopIndex":24,"stopSequence":25,"vertexType":"TRANSIT"},"legGeometry":{"points":"eunfHd|xpLlAkDfCeGASkEoIuBeE{BuEb@kAh@yA|AiEHQTHz@t@","length":13},"rentedBike":false,"transitLeg":false,"duration":622.0,"steps":[{"distance":199.434,"relativeDirection":"DEPART","streetName":"Rue Henri Bourassa","absoluteDirection":"SOUTHEAST","stayOn":false,"area":false,"bogusName":false,"lon":-71.07538028131626,"lat":48.41315115365251,"elevation":[]},{"distance":378.337,"relativeDirection":"LEFT","streetName":"Rue Jolliet","absoluteDirection":"NORTHEAST","stayOn":false,"area":false,"bogusName":false,"lon":-71.0732124,"lat":48.4120822,"elevation":[]},{"distance":174.902,"relativeDirection":"RIGHT","streetName":"Rue Des Oblats Est","absoluteDirection":"SOUTHEAST","stayOn":false,"area":false,"bogusName":false,"lon":-71.0693767,"lat":48.414325600000005,"elevation":[]},{"distance":52.222,"relativeDirection":"RIGHT","streetName":"Rue Bégin","absoluteDirection":"SOUTH","stayOn":false,"area":false,"bogusName":false,"lon":-71.06744280000001,"lat":48.413416500000004,"elevation":[]}]},{"startTime":1522668387000,"endTime":1522668961000,"departureDelay":0,"arrivalDelay":0,"realTime":false,"distance":2938.0407586944702,"pathway":false,"mode":"BUS","route":"15","agencyName":"Société de Transport du Saguenay","agencyUrl":"http://ville.saguenay.ca/fr/services-aux-citoyens/transport-sts","agencyTimeZoneOffset":-14400000,"routeColor":"FF00FF","routeType":3,"routeId":"1:15","routeTextColor":"FFFFFF","interlineWithPreviousLeg":false,"tripBlockId":"30","headsign":"Terminus Chicoutimi","agencyId":"0","tripId":"1:218088","serviceDate":"20180402","from":{"name":"École secondaire de l'Odyssé Dominique-Racine","stopId":"1:580","stopCode":"580","lon":-71.067703,"lat":48.412977,"arrival":1522668386000,"departure":1522668387000,"zoneId":"NA","stopIndex":24,"stopSequence":25,"vertexType":"TRANSIT"},"to":{"name":"Jacques-Cartier / Morin","stopId":"1:1930","stopCode":"1930","lon":-71.065007,"lat":48.426603,"arrival":1522668961000,"departure":1522668962000,"zoneId":"NA","stopIndex":36,"stopSequence":37,"vertexType":"TRANSIT"},"legGeometry":{"points":"ktnfH~lwpLsAkAoBwB_EcE{A_BoAmAk@o@cCaCkIkIaJaJUUwBaCj@wCjAsCzGoG_CoHL{D_@kAqD{CQr@iAcAy@w@L{@wAuA_B_B_EpLDh@NbBVvCIxBg@`Am@l@Sb@a@rAqDqDmEkE]a@kAqAU|@WnKG|DGxDOdPKvJU|F?X","length":46},"routeShortName":"15","routeLongName":"Term. Chic / Costco","rentedBike":false,"transitLeg":true,"duration":574.0,"steps":[]},{"startTime":1522668962000,"endTime":1522669199000,"departureDelay":0,"arrivalDelay":0,"realTime":false,"distance":298.13100000000003,"pathway":false,"mode":"WALK","route":"","agencyTimeZoneOffset":-14400000,"interlineWithPreviousLeg":false,"from":{"name":"Jacques-Cartier / Morin","stopId":"1:1930","stopCode":"1930","lon":-71.065007,"lat":48.426603,"arrival":1522668961000,"departure":1522668962000,"zoneId":"NA","stopIndex":36,"stopSequence":37,"vertexType":"TRANSIT"},"to":{"name":"Destination","lon":-71.06305199,"lat":48.428197,"arrival":1522669199000,"orig":"","vertexType":"NORMAL"},"legGeometry":{"points":"{hqfHj{vpL@s@@_@EKGMEWw@cFG[KMMKkCC[@I?c@@?V","length":15},"rentedBike":false,"transitLeg":false,"duration":237.0,"steps":[{"distance":30.978,"relativeDirection":"DEPART","streetName":"Rue Jacques-Cartier Est","absoluteDirection":"EAST","stayOn":false,"area":false,"bogusName":false,"lon":-71.06501225432459,"lat":48.42654615659386,"elevation":[]},{"distance":130.592,"relativeDirection":"LEFT","streetName":"Rue de l'Hôtel-de-Ville","absoluteDirection":"NORTHEAST","stayOn":false,"area":false,"bogusName":false,"lon":-71.0645932,"lat":48.4265291,"elevation":[]},{"distance":128.049,"relativeDirection":"LEFT","streetName":"Rue de l'Hôtel-de-Ville","absoluteDirection":"NORTH","stayOn":true,"area":false,"bogusName":false,"lon":-71.0629919,"lat":48.4270002,"elevation":[]},{"distance":8.512,"relativeDirection":"LEFT","streetName":"path","absoluteDirection":"WEST","stayOn":false,"area":false,"bogusName":false,"lon":-71.06293600000001,"lat":48.4281438,"elevation":[]}]}],"tooSloped":false},{"duration":1323,"startTime":1522667927000,"endTime":1522669250000,"walkTime":470,"transitTime":851,"waitingTime":2,"walkDistance":601.3795037561233,"walkLimitExceeded":false,"elevationLost":0.0,"elevationGained":0.0,"transfers":0,"legs":[{"startTime":1522667927000,"endTime":1522668160000,"departureDelay":0,"arrivalDelay":0,"realTime":false,"distance":303.147,"pathway":false,"mode":"WALK","route":"","agencyTimeZoneOffset":-14400000,"interlineWithPreviousLeg":false,"from":{"name":"Origin","lon":-71.075585,"lat":48.412951,"departure":1522667927000,"orig":"","vertexType":"NORMAL"},"to":{"name":"Parc Saint-Joachim (Boily)","stopId":"1:548","stopCode":"548","lon":-71.076897,"lat":48.415117,"arrival":1522668160000,"departure":1522668161000,"zoneId":"NA","stopIndex":23,"stopSequence":24,"vertexType":"TRANSIT"},"legGeometry":{"points":"eunfHd|xpLkAfD{AdB}AxAm@fAcAaA]]","length":7},"rentedBike":false,"transitLeg":false,"duration":233.0,"steps":[{"distance":237.738,"relativeDirection":"DEPART","streetName":"Rue Henri Bourassa","absoluteDirection":"NORTHWEST","stayOn":false,"area":false,"bogusName":false,"lon":-71.07538028131626,"lat":48.41315115365251,"elevation":[]},{"distance":65.409,"relativeDirection":"RIGHT","streetName":"Rue Boily","absoluteDirection":"NORTHEAST","stayOn":false,"area":false,"bogusName":false,"lon":-71.0775447,"lat":48.4146931,"elevation":[]}]},{"startTime":1522668161000,"endTime":1522669012000,"departureDelay":0,"arrivalDelay":0,"realTime":false,"distance":3669.7993784067826,"pathway":false,"mode":"BUS","route":"14","agencyName":"Société de Transport du Saguenay","agencyUrl":"http://ville.saguenay.ca/fr/services-aux-citoyens/transport-sts","agencyTimeZoneOffset":-14400000,"routeColor":"C0C000","routeType":3,"routeId":"1:14","routeTextColor":"000000","interlineWithPreviousLeg":false,"tripBlockId":"31","headsign":"Terminus Chicoutimi","agencyId":"0","tripId":"1:218123","serviceDate":"20180402","from":{"name":"Parc Saint-Joachim (Boily)","stopId":"1:548","stopCode":"548","lon":-71.076897,"lat":48.415117,"arrival":1522668160000,"departure":1522668161000,"zoneId":"NA","stopIndex":23,"stopSequence":24,"vertexType":"TRANSIT"},"to":{"name":"Jacques-Cartier / Morin","stopId":"1:1930","stopCode":"1930","lon":-71.065007,"lat":48.426603,"arrival":1522669012000,"departure":1522669013000,"zoneId":"NA","stopIndex":36,"stopSequence":37,"vertexType":"TRANSIT"},"legGeometry":{"points":"{aofHrfypL{IiI][aBhE}@}@oBmBwE{EwE{Ej@mBZeAa@SyEQg@CPcALuCx@{b@t@{[XoDd@sBl@iB~@gA`G{F{A{D_@sBFqDOq@iG{FGIoCkCgBgBsDpLHzBBT`@~COnBQf@gAjAg@bBuDmDmFgFa@_@w@s@CfAOrBEtAGbA?jBQtC?|@ExKMdIG~EUnL","length":53},"routeShortName":"14","routeLongName":"Coopérative","rentedBike":false,"transitLeg":true,"duration":851.0,"steps":[]},{"startTime":1522669013000,"endTime":1522669250000,"departureDelay":0,"arrivalDelay":0,"realTime":false,"distance":298.13100000000003,"pathway":false,"mode":"WALK","route":"","agencyTimeZoneOffset":-14400000,"interlineWithPreviousLeg":false,"from":{"name":"Jacques-Cartier / Morin","stopId":"1:1930","stopCode":"1930","lon":-71.065007,"lat":48.426603,"arrival":1522669012000,"departure":1522669013000,"zoneId":"NA","stopIndex":36,"stopSequence":37,"vertexType":"TRANSIT"},"to":{"name":"Destination","lon":-71.06305199,"lat":48.428197,"arrival":1522669250000,"orig":"","vertexType":"NORMAL"},"legGeometry":{"points":"{hqfHj{vpL@s@@_@EKGMEWw@cFG[KMMKkCC[@I?c@@?V","length":15},"rentedBike":false,"transitLeg":false,"duration":237.0,"steps":[{"distance":30.978,"relativeDirection":"DEPART","streetName":"Rue Jacques-Cartier Est","absoluteDirection":"EAST","stayOn":false,"area":false,"bogusName":false,"lon":-71.06501225432459,"lat":48.42654615659386,"elevation":[]},{"distance":130.592,"relativeDirection":"LEFT","streetName":"Rue de l'Hôtel-de-Ville","absoluteDirection":"NORTHEAST","stayOn":false,"area":false,"bogusName":false,"lon":-71.0645932,"lat":48.4265291,"elevation":[]},{"distance":128.049,"relativeDirection":"LEFT","streetName":"Rue de l'Hôtel-de-Ville","absoluteDirection":"NORTH","stayOn":true,"area":false,"bogusName":false,"lon":-71.0629919,"lat":48.4270002,"elevation":[]},{"distance":8.512,"relativeDirection":"LEFT","streetName":"path","absoluteDirection":"WEST","stayOn":false,"area":false,"bogusName":false,"lon":-71.06293600000001,"lat":48.4281438,"elevation":[]}]}],"tooSloped":false}]},"debugOutput":{"precalculationTime":30,"pathCalculationTime":19,"pathTimes":[14,2,3],"renderingTime":0,"totalTime":49,"timedOut":false},"elevationMetadata":{"ellipsoidToGeoidDifference":-28.885904201182168,"geoidElevation":false}}