{"requestParameters":{"date":"2018/04/02","walkSpeed":"1.33","walkReluctance":"2.0","fromPlace":"48.423148,-71.052406","maxWalkDistance":"3000","waitReluctance":"1.0","carSpeed":"33","numItineraries":"3","waitAtBeginningFactor":"0.4","mode":"TRANSIT,WALK","ignoreRealtimeUpdates":"false","stairsReluctance":"2.0","toPlace":"48.425983,-71.061323","time":"16:0:00"},"plan":{"date":1522699200000,"from":{"name":"Origin","lon":-71.052406,"lat":48.423148,"orig":"","vertexType":"NORMAL"},"to":{"name":"Destination","lon":-71.061323,"lat":48.425983,"orig":"","vertexType":"NORMAL"},"itineraries":[{"duration":729,"startTime":1522699200000,"endTime":1522699929000,"walkTime":729,"transitTime":0,"waitingTime":0,"walkDistance":937.7233984910973,"walkLimitExceeded":false,"elevationLost":0.0,"elevationGained":0.0,"transfers":0,"legs":[{"startTime":1522699200000,"endTime":1522699929000,"departureDelay":0,"arrivalDelay":0,"realTime":false,"distance":937.564,"pathway":false,"mode":"WALK","route":"","agencyTimeZoneOffset":-14400000,"interlineWithPreviousLeg":false,"from":{"name":"Origin","lon":-71.052406,"lat":48.423148,"departure":1522699200000,"orig":"","vertexType":"NORMAL"},"to":{"name":"Destination","lon":-71.061323,"lat":48.425983,"arrival":1522699929000,"orig":"","vertexType":"NORMAL"},"legGeometry":{"points":"qspfHpltpL?n@CVWrBOpAKv@e@~DECOGwBKMAY`@_@hAa@jBC~ACvCIvFClCiG_@IpEAR?\\A|@?TAxB","length":25},"rentedBike":false,"transitLeg":false,"duration":729.0,"steps":[{"distance":278.31600000000003,"relativeDirection":"DEPART","streetName":"service road","absoluteDirection":"WEST","stayOn":false,"area":false,"bogusName":false,"lon":-71.05240568397582,"lat":48.423135724671475,"elevation":[]},{"distance":339.639,"relativeDirection":"CONTINUE","streetName":"Rue Price Est","absoluteDirection":"NORTH","stayOn":false,"area":false,"bogusName":false,"lon":-71.0548701,"lat":48.424313700000006,"elevation":[]},{"distance":147.775,"relativeDirection":"RIGHT","streetName":"Rue Maltais","absoluteDirection":"NORTH","stayOn":false,"area":false,"bogusName":false,"lon":-71.0591387,"lat":48.424959400000006,"elevation":[]},{"distance":171.834,"relativeDirection":"LEFT","streetName":"Rue Jacques-Cartier Est","absoluteDirection":"WEST","stayOn":false,"area":false,"bogusName":false,"lon":-71.0589782,"lat":48.426284100000004,"elevation":[]}]}],"tooSloped":false},{"duration":626,"startTime":1522699395000,"endTime":1522700021000,"walkTime":572,"transitTime":52,"waitingTime":2,"walkDistance":727.4310225512597,"walkLimitExceeded":false,"elevationLost":0.0,"elevationGained":0.0,"transfers":0,"legs":[{"startTime":1522699395000,"endTime":1522699942000,"departureDelay":0,"arrivalDelay":0,"realTime":false,"distance":695.5319999999999,"pathway":false,"mode":"WALK","route":"","agencyTimeZoneOffset":-14400000,"interlineWithPreviousLeg":false,"from":{"name":"Origin","lon":-71.052406,"lat":48.423148,"departure":1522699395000,"orig":"","vertexType":"NORMAL"},"to":{"name":"Jacques-Cartier / Labrecque (Manoir Champlain)","stopId":"1:68","stopCode":"68","lon":-71.05805,"lat":48.426307,"arrival":1522699942000,"departure":1522699943000,"zoneId":"NA","stopIndex":2,"stopSequence":3,"vertexType":"TRANSIT"},"legGeometry":{"points":"qspfHpltpL?n@CVWrBOpAKv@e@~DECOGwBKMAY`@_@hAa@jBC~ACvCiAAgBOuAII|D?J","length":21},"rentedBike":false,"transitLeg":false,"duration":547.0,"steps":[{"distance":278.31600000000003,"relativeDirection":"DEPART","streetName":"service road","absoluteDirection":"WEST","stayOn":false,"area":false,"bogusName":false,"lon":-71.05240568397582,"lat":48.423135724671475,"elevation":[]},{"distance":195.33299999999997,"relativeDirection":"CONTINUE","streetName":"Rue Price Est","absoluteDirection":"NORTH","stayOn":false,"area":false,"bogusName":false,"lon":-71.0548701,"lat":48.424313700000006,"elevation":[]},{"distance":147.138,"relativeDirection":"RIGHT","streetName":"Rue Labrecque","absoluteDirection":"NORTH","stayOn":false,"area":false,"bogusName":false,"lon":-71.0571863,"lat":48.424884500000005,"elevation":[]},{"distance":74.745,"relativeDirection":"LEFT","streetName":"Rue Jacques-Cartier Est","absoluteDirection":"WEST","stayOn":false,"area":false,"bogusName":false,"lon":-71.05704440000001,"lat":48.4262037,"elevation":[]}]},{"startTime":1522699943000,"endTime":1522699995000,"departureDelay":0,"arrivalDelay":0,"realTime":false,"distance":271.8806355786811,"pathway":false,"mode":"BUS","route":"203S","agencyName":"Société de Transport du Saguenay","agencyUrl":"http://ville.saguenay.ca/fr/services-aux-citoyens/transport-sts","agencyTimeZoneOffset":-14400000,"routeColor":"8B0000","routeType":3,"routeId":"1:203S","routeTextColor":"FFFFFF","interlineWithPreviousLeg":false,"tripBlockId":"56","headsign":"Terminus Chicoutimi","agencyId":"0","tripId":"1:218523","serviceDate":"20180402","from":{"name":"Jacques-Cartier / Labrecque (Manoir Champlain)","stopId":"1:68","stopCode":"68","lon":-71.05805,"lat":48.426307,"arrival":1522699942000,"departure":1522699943000,"zoneId":"NA","stopIndex":2,"stopSequence":3,"vertexType":"TRANSIT"},"to":{"name":"Conservatoire (Jacques-Cartier)","stopId":"1:69","stopCode":"69","lon":-71.06173,"lat":48.42643,"arrival":1522699995000,"departure":1522699996000,"zoneId":"NA","stopIndex":3,"stopSequence":4,"vertexType":"TRANSIT"},"legGeometry":{"points":"_gqfHzoupLGxDOdP","length":3},"routeShortName":"203S","routeLongName":"Séminaire - Term. Chic","rentedBike":false,"transitLeg":true,"duration":52.0,"steps":[]},{"startTime":1522699996000,"endTime":1522700021000,"departureDelay":0,"arrivalDelay":0,"realTime":false,"distance":31.740000000000002,"pathway":false,"mode":"WALK","route":"","agencyTimeZoneOffset":-14400000,"interlineWithPreviousLeg":false,"from":{"name":"Conservatoire (Jacques-Cartier)","stopId":"1:69","stopCode":"69","lon":-71.06173,"lat":48.42643,"arrival":1522699995000,"departure":1522699996000,"zoneId":"NA","stopIndex":3,"stopSequence":4,"vertexType":"TRANSIT"},"to":{"name":"Destination","lon":-71.061323,"lat":48.425983,"arrival":1522700021000,"orig":"","vertexType":"NORMAL"},"legGeometry":{"points":"ygqfHzfvpL?o@@e@","length":3},"rentedBike":false,"transitLeg":false,"duration":25.0,"steps":[{"distance":31.740000000000002,"relativeDirection":"DEPART","streetName":"Rue Jacques-Cartier Est","absoluteDirection":"EAST","stayOn":false,"area":false,"bogusName":false,"lon":-71.06173262650398,"lat":48.42637987728782,"elevation":[]}]}],"tooSloped":false},{"duration":392,"startTime":1522700953000,"endTime":1522701345000,"walkTime":205,"transitTime":185,"waitingTime":2,"walkDistance":261.6761202991992,"walkLimitExceeded":false,"elevationLost":0.0,"elevationGained":0.0,"transfers":0,"legs":[{"startTime":1522700953000,"endTime":1522701133000,"departureDelay":0,"arrivalDelay":0,"realTime":false,"distance":229.888,"pathway":false,"mode":"WALK","route":"","agencyTimeZoneOffset":-14400000,"interlineWithPreviousLeg":false,"from":{"name":"Origin","lon":-71.052406,"lat":48.423148,"departure":1522700953000,"orig":"","vertexType":"NORMAL"},"to":{"name":"Cégep de Chicoutimi (voie réservée)","stopId":"1:65","stopCode":"65","lon":-71.054799,"lat":48.423007,"arrival":1522701133000,"departure":1522701134000,"zoneId":"NA","stopIndex":31,"stopSequence":32,"vertexType":"TRANSIT"},"legGeometry":{"points":"qspfHpltpL?n@CVWrB~A^_@hAUt@@z@Hn@BR","length":10},"rentedBike":false,"transitLeg":false,"duration":180.0,"steps":[{"distance":71.52,"relativeDirection":"DEPART","streetName":"service road","absoluteDirection":"WEST","stayOn":false,"area":false,"bogusName":false,"lon":-71.05240568397582,"lat":48.423135724671475,"elevation":[]},{"distance":54.189,"relativeDirection":"LEFT","streetName":"path","absoluteDirection":"SOUTH","stayOn":false,"area":false,"bogusName":true,"lon":-71.05334280000001,"lat":48.4232749,"elevation":[]},{"distance":104.179,"relativeDirection":"RIGHT","streetName":"bike path","absoluteDirection":"NORTHWEST","stayOn":true,"area":false,"bogusName":true,"lon":-71.053503,"lat":48.4227993,"elevation":[]}]},{"startTime":1522701134000,"endTime":1522701319000,"departureDelay":0,"arrivalDelay":0,"realTime":false,"distance":851.6044501470371,"pathway":false,"mode":"BUS","route":"15","agencyName":"Société de Transport du Saguenay","agencyUrl":"http://ville.saguenay.ca/fr/services-aux-citoyens/transport-sts","agencyTimeZoneOffset":-14400000,"routeColor":"FF00FF","routeType":3,"routeId":"1:15","routeTextColor":"FFFFFF","interlineWithPreviousLeg":false,"tripBlockId":"30","headsign":"Terminus Chicoutimi","agencyId":"0","tripId":"1:218106","serviceDate":"20180402","from":{"name":"Cégep de Chicoutimi (voie réservée)","stopId":"1:65","stopCode":"65","lon":-71.054799,"lat":48.423007,"arrival":1522701133000,"departure":1522701134000,"zoneId":"NA","stopIndex":31,"stopSequence":32,"vertexType":"TRANSIT"},"to":{"name":"Conservatoire (Jacques-Cartier)","stopId":"1:69","stopCode":"69","lon":-71.06173,"lat":48.42643,"arrival":1522701319000,"departure":1522701320000,"zoneId":"NA","stopIndex":35,"stopSequence":36,"vertexType":"TRANSIT"},"legGeometry":{"points":"arpfHf{tpLVvCIxBg@`Am@l@Sb@a@rAqDqDmEkE]a@kAqAU|@WnKG|DGxDOdP","length":16},"routeShortName":"15","routeLongName":"Term. Chic / Costco","rentedBike":false,"transitLeg":true,"duration":185.0,"steps":[]},{"startTime":1522701320000,"endTime":1522701345000,"departureDelay":0,"arrivalDelay":0,"realTime":false,"distance":31.740000000000002,"pathway":false,"mode":"WALK","route":"","agencyTimeZoneOffset":-14400000,"interlineWithPreviousLeg":false,"from":{"name":"Conservatoire (Jacques-Cartier)","stopId":"1:69","stopCode":"69","lon":-71.06173,"lat":48.42643,"arrival":1522701319000,"departure":1522701320000,"zoneId":"NA","stopIndex":35,"stopSequence":36,"vertexType":"TRANSIT"},"to":{"name":"Destination","lon":-71.061323,"lat":48.425983,"arrival":1522701345000,"orig":"","vertexType":"NORMAL"},"legGeometry":{"points":"ygqfHzfvpL?o@@e@","length":3},"rentedBike":false,"transitLeg":false,"duration":25.0,"steps":[{"distance":31.740000000000002,"relativeDirection":"DEPART","streetName":"Rue Jacques-Cartier Est","absoluteDirection":"EAST","stayOn":false,"area":false,"bogusName":false,"lon":-71.06173262650398,"lat":48.42637987728782,"elevation":[]}]}],"tooSloped":false}]},"debugOutput":{"precalculationTime":33,"pathCalculationTime":19,"pathTimes":[12,4,3],"renderingTime":0,"totalTime":52,"timedOut":false},"elevationMetadata":{"ellipsoidToGeoidDifference":-28.885904201182168,"geoidElevation":false}}