{"requestParameters":{"date":"2018/04/02","walkSpeed":"1.33","walkReluctance":"2.0","fromPlace":"48.411753,-71.073616","maxWalkDistance":"3000","waitReluctance":"1.0","carSpeed":"33","numItineraries":"3","waitAtBeginningFactor":"0.4","mode":"TRANSIT,WALK","ignoreRealtimeUpdates":"false","stairsReluctance":"2.0","toPlace":"48.40367,-71.09648599","time":"7:20:00"},"plan":{"date":1522668000000,"from":{"name":"Origin","lon":-71.073616,"lat":48.411753,"orig":"","vertexType":"NORMAL"},"to":{"name":"Destination","lon":-71.09648599,"lat":48.40367,"orig":"","vertexType":"NORMAL"},"itineraries":[{"duration":1055,"startTime":1522668490000,"endTime":1522669545000,"walkTime":728,"transitTime":325,"waitingTime":2,"walkDistance":947.3389248097737,"walkLimitExceeded":false,"elevationLost":0.0,"elevationGained":0.0,"transfers":0,"legs":[{"startTime":1522668490000,"endTime":1522668794000,"departureDelay":0,"arrivalDelay":0,"realTime":false,"distance":393.51599999999996,"pathway":false,"mode":"WALK","route":"","agencyTimeZoneOffset":-14400000,"interlineWithPreviousLeg":false,"from":{"name":"Origin","lon":-71.073616,"lat":48.411753,"departure":1522668490000,"orig":"","vertexType":"NORMAL"},"to":{"name":"Jolliet / Garnier","stopId":"1:4292","stopCode":"4292","lon":-71.077836,"lat":48.410186,"arrival":1522668794000,"departure":1522668795000,"zoneId":"NA","stopIndex":16,"stopSequence":17,"vertexType":"TRANSIT"},"legGeometry":{"points":"annfHrqxpLPjC`@rFPxBjBjBh@f@dCxBTT@@","length":9},"rentedBike":false,"transitLeg":false,"duration":304.0,"steps":[{"distance":393.51599999999996,"relativeDirection":"DEPART","streetName":"Rue Jolliet","absoluteDirection":"WEST","stayOn":false,"area":false,"bogusName":false,"lon":-71.0736976571186,"lat":48.412015756724095,"elevation":[]}]},{"startTime":1522668795000,"endTime":1522669120000,"departureDelay":0,"arrivalDelay":0,"realTime":false,"distance":2908.479037929821,"pathway":false,"mode":"BUS","route":"14","agencyName":"Société de Transport du Saguenay","agencyUrl":"http://ville.saguenay.ca/fr/services-aux-citoyens/transport-sts","agencyTimeZoneOffset":-14400000,"routeColor":"C0C000","routeType":3,"routeId":"1:14","routeTextColor":"000000","interlineWithPreviousLeg":false,"tripBlockId":"32","headsign":"Talbot / Barrette","agencyId":"0","tripId":"1:218148","serviceDate":"20180402","from":{"name":"Jolliet / Garnier","stopId":"1:4292","stopCode":"4292","lon":-71.077836,"lat":48.410186,"arrival":1522668794000,"departure":1522668795000,"zoneId":"NA","stopIndex":16,"stopSequence":17,"vertexType":"TRANSIT"},"to":{"name":"Malraux / Pagnol","stopId":"1:1978","stopCode":"1978","lon":-71.093388,"lat":48.400416,"arrival":1522669120000,"departure":1522669121000,"zoneId":"NA","stopIndex":29,"stopSequence":30,"vertexType":"TRANSIT"},"legGeometry":{"points":"gbnfHtjypLlElEtAnB`@l@pFrD@?fDr@XgAjFuR\\yADm@b@gFd@_B`A}@tEvJBDvC`FtJ|LLNlClC|@^hCYVExCjCb@d@vE`F`BhB?pHaBhRqAbLK~@qBxFqB|FcC~GyC\\aDkD","length":36},"routeShortName":"14","routeLongName":"Coopérative","rentedBike":false,"transitLeg":true,"duration":325.0,"steps":[]},{"startTime":1522669121000,"endTime":1522669545000,"departureDelay":0,"arrivalDelay":0,"realTime":false,"distance":553.7529999999999,"pathway":false,"mode":"WALK","route":"","agencyTimeZoneOffset":-14400000,"interlineWithPreviousLeg":false,"from":{"name":"Malraux / Pagnol","stopId":"1:1978","stopCode":"1978","lon":-71.093388,"lat":48.400416,"arrival":1522669120000,"departure":1522669121000,"zoneId":"NA","stopIndex":29,"stopSequence":30,"vertexType":"TRANSIT"},"to":{"name":"Destination","lon":-71.09648599,"lat":48.40367,"arrival":1522669545000,"orig":"","vertexType":"NORMAL"},"legGeometry":{"points":"selfHzl|pLkF{Fa@jAA?{EvMy@tBGPwAvD","length":8},"rentedBike":false,"transitLeg":false,"duration":424.0,"steps":[{"distance":160.301,"relativeDirection":"DEPART","streetName":"Rue Malraux","absoluteDirection":"NORTHEAST","stayOn":false,"area":false,"bogusName":false,"lon":-71.09341079342245,"lat":48.40042668071038,"elevation":[]},{"distance":393.452,"relativeDirection":"LEFT","streetName":"Boulevard Barrette","absoluteDirection":"NORTHWEST","stayOn":false,"area":false,"bogusName":false,"lon":-71.0921587,"lat":48.401604500000005,"elevation":[]}]}],"tooSloped":false},{"duration":1413,"startTime":1522669044000,"endTime":1522670457000,"walkTime":1048,"transitTime":363,"waitingTime":2,"walkDistance":1351.5898947317473,"walkLimitExceeded":false,"elevationLost":0.0,"elevationGained":0.0,"transfers":0,"legs":[{"startTime":1522669044000,"endTime":1522669919000,"departureDelay":0,"arrivalDelay":0,"realTime":false,"distance":1126.9800000000002,"pathway":false,"mode":"WALK","route":"","agencyTimeZoneOffset":-14400000,"interlineWithPreviousLeg":false,"from":{"name":"Origin","lon":-71.073616,"lat":48.411753,"departure":1522669044000,"orig":"","vertexType":"NORMAL"},"to":{"name":"Saint-Paul / Saint-Augustin","stopId":"1:426","stopCode":"426","lon":-71.084129,"lat":48.414194,"arrival":1522669919000,"departure":1522669920000,"zoneId":"NA","stopIndex":12,"stopSequence":13,"vertexType":"TRANSIT"},"legGeometry":{"points":"annfHrqxpLPjC`@rFPxBjBjBh@f@dCxBmClIgAzD{@vDWzBY`D{@fDoAnBg@XoAh@IB[PSJe@VIVQUgAgB","length":23},"rentedBike":false,"transitLeg":false,"duration":875.0,"steps":[{"distance":377.69,"relativeDirection":"DEPART","streetName":"Rue Jolliet","absoluteDirection":"WEST","stayOn":false,"area":false,"bogusName":false,"lon":-71.0736976571186,"lat":48.412015756724095,"elevation":[]},{"distance":613.328,"relativeDirection":"RIGHT","streetName":"Rue Garnier","absoluteDirection":"NORTHWEST","stayOn":false,"area":false,"bogusName":false,"lon":-71.0775766,"lat":48.4102442,"elevation":[]},{"distance":67.896,"relativeDirection":"CONTINUE","streetName":"Rue Saint-Augustin","absoluteDirection":"NORTH","stayOn":false,"area":false,"bogusName":false,"lon":-71.0842714,"lat":48.413164,"elevation":[]},{"distance":68.066,"relativeDirection":"RIGHT","streetName":"Rue Saint-Paul","absoluteDirection":"NORTHEAST","stayOn":false,"area":false,"bogusName":false,"lon":-71.0846811,"lat":48.413698000000004,"elevation":[]}]},{"startTime":1522669920000,"endTime":1522670283000,"departureDelay":0,"arrivalDelay":0,"realTime":false,"distance":1520.6034352398315,"pathway":false,"mode":"BUS","route":"11","agencyName":"Société de Transport du Saguenay","agencyUrl":"http://ville.saguenay.ca/fr/services-aux-citoyens/transport-sts","agencyTimeZoneOffset":-14400000,"routeColor":"FF0000","routeType":3,"routeId":"1:11","routeTextColor":"FFFFFF","interlineWithPreviousLeg":false,"tripBlockId":"35","headsign":"Boul.Royaume/St-Pierre","agencyId":"0","tripId":"1:218244","serviceDate":"20180402","from":{"name":"Saint-Paul / Saint-Augustin","stopId":"1:426","stopCode":"426","lon":-71.084129,"lat":48.414194,"arrival":1522669919000,"departure":1522669920000,"zoneId":"NA","stopIndex":12,"stopSequence":13,"vertexType":"TRANSIT"},"to":{"name":"boul. Barrette / Estacade","stopId":"1:465","stopCode":"465","lon":-71.098983,"lat":48.40478,"arrival":1522670283000,"departure":1522670284000,"zoneId":"NA","stopIndex":15,"stopSequence":16,"vertexType":"TRANSIT"},"legGeometry":{"points":"k{nfHjrzpLR\\bAfBLa@t@]LjAVvAVbAVv@^bAXj@b@t@xEtGh@r@n@x@FDjA|AlBpCnJ|NNTX`@V`@eCtHpFjH{FhPcB|Ft@|CEAdCnEdHKrBz@lGiQ","length":32},"routeShortName":"11","routeLongName":"Chic/Faubourg via St-Paul","rentedBike":false,"transitLeg":true,"duration":363.0,"steps":[]},{"startTime":1522670284000,"endTime":1522670457000,"departureDelay":0,"arrivalDelay":0,"realTime":false,"distance":224.452,"pathway":false,"mode":"WALK","route":"","agencyTimeZoneOffset":-14400000,"interlineWithPreviousLeg":false,"from":{"name":"boul. Barrette / Estacade","stopId":"1:465","stopCode":"465","lon":-71.098983,"lat":48.40478,"arrival":1522670283000,"departure":1522670284000,"zoneId":"NA","stopIndex":15,"stopSequence":16,"vertexType":"TRANSIT"},"to":{"name":"Destination","lon":-71.09648599,"lat":48.40367,"arrival":1522670457000,"orig":"","vertexType":"NORMAL"},"legGeometry":{"points":"u`mfHzo}pLL]f@cBjBuEAc@z@{B","length":6},"rentedBike":false,"transitLeg":false,"duration":173.0,"steps":[{"distance":168.596,"relativeDirection":"DEPART","streetName":"bike path","absoluteDirection":"SOUTHEAST","stayOn":false,"area":false,"bogusName":true,"lon":-71.09901282754062,"lat":48.40475012061133,"elevation":[]},{"distance":55.856,"relativeDirection":"SLIGHTLY_RIGHT","streetName":"Boulevard Barrette","absoluteDirection":"SOUTHEAST","stayOn":false,"area":false,"bogusName":false,"lon":-71.0971116,"lat":48.4039529,"elevation":[]}]}],"tooSloped":false},{"duration":1055,"startTime":1522670290000,"endTime":1522671345000,"walkTime":728,"transitTime":325,"waitingTime":2,"walkDistance":947.3389248097737,"walkLimitExceeded":false,"elevationLost":0.0,"elevationGained":0.0,"transfers":0,"legs":[{"startTime":1522670290000,"endTime":1522670594000,"departureDelay":0,"arrivalDelay":0,"realTime":false,"distance":393.51599999999996,"pathway":false,"mode":"WALK","route":"","agencyTimeZoneOffset":-14400000,"interlineWithPreviousLeg":false,"from":{"name":"Origin","lon":-71.073616,"lat":48.411753,"departure":1522670290000,"orig":"","vertexType":"NORMAL"},"to":{"name":"Jolliet / Garnier","stopId":"1:4292","stopCode":"4292","lon":-71.077836,"lat":48.410186,"arrival":1522670594000,"departure":1522670595000,"zoneId":"NA","stopIndex":16,"stopSequence":17,"vertexType":"TRANSIT"},"legGeometry":{"points":"annfHrqxpLPjC`@rFPxBjBjBh@f@dCxBTT@@","length":9},"rentedBike":false,"transitLeg":false,"duration":304.0,"steps":[{"distance":393.51599999999996,"relativeDirection":"DEPART","streetName":"Rue Jolliet","absoluteDirection":"WEST","stayOn":false,"area":false,"bogusName":false,"lon":-71.0736976571186,"lat":48.412015756724095,"elevation":[]}]},{"startTime":1522670595000,"endTime":1522670920000,"departureDelay":0,"arrivalDelay":0,"realTime":false,"distance":2908.479037929821,"pathway":false,"mode":"BUS","route":"14","agencyName":"Société de Transport du Saguenay","agencyUrl":"http://ville.saguenay.ca/fr/services-aux-citoyens/transport-sts","agencyTimeZoneOffset":-14400000,"routeColor":"C0C000","routeType":3,"routeId":"1:14","routeTextColor":"000000","interlineWithPreviousLeg":false,"tripBlockId":"30","headsign":"Talbot / Barrette","agencyId":"0","tripId":"1:218089","serviceDate":"20180402","from":{"name":"Jolliet / Garnier","stopId":"1:4292","stopCode":"4292","lon":-71.077836,"lat":48.410186,"arrival":1522670594000,"departure":1522670595000,"zoneId":"NA","stopIndex":16,"stopSequence":17,"vertexType":"TRANSIT"},"to":{"name":"Malraux / Pagnol","stopId":"1:1978","stopCode":"1978","lon":-71.093388,"lat":48.400416,"arrival":1522670920000,"departure":1522670921000,"zoneId":"NA","stopIndex":29,"stopSequence":30,"vertexType":"TRANSIT"},"legGeometry":{"points":"gbnfHtjypLlElEtAnB`@l@pFrD@?fDr@XgAjFuR\\yADm@b@gFd@_B`A}@tEvJBDvC`FtJ|LLNlClC|@^hCYVExCjCb@d@vE`F`BhB?pHaBhRqAbLK~@qBxFqB|FcC~GyC\\aDkD","length":36},"routeShortName":"14","routeLongName":"Coopérative","rentedBike":false,"transitLeg":true,"duration":325.0,"steps":[]},{"startTime":1522670921000,"endTime":1522671345000,"departureDelay":0,"arrivalDelay":0,"realTime":false,"distance":553.7529999999999,"pathway":false,"mode":"WALK","route":"","agencyTimeZoneOffset":-14400000,"interlineWithPreviousLeg":false,"from":{"name":"Malraux / Pagnol","stopId":"1:1978","stopCode":"1978","lon":-71.093388,"lat":48.400416,"arrival":1522670920000,"departure":1522670921000,"zoneId":"NA","stopIndex":29,"stopSequence":30,"vertexType":"TRANSIT"},"to":{"name":"Destination","lon":-71.09648599,"lat":48.40367,"arrival":1522671345000,"orig":"","vertexType":"NORMAL"},"legGeometry":{"points":"selfHzl|pLkF{Fa@jAA?{EvMy@tBGPwAvD","length":8},"rentedBike":false,"transitLeg":false,"duration":424.0,"steps":[{"distance":160.301,"relativeDirection":"DEPART","streetName":"Rue Malraux","absoluteDirection":"NORTHEAST","stayOn":false,"area":false,"bogusName":false,"lon":-71.09341079342245,"lat":48.40042668071038,"elevation":[]},{"distance":393.452,"relativeDirection":"LEFT","streetName":"Boulevard Barrette","absoluteDirection":"NORTHWEST","stayOn":false,"area":false,"bogusName":false,"lon":-71.0921587,"lat":48.401604500000005,"elevation":[]}]}],"tooSloped":false}]},"debugOutput":{"precalculationTime":21,"pathCalculationTime":25,"pathTimes":[14,5,6],"renderingTime":0,"totalTime":46,"timedOut":false},"elevationMetadata":{"ellipsoidToGeoidDifference":-28.885904201182168,"geoidElevation":false}}