{"requestParameters":{"date":"2018/04/02","walkSpeed":"1.33","walkReluctance":"2.0","fromPlace":"48.398402,-71.065791","maxWalkDistance":"3000","waitReluctance":"1.0","carSpeed":"33","numItineraries":"3","waitAtBeginningFactor":"0.4","mode":"TRANSIT,WALK","ignoreRealtimeUpdates":"false","stairsReluctance":"2.0","toPlace":"48.41479,-71.078322","time":"17:0:00"},"plan":{"date":1522702800000,"from":{"name":"Origin","lon":-71.065791,"lat":48.398402,"orig":"","vertexType":"NORMAL"},"to":{"name":"Destination","lon":-71.078322,"lat":48.41479,"orig":"","vertexType":"NORMAL"},"itineraries":[{"duration":1243,"startTime":1522702986000,"endTime":1522704229000,"walkTime":600,"transitTime":641,"waitingTime":2,"walkDistance":781.5258421040745,"walkLimitExceeded":false,"elevationLost":0.0,"elevationGained":0.0,"transfers":0,"legs":[{"startTime":1522702986000,"endTime":1522703519000,"departureDelay":0,"arrivalDelay":0,"realTime":false,"distance":695.404,"pathway":false,"mode":"WALK","route":"","agencyTimeZoneOffset":-14400000,"interlineWithPreviousLeg":false,"from":{"name":"Origin","lon":-71.065791,"lat":48.398402,"departure":1522702986000,"orig":"","vertexType":"NORMAL"},"to":{"name":"Roitelets / Sapins","stopId":"1:1513","stopCode":"1513","lon":-71.069396,"lat":48.393523,"arrival":1522703519000,"departure":1522703520000,"zoneId":"NA","stopIndex":0,"stopSequence":1,"vertexType":"TRANSIT"},"legGeometry":{"points":"kwkfHp}vpL|DdGLPlAbBjCpDHLbDbETX~DxENPPc@FQ@CnA{C","length":14},"rentedBike":false,"transitLeg":false,"duration":533.0,"steps":[{"distance":596.806,"relativeDirection":"DEPART","streetName":"Boulevard Talbot","absoluteDirection":"SOUTHWEST","stayOn":false,"area":false,"bogusName":false,"lon":-71.06536804995359,"lat":48.3981441297437,"elevation":[]},{"distance":16.634,"relativeDirection":"LEFT","streetName":"Boulevard Barrette","absoluteDirection":"SOUTHEAST","stayOn":false,"area":false,"bogusName":false,"lon":-71.0705155,"lat":48.394010400000006,"elevation":[]},{"distance":81.964,"relativeDirection":"CONTINUE","streetName":"Rue Des Roitelets","absoluteDirection":"SOUTHEAST","stayOn":false,"area":false,"bogusName":false,"lon":-71.0703318,"lat":48.3939238,"elevation":[]}]},{"startTime":1522703520000,"endTime":1522704161000,"departureDelay":0,"arrivalDelay":0,"realTime":false,"distance":5705.36012803731,"pathway":false,"mode":"BUS","route":"14","agencyName":"Société de Transport du Saguenay","agencyUrl":"http://ville.saguenay.ca/fr/services-aux-citoyens/transport-sts","agencyTimeZoneOffset":-14400000,"routeColor":"C0C000","routeType":3,"routeId":"1:14","routeTextColor":"000000","interlineWithPreviousLeg":false,"tripBlockId":"31","headsign":"Terminus Chicoutimi","agencyId":"0","tripId":"1:218143","serviceDate":"20180402","from":{"name":"Roitelets / Sapins","stopId":"1:1513","stopCode":"1513","lon":-71.069396,"lat":48.393523,"arrival":1522703519000,"departure":1522703520000,"zoneId":"NA","stopIndex":0,"stopSequence":1,"vertexType":"TRANSIT"},"to":{"name":"Parc Saint-Joachim (Boily)","stopId":"1:548","stopCode":"548","lon":-71.076897,"lat":48.415117,"arrival":1522704161000,"departure":1522704162000,"zoneId":"NA","stopIndex":23,"stopSequence":24,"vertexType":"TRANSIT"},"legGeometry":{"points":"azjfHfwwpLiEfLuBzFsAnDgGzSWfAcD`Mi@dCgChLmCzMwGd\\aDxOdFtFhCtCdDY|F_On@aB`B_GNoBvAyT|@sNuAyAuF}F}AaB_BkAC@qC\\gAWiBwBiKgMiCwEgEyHCGy@uB}@rAa@nAc@lFEf@mGvUYfAqCs@ICMCqFmDc@s@mAkBuEoESUgAhDiAfD}@zDyAcA_@Um@U{AWgB_Au@s@EEsBkCqFgF","length":60},"routeShortName":"14","routeLongName":"Coopérative","rentedBike":false,"transitLeg":true,"duration":641.0,"steps":[]},{"startTime":1522704162000,"endTime":1522704229000,"departureDelay":0,"arrivalDelay":0,"realTime":false,"distance":86.08500000000001,"pathway":false,"mode":"WALK","route":"","agencyTimeZoneOffset":-14400000,"interlineWithPreviousLeg":false,"from":{"name":"Parc Saint-Joachim (Boily)","stopId":"1:548","stopCode":"548","lon":-71.076897,"lat":48.415117,"arrival":1522704161000,"departure":1522704162000,"zoneId":"NA","stopIndex":23,"stopSequence":24,"vertexType":"TRANSIT"},"to":{"name":"Destination","lon":-71.078322,"lat":48.41479,"arrival":1522704229000,"orig":"","vertexType":"NORMAL"},"legGeometry":{"points":"{aofHtfypL\\\\bA`A^\\","length":4},"rentedBike":false,"transitLeg":false,"duration":67.0,"steps":[{"distance":86.08500000000001,"relativeDirection":"DEPART","streetName":"Rue Boily","absoluteDirection":"SOUTHWEST","stayOn":false,"area":false,"bogusName":false,"lon":-71.07706991929216,"lat":48.415189813512285,"elevation":[]}]}],"tooSloped":false},{"duration":1600,"startTime":1522703103000,"endTime":1522704703000,"walkTime":206,"transitTime":1032,"waitingTime":362,"walkDistance":259.0779172910739,"walkLimitExceeded":false,"elevationLost":0.0,"elevationGained":0.0,"transfers":1,"legs":[{"startTime":1522703103000,"endTime":1522703258000,"departureDelay":0,"arrivalDelay":0,"realTime":false,"distance":193.20800000000003,"pathway":false,"mode":"WALK","route":"","agencyTimeZoneOffset":-14400000,"interlineWithPreviousLeg":false,"from":{"name":"Origin","lon":-71.065791,"lat":48.398402,"departure":1522703103000,"orig":"","vertexType":"NORMAL"},"to":{"name":"boul. Talbot / Laurentides","stopId":"1:51","stopCode":"51","lon":-71.063914,"lat":48.398861,"arrival":1522703258000,"departure":1522703259000,"zoneId":"NA","stopIndex":9,"stopSequence":10,"vertexType":"TRANSIT"},"legGeometry":{"points":"kwkfHp}vpLiDiFa@i@Pc@V\\FH","length":6},"rentedBike":false,"transitLeg":false,"duration":155.0,"steps":[{"distance":153.352,"relativeDirection":"DEPART","streetName":"Boulevard Talbot","absoluteDirection":"NORTHEAST","stayOn":false,"area":false,"bogusName":false,"lon":-71.06536804995359,"lat":48.3981441297437,"elevation":[]},{"distance":39.855999999999995,"relativeDirection":"UTURN_RIGHT","streetName":"Boulevard Talbot","absoluteDirection":"SOUTHWEST","stayOn":true,"area":false,"bogusName":false,"lon":-71.06380730000001,"lat":48.3990713,"elevation":[]}]},{"startTime":1522703259000,"endTime":1522703760000,"departureDelay":0,"arrivalDelay":0,"realTime":false,"distance":2768.559729662459,"pathway":false,"mode":"BUS","route":"175","agencyName":"Société de Transport du Saguenay","agencyUrl":"http://ville.saguenay.ca/fr/services-aux-citoyens/transport-sts","agencyTimeZoneOffset":-14400000,"routeColor":"FF00FF","routeType":3,"routeId":"1:175","routeTextColor":"FFFFFF","interlineWithPreviousLeg":false,"tripBlockId":"77","headsign":"Terminus Chicoutimi","agencyId":"0","tripId":"1:218638","serviceDate":"20180402","from":{"name":"boul. Talbot / Laurentides","stopId":"1:51","stopCode":"51","lon":-71.063914,"lat":48.398861,"arrival":1522703258000,"departure":1522703259000,"zoneId":"NA","stopIndex":9,"stopSequence":10,"vertexType":"TRANSIT"},"to":{"name":"Terminus UQAC","stopId":"1:1670","stopCode":"1670","lon":-71.053369,"lat":48.420903,"arrival":1522703760000,"departure":1522704120000,"zoneId":"NA","stopIndex":14,"stopSequence":15,"vertexType":"TRANSIT"},"legGeometry":{"points":"q|kfHtuvpL}FkImPkOuO{N_U_TcNgNcBcB{E`Jc@x@qG~@{BlAk@XgSrQqB_GAeFiEeEOt@gAeA","length":18},"routeShortName":"175","routeLongName":"Term. Chic / Costco","rentedBike":false,"transitLeg":true,"duration":501.0,"steps":[]},{"startTime":1522704120000,"endTime":1522704651000,"departureDelay":0,"arrivalDelay":0,"realTime":false,"distance":2173.2875861323455,"pathway":false,"mode":"BUS","route":"14","agencyName":"Société de Transport du Saguenay","agencyUrl":"http://ville.saguenay.ca/fr/services-aux-citoyens/transport-sts","agencyTimeZoneOffset":-14400000,"routeColor":"C0C000","routeType":3,"routeId":"1:14","routeTextColor":"000000","interlineWithPreviousLeg":false,"tripBlockId":"32","headsign":"Talbot / Barrette","agencyId":"0","tripId":"1:218168","serviceDate":"20180402","from":{"name":"Terminus UQAC","stopId":"1:1670","stopCode":"1670","lon":-71.053369,"lat":48.420903,"arrival":1522703760000,"departure":1522704120000,"zoneId":"NA","stopIndex":8,"stopSequence":9,"vertexType":"TRANSIT"},"to":{"name":"Parc Saint-Joachim (Boily)","stopId":"1:525","stopCode":"525","lon":-71.077277,"lat":48.415061,"arrival":1522704651000,"departure":1522704652000,"zoneId":"NA","stopIndex":13,"stopSequence":14,"vertexType":"TRANSIT"},"legGeometry":{"points":"sepfHrrtpLdA`ATq@`E~DL`@E`Ex@hDd@`B}FtFaAzAm@xAe@jCa@nDiAbm@SpKM`H]vBhDVzCTcAvCO^bEbEzK`LfBeEtK`K","length":25},"routeShortName":"14","routeLongName":"Coopérative","rentedBike":false,"transitLeg":true,"duration":531.0,"steps":[]},{"startTime":1522704652000,"endTime":1522704703000,"departureDelay":0,"arrivalDelay":0,"realTime":false,"distance":65.803,"pathway":false,"mode":"WALK","route":"","agencyTimeZoneOffset":-14400000,"interlineWithPreviousLeg":false,"from":{"name":"Parc Saint-Joachim (Boily)","stopId":"1:525","stopCode":"525","lon":-71.077277,"lat":48.415061,"arrival":1522704651000,"departure":1522704652000,"zoneId":"NA","stopIndex":13,"stopSequence":14,"vertexType":"TRANSIT"},"to":{"name":"Destination","lon":-71.078322,"lat":48.41479,"arrival":1522704703000,"orig":"","vertexType":"NORMAL"},"legGeometry":{"points":"}`ofHrgypLbA`A^\\","length":3},"rentedBike":false,"transitLeg":false,"duration":51.0,"steps":[{"distance":65.803,"relativeDirection":"DEPART","streetName":"Rue Boily","absoluteDirection":"SOUTHWEST","stayOn":false,"area":false,"bogusName":false,"lon":-71.07721713862297,"lat":48.41503579328848,"elevation":[]}]}],"tooSloped":false},{"duration":1243,"startTime":1522704786000,"endTime":1522706029000,"walkTime":600,"transitTime":641,"waitingTime":2,"walkDistance":781.5258421040745,"walkLimitExceeded":false,"elevationLost":0.0,"elevationGained":0.0,"transfers":0,"legs":[{"startTime":1522704786000,"endTime":1522705319000,"departureDelay":0,"arrivalDelay":0,"realTime":false,"distance":695.404,"pathway":false,"mode":"WALK","route":"","agencyTimeZoneOffset":-14400000,"interlineWithPreviousLeg":false,"from":{"name":"Origin","lon":-71.065791,"lat":48.398402,"departure":1522704786000,"orig":"","vertexType":"NORMAL"},"to":{"name":"Roitelets / Sapins","stopId":"1:1513","stopCode":"1513","lon":-71.069396,"lat":48.393523,"arrival":1522705319000,"departure":1522705320000,"zoneId":"NA","stopIndex":0,"stopSequence":1,"vertexType":"TRANSIT"},"legGeometry":{"points":"kwkfHp}vpL|DdGLPlAbBjCpDHLbDbETX~DxENPPc@FQ@CnA{C","length":14},"rentedBike":false,"transitLeg":false,"duration":533.0,"steps":[{"distance":596.806,"relativeDirection":"DEPART","streetName":"Boulevard Talbot","absoluteDirection":"SOUTHWEST","stayOn":false,"area":false,"bogusName":false,"lon":-71.06536804995359,"lat":48.3981441297437,"elevation":[]},{"distance":16.634,"relativeDirection":"LEFT","streetName":"Boulevard Barrette","absoluteDirection":"SOUTHEAST","stayOn":false,"area":false,"bogusName":false,"lon":-71.0705155,"lat":48.394010400000006,"elevation":[]},{"distance":81.964,"relativeDirection":"CONTINUE","streetName":"Rue Des Roitelets","absoluteDirection":"SOUTHEAST","stayOn":false,"area":false,"bogusName":false,"lon":-71.0703318,"lat":48.3939238,"elevation":[]}]},{"startTime":1522705320000,"endTime":1522705961000,"departureDelay":0,"arrivalDelay":0,"realTime":false,"distance":5705.36012803731,"pathway":false,"mode":"BUS","route":"14","agencyName":"Société de Transport du Saguenay","agencyUrl":"http://ville.saguenay.ca/fr/services-aux-citoyens/transport-sts","agencyTimeZoneOffset":-14400000,"routeColor":"C0C000","routeType":3,"routeId":"1:14","routeTextColor":"000000","interlineWithPreviousLeg":false,"tripBlockId":"33","headsign":"Terminus Chicoutimi","agencyId":"0","tripId":"1:218194","serviceDate":"20180402","from":{"name":"Roitelets / Sapins","stopId":"1:1513","stopCode":"1513","lon":-71.069396,"lat":48.393523,"arrival":1522705319000,"departure":1522705320000,"zoneId":"NA","stopIndex":0,"stopSequence":1,"vertexType":"TRANSIT"},"to":{"name":"Parc Saint-Joachim (Boily)","stopId":"1:548","stopCode":"548","lon":-71.076897,"lat":48.415117,"arrival":1522705961000,"departure":1522705962000,"zoneId":"NA","stopIndex":23,"stopSequence":24,"vertexType":"TRANSIT"},"legGeometry":{"points":"azjfHfwwpLiEfLuBzFsAnDgGzSWfAcD`Mi@dCgChLmCzMwGd\\aDxOdFtFhCtCdDY|F_On@aB`B_GNoBvAyT|@sNuAyAuF}F}AaB_BkAC@qC\\gAWiBwBiKgMiCwEgEyHCGy@uB}@rAa@nAc@lFEf@mGvUYfAqCs@ICMCqFmDc@s@mAkBuEoESUgAhDiAfD}@zDyAcA_@Um@U{AWgB_Au@s@EEsBkCqFgF","length":60},"routeShortName":"14","routeLongName":"Coopérative","rentedBike":false,"transitLeg":true,"duration":641.0,"steps":[]},{"startTime":1522705962000,"endTime":1522706029000,"departureDelay":0,"arrivalDelay":0,"realTime":false,"distance":86.08500000000001,"pathway":false,"mode":"WALK","route":"","agencyTimeZoneOffset":-14400000,"interlineWithPreviousLeg":false,"from":{"name":"Parc Saint-Joachim (Boily)","stopId":"1:548","stopCode":"548","lon":-71.076897,"lat":48.415117,"arrival":1522705961000,"departure":1522705962000,"zoneId":"NA","stopIndex":23,"stopSequence":24,"vertexType":"TRANSIT"},"to":{"name":"Destination","lon":-71.078322,"lat":48.41479,"arrival":1522706029000,"orig":"","vertexType":"NORMAL"},"legGeometry":{"points":"{aofHtfypL\\\\bA`A^\\","length":4},"rentedBike":false,"transitLeg":false,"duration":67.0,"steps":[{"distance":86.08500000000001,"relativeDirection":"DEPART","streetName":"Rue Boily","absoluteDirection":"SOUTHWEST","stayOn":false,"area":false,"bogusName":false,"lon":-71.07706991929216,"lat":48.415189813512285,"elevation":[]}]}],"tooSloped":false}]},"debugOutput":{"precalculationTime":27,"pathCalculationTime":27,"pathTimes":[15,6,6],"renderingTime":0,"totalTime":54,"timedOut":false},"elevationMetadata":{"ellipsoidToGeoidDifference":-28.885904201182168,"geoidElevation":false}}