{"requestParameters":{"date":"2018/04/02","walkSpeed":"1.33","walkReluctance":"2.0","fromPlace":"48.40924,-71.05257199","maxWalkDistance":"3000","waitReluctance":"1.0","carSpeed":"33","numItineraries":"3","waitAtBeginningFactor":"0.4","mode":"TRANSIT,WALK","ignoreRealtimeUpdates":"false","stairsReluctance":"2.0","toPlace":"48.41388,-71.06744299","time":"6:45:00"},"plan":{"date":1522665900000,"from":{"name":"Origin","lon":-71.05257199,"lat":48.40924,"orig":"","vertexType":"NORMAL"},"to":{"name":"Destination","lon":-71.06744299,"lat":48.41388,"orig":"","vertexType":"NORMAL"},"itineraries":[{"duration":1518,"startTime":1522665900000,"endTime":1522667418000,"walkTime":1518,"transitTime":0,"waitingTime":0,"walkDistance":1944.330503751284,"walkLimitExceeded":false,"elevationLost":0.0,"elevationGained":0.0,"transfers":0,"legs":[{"startTime":1522665900000,"endTime":1522667418000,"departureDelay":0,"arrivalDelay":0,"realTime":false,"distance":1944.079,"pathway":false,"mode":"WALK","route":"","agencyTimeZoneOffset":-14400000,"interlineWithPreviousLeg":false,"from":{"name":"Origin","lon":-71.05257199,"lat":48.40924,"departure":1522665900000,"orig":"","vertexType":"NORMAL"},"to":{"name":"Destination","lon":-71.06744299,"lat":48.41388,"arrival":1522667418000,"orig":"","vertexType":"NORMAL"},"legGeometry":{"points":"i|mfHvltpLz@z@INo@jBM\\E\\?VDVpF`FO`@GPm@|A]|@O`@M\\e@`AmCbHa@|@?@o@|Aa@`@wC^iALC?}Fr@C@M@yCb@_ANcAp@_@d@Y`@iAbD??e@pAoAnDcA|FOh@GP??k@jBn@l@LNrCpCFFBBv@v@k@lAi@dB?n@Lb@d@RrCkA","length":53},"rentedBike":false,"transitLeg":false,"duration":1518.0,"steps":[{"distance":139.72,"relativeDirection":"DEPART","streetName":"service road","absoluteDirection":"SOUTHWEST","stayOn":false,"area":false,"bogusName":false,"lon":-71.05243235337889,"lat":48.40917865676581,"elevation":[]},{"distance":158.108,"relativeDirection":"LEFT","streetName":"Boulevard Talbot","absoluteDirection":"SOUTHWEST","stayOn":false,"area":false,"bogusName":false,"lon":-71.0538959,"lat":48.4092308,"elevation":[]},{"distance":1236.5629999999999,"relativeDirection":"RIGHT","streetName":"Rue des Champs-Élysées","absoluteDirection":"NORTHWEST","stayOn":false,"area":false,"bogusName":false,"lon":-71.05502820000001,"lat":48.4080238,"elevation":[]},{"distance":184.676,"relativeDirection":"LEFT","streetName":"Rue Bégin","absoluteDirection":"SOUTHWEST","stayOn":false,"area":false,"bogusName":false,"lon":-71.0647342,"lat":48.416021,"elevation":[]},{"distance":225.012,"relativeDirection":"RIGHT","streetName":"Rue D'Youville","absoluteDirection":"NORTHWEST","stayOn":false,"area":false,"bogusName":false,"lon":-71.06611290000001,"lat":48.414635000000004,"elevation":[]}]}],"tooSloped":false},{"duration":758,"startTime":1522666979000,"endTime":1522667737000,"walkTime":594,"transitTime":162,"waitingTime":2,"walkDistance":770.4643233057111,"walkLimitExceeded":false,"elevationLost":0.0,"elevationGained":0.0,"transfers":0,"legs":[{"startTime":1522666979000,"endTime":1522667219000,"departureDelay":0,"arrivalDelay":0,"realTime":false,"distance":314.41200000000003,"pathway":false,"mode":"WALK","route":"","agencyTimeZoneOffset":-14400000,"interlineWithPreviousLeg":false,"from":{"name":"Origin","lon":-71.05257199,"lat":48.40924,"departure":1522666979000,"orig":"","vertexType":"NORMAL"},"to":{"name":"Place du Royaume (Champs-Élysées)","stopId":"1:193","stopCode":"193","lon":-71.052659,"lat":48.407065,"arrival":1522667219000,"departure":1522667220000,"zoneId":"NA","stopIndex":28,"stopSequence":29,"vertexType":"TRANSIT"},"legGeometry":{"points":"i|mfHvltpLz@z@t@mBRMJBbAdARJLEPc@RYTGRJxAdCPU","length":14},"rentedBike":false,"transitLeg":false,"duration":240.0,"steps":[{"distance":301.759,"relativeDirection":"DEPART","streetName":"service road","absoluteDirection":"SOUTHWEST","stayOn":false,"area":false,"bogusName":false,"lon":-71.05243235337889,"lat":48.40917865676581,"elevation":[]},{"distance":12.653,"relativeDirection":"LEFT","streetName":"Rue des Champs-Élysées","absoluteDirection":"SOUTHEAST","stayOn":false,"area":false,"bogusName":false,"lon":-71.05289400000001,"lat":48.4070874,"elevation":[]}]},{"startTime":1522667220000,"endTime":1522667382000,"departureDelay":0,"arrivalDelay":0,"realTime":false,"distance":1343.3249930098123,"pathway":false,"mode":"BUS","route":"12","agencyName":"Société de Transport du Saguenay","agencyUrl":"http://ville.saguenay.ca/fr/services-aux-citoyens/transport-sts","agencyTimeZoneOffset":-14400000,"routeColor":"556B2F","routeType":3,"routeId":"1:12","routeTextColor":"FFFFFF","interlineWithPreviousLeg":false,"tripBlockId":"27","headsign":"Terminus UQAC","agencyId":"0","tripId":"1:218000","serviceDate":"20180402","from":{"name":"Place du Royaume (Champs-Élysées)","stopId":"1:193","stopCode":"193","lon":-71.052659,"lat":48.407065,"arrival":1522667219000,"departure":1522667220000,"zoneId":"NA","stopIndex":28,"stopSequence":29,"vertexType":"TRANSIT"},"to":{"name":"Champs-Élysées / Bégin","stopId":"1:587","stopCode":"587","lon":-71.064119,"lat":48.41589,"arrival":1522667382000,"departure":1522667383000,"zoneId":"NA","stopIndex":32,"stopSequence":33,"vertexType":"TRANSIT"},"legGeometry":{"points":"comfHbntpLcP~b@iHhDaGz@uSl[","length":5},"routeShortName":"12","routeLongName":"Rivière du Moulin","rentedBike":false,"transitLeg":true,"duration":162.0,"steps":[]},{"startTime":1522667383000,"endTime":1522667737000,"departureDelay":0,"arrivalDelay":0,"realTime":false,"distance":455.973,"pathway":false,"mode":"WALK","route":"","agencyTimeZoneOffset":-14400000,"interlineWithPreviousLeg":false,"from":{"name":"Champs-Élysées / Bégin","stopId":"1:587","stopCode":"587","lon":-71.064119,"lat":48.41589,"arrival":1522667382000,"departure":1522667383000,"zoneId":"NA","stopIndex":32,"stopSequence":33,"vertexType":"TRANSIT"},"to":{"name":"Destination","lon":-71.06744299,"lat":48.41388,"arrival":1522667737000,"orig":"","vertexType":"NORMAL"},"legGeometry":{"points":"weofHfvvpLk@jBn@l@LNrCpCFFBBv@v@k@lAi@dB?n@Lb@d@RrCkA","length":14},"rentedBike":false,"transitLeg":false,"duration":354.0,"steps":[{"distance":46.285,"relativeDirection":"DEPART","streetName":"Rue des Champs-Élysées","absoluteDirection":"NORTHWEST","stayOn":false,"area":false,"bogusName":false,"lon":-71.06419656014225,"lat":48.415806692432525,"elevation":[]},{"distance":184.676,"relativeDirection":"LEFT","streetName":"Rue Bégin","absoluteDirection":"SOUTHWEST","stayOn":false,"area":false,"bogusName":false,"lon":-71.0647342,"lat":48.416021,"elevation":[]},{"distance":225.012,"relativeDirection":"RIGHT","streetName":"Rue D'Youville","absoluteDirection":"NORTHWEST","stayOn":false,"area":false,"bogusName":false,"lon":-71.06611290000001,"lat":48.414635000000004,"elevation":[]}]}],"tooSloped":false},{"duration":967,"startTime":1522667483000,"endTime":1522668450000,"walkTime":517,"transitTime":448,"waitingTime":2,"walkDistance":657.8410977398726,"walkLimitExceeded":false,"elevationLost":0.0,"elevationGained":0.0,"transfers":0,"legs":[{"startTime":1522667483000,"endTime":1522667880000,"departureDelay":0,"arrivalDelay":0,"realTime":false,"distance":506.83500000000004,"pathway":false,"mode":"WALK","route":"","agencyTimeZoneOffset":-14400000,"interlineWithPreviousLeg":false,"from":{"name":"Origin","lon":-71.05257199,"lat":48.40924,"departure":1522667483000,"orig":"","vertexType":"NORMAL"},"to":{"name":"boul. Université / Murdock","stopId":"1:59","stopCode":"59","lon":-71.049971,"lat":48.411755,"arrival":1522667880000,"departure":1522667881000,"zoneId":"NA","stopIndex":38,"stopSequence":39,"vertexType":"TRANSIT"},"legGeometry":{"points":"i|mfHvltpL{@{@ADu@rBc@hAEJkDmDcDgDy@}@MKUYDMnAiD","length":13},"rentedBike":false,"transitLeg":false,"duration":397.0,"steps":[{"distance":133.45100000000002,"relativeDirection":"DEPART","streetName":"service road","absoluteDirection":"NORTHEAST","stayOn":false,"area":false,"bogusName":false,"lon":-71.05243235337889,"lat":48.40917865676581,"elevation":[]},{"distance":289.967,"relativeDirection":"RIGHT","streetName":"Boulevard Talbot","absoluteDirection":"NORTHEAST","stayOn":false,"area":false,"bogusName":false,"lon":-71.0531788,"lat":48.4099639,"elevation":[]},{"distance":83.417,"relativeDirection":"RIGHT","streetName":"Boulevard de l'Université","absoluteDirection":"SOUTHEAST","stayOn":false,"area":false,"bogusName":false,"lon":-71.05096660000001,"lat":48.4121189,"elevation":[]}]},{"startTime":1522667881000,"endTime":1522668329000,"departureDelay":0,"arrivalDelay":0,"realTime":false,"distance":3161.3829830177565,"pathway":false,"mode":"BUS","route":"70S","agencyName":"Société de Transport du Saguenay","agencyUrl":"http://ville.saguenay.ca/fr/services-aux-citoyens/transport-sts","agencyTimeZoneOffset":-14400000,"routeColor":"8B0000","routeType":3,"routeId":"1:70S","routeTextColor":"FFFFFF","interlineWithPreviousLeg":false,"tripBlockId":"46","headsign":"École Lafontaine","agencyId":"0","tripId":"1:218384","serviceDate":"20180402","from":{"name":"boul. Université / Murdock","stopId":"1:59","stopCode":"59","lon":-71.049971,"lat":48.411755,"arrival":1522667880000,"departure":1522667881000,"zoneId":"NA","stopIndex":38,"stopSequence":39,"vertexType":"TRANSIT"},"to":{"name":"École secondaire de l'Odyssé Dominique-Racine","stopId":"1:580","stopCode":"580","lon":-71.067703,"lat":48.412977,"arrival":1522668329000,"departure":1522668330000,"zoneId":"NA","stopIndex":50,"stopSequence":51,"vertexType":"TRANSIT"},"legGeometry":{"points":"alnfHv}spLuAvDgBjFk@zAc@l@OPCBQN_@Pa@JYDmCHc@Be@L_@P_@Vy@t@wF~EKi@}@wAw@}@gFcFWSgEgEmCkCI@GHuCrIyA{AaBeBg@vAsClJAh@Bf@Hp@Hp@HdA@fA?h@O|@Ul@u@bAm@~ArEpEtFtFv@p@hCvCf@f@jHlH~@~@bH~G`@b@lBjBh@cBBKR_Ab@oCPu@Ts@dCzB`C`CbAfA^Vt@DfAJv@p@dC~BRRNV@FC^uA|DuA|DERIx@[Oc@_@","length":77},"routeShortName":"70S","routeLongName":"Term.Baie vers Cégep/D.racine/Lafontaine","rentedBike":false,"transitLeg":true,"duration":448.0,"steps":[]},{"startTime":1522668330000,"endTime":1522668450000,"departureDelay":0,"arrivalDelay":0,"realTime":false,"distance":150.867,"pathway":false,"mode":"WALK","route":"","agencyTimeZoneOffset":-14400000,"interlineWithPreviousLeg":false,"from":{"name":"École secondaire de l'Odyssé Dominique-Racine","stopId":"1:580","stopCode":"580","lon":-71.067703,"lat":48.412977,"arrival":1522668329000,"departure":1522668330000,"zoneId":"NA","stopIndex":50,"stopSequence":51,"vertexType":"TRANSIT"},"to":{"name":"Destination","lon":-71.06744299,"lat":48.41388,"arrival":1522668450000,"orig":"","vertexType":"NORMAL"},"legGeometry":{"points":"gtnfHplwpL{@u@UI_BwBa@|@","length":5},"rentedBike":false,"transitLeg":false,"duration":120.0,"steps":[{"distance":121.786,"relativeDirection":"DEPART","streetName":"Rue Bégin","absoluteDirection":"NORTHEAST","stayOn":false,"area":false,"bogusName":false,"lon":-71.06776357747735,"lat":48.41300064951352,"elevation":[]},{"distance":29.081,"relativeDirection":"LEFT","streetName":"Rue D'Youville","absoluteDirection":"NORTHWEST","stayOn":false,"area":false,"bogusName":false,"lon":-71.0668443,"lat":48.4138998,"elevation":[]}]}],"tooSloped":false}]},"debugOutput":{"precalculationTime":35,"pathCalculationTime":27,"pathTimes":[16,5,6],"renderingTime":1,"totalTime":63,"timedOut":false},"elevationMetadata":{"ellipsoidToGeoidDifference":-28.885904201182168,"geoidElevation":false}}