{"requestParameters":{"date":"2018/04/02","walkSpeed":"1.33","walkReluctance":"2.0","fromPlace":"48.403727,-71.056775","maxWalkDistance":"3000","waitReluctance":"1.0","carSpeed":"33","numItineraries":"3","waitAtBeginningFactor":"0.4","mode":"TRANSIT,WALK","ignoreRealtimeUpdates":"false","stairsReluctance":"2.0","toPlace":"48.424931,-71.068732","time":"16:45:00"},"plan":{"date":1522701900000,"from":{"name":"Origin","lon":-71.056775,"lat":48.403727,"orig":"","vertexType":"NORMAL"},"to":{"name":"Destination","lon":-71.068732,"lat":48.424931,"orig":"","vertexType":"NORMAL"},"itineraries":[{"duration":1475,"startTime":1522701935000,"endTime":1522703410000,"walkTime":420,"transitTime":1053,"waitingTime":2,"walkDistance":532.3179548845736,"walkLimitExceeded":false,"elevationLost":0.0,"elevationGained":0.0,"transfers":0,"legs":[{"startTime":1522701935000,"endTime":1522702139000,"departureDelay":0,"arrivalDelay":0,"realTime":false,"distance":256.48499999999996,"pathway":false,"mode":"WALK","route":"","agencyTimeZoneOffset":-14400000,"interlineWithPreviousLeg":false,"from":{"name":"Origin","lon":-71.056775,"lat":48.403727,"departure":1522701935000,"orig":"","vertexType":"NORMAL"},"to":{"name":"Place du Royaume (Saguenéens)","stopId":"1:1294","stopCode":"1294","lon":-71.057691,"lat":48.402355,"arrival":1522702139000,"departure":1522702140000,"zoneId":"NA","stopIndex":11,"stopSequence":12,"vertexType":"TRANSIT"},"legGeometry":{"points":"a{lfHviupLRRXXr@p@XVXXb@`@h@`AZl@FLLi@`@eC","length":12},"rentedBike":false,"transitLeg":false,"duration":204.0,"steps":[{"distance":186.47699999999998,"relativeDirection":"DEPART","streetName":"service road","absoluteDirection":"SOUTHWEST","stayOn":false,"area":false,"bogusName":false,"lon":-71.05707521889572,"lat":48.40385594353976,"elevation":[]},{"distance":70.008,"relativeDirection":"LEFT","streetName":"Rue des Saguenéens","absoluteDirection":"SOUTHEAST","stayOn":false,"area":false,"bogusName":false,"lon":-71.0586019,"lat":48.4025327,"elevation":[]}]},{"startTime":1522702140000,"endTime":1522703193000,"departureDelay":0,"arrivalDelay":0,"realTime":false,"distance":5708.981892907111,"pathway":false,"mode":"BUS","route":"15","agencyName":"Société de Transport du Saguenay","agencyUrl":"http://ville.saguenay.ca/fr/services-aux-citoyens/transport-sts","agencyTimeZoneOffset":-14400000,"routeColor":"FF00FF","routeType":3,"routeId":"1:15","routeTextColor":"FFFFFF","interlineWithPreviousLeg":false,"tripBlockId":"32","headsign":"Terminus Chicoutimi","agencyId":"0","tripId":"1:218167","serviceDate":"20180402","from":{"name":"Place du Royaume (Saguenéens)","stopId":"1:1294","stopCode":"1294","lon":-71.057691,"lat":48.402355,"arrival":1522702139000,"departure":1522702140000,"zoneId":"NA","stopIndex":11,"stopSequence":12,"vertexType":"TRANSIT"},"to":{"name":"Jacques-Cartier / Tessier","stopId":"1:62","stopCode":"62","lon":-71.067531,"lat":48.426736,"arrival":1522703193000,"departure":1522703194000,"zoneId":"NA","stopIndex":37,"stopSequence":38,"vertexType":"TRANSIT"},"legGeometry":{"points":"eqlfHzmupLUxAm@nCcAlDeCvGmA|CUr@}@~A_@\\_DvCEZcA|@UP_@d@Yl@oBdFeCxG_CfGYVQXS\\dK|HlFZbC\\p@zA\\rB@hBiArG{BNw@FiG}@iDwAECcCcBo@y@sEeGe@o@qAa@m@MoB?C@}BZwAc@oA_Bs@gDCKZ{Di@QECc@_@sAkAoBwB_EcE{A_BoAmAk@o@cCaCkIkIaJaJUUwBaCj@wCjAsCzGoG_CoHL{D_@kAqD{CQr@iAcAy@w@L{@wAuA_B_B_EpLDh@NbBVvCIxBg@`Am@l@Sb@a@rAqDqDmEkE]a@kAqAU|@WnKG|DGxDOdPKvJU|F?XQlJC~@ChA","length":98},"routeShortName":"15","routeLongName":"Term. Chic / Costco","rentedBike":false,"transitLeg":true,"duration":1053.0,"steps":[]},{"startTime":1522703194000,"endTime":1522703410000,"departureDelay":0,"arrivalDelay":0,"realTime":false,"distance":275.751,"pathway":false,"mode":"WALK","route":"","agencyTimeZoneOffset":-14400000,"interlineWithPreviousLeg":false,"from":{"name":"Jacques-Cartier / Tessier","stopId":"1:62","stopCode":"62","lon":-71.067531,"lat":48.426736,"arrival":1522703193000,"departure":1522703194000,"zoneId":"NA","stopIndex":37,"stopSequence":38,"vertexType":"TRANSIT"},"to":{"name":"Destination","lon":-71.068732,"lat":48.424931,"arrival":1522703410000,"orig":"","vertexType":"NORMAL"},"legGeometry":{"points":"uiqfHbkwpLEnBC~AhAHz@F`CNB?tAJB?","length":9},"rentedBike":false,"transitLeg":false,"duration":216.0,"steps":[{"distance":76.392,"relativeDirection":"DEPART","streetName":"Rue Jacques-Cartier Est","absoluteDirection":"WEST","stayOn":false,"area":false,"bogusName":false,"lon":-71.0675380239516,"lat":48.42667414840684,"elevation":[]},{"distance":199.359,"relativeDirection":"LEFT","streetName":"Rue Sainte-Anne","absoluteDirection":"SOUTH","stayOn":false,"area":false,"bogusName":false,"lon":-71.0685709,"lat":48.426721,"elevation":[]}]}],"tooSloped":false},{"duration":1597,"startTime":1522702298000,"endTime":1522703895000,"walkTime":695,"transitTime":900,"waitingTime":2,"walkDistance":882.3791729284854,"walkLimitExceeded":false,"elevationLost":0.0,"elevationGained":0.0,"transfers":0,"legs":[{"startTime":1522702298000,"endTime":1522702499000,"departureDelay":0,"arrivalDelay":0,"realTime":false,"distance":250.65699999999998,"pathway":false,"mode":"WALK","route":"","agencyTimeZoneOffset":-14400000,"interlineWithPreviousLeg":false,"from":{"name":"Origin","lon":-71.056775,"lat":48.403727,"departure":1522702298000,"orig":"","vertexType":"NORMAL"},"to":{"name":"Place Royaume","stopId":"1:1801","stopCode":"1801","lon":-71.057017,"lat":48.405588,"arrival":1522702499000,"departure":1522702500000,"zoneId":"NA","stopIndex":10,"stopSequence":11,"vertexType":"TRANSIT"},"legGeometry":{"points":"a{lfHviupLEEWWSQ[[YWGGUCCCYU]Y[YYWq@tBa@zA","length":15},"rentedBike":false,"transitLeg":false,"duration":201.0,"steps":[{"distance":160.339,"relativeDirection":"DEPART","streetName":"service road","absoluteDirection":"NORTHEAST","stayOn":false,"area":false,"bogusName":false,"lon":-71.05707521889572,"lat":48.40385594353976,"elevation":[]},{"distance":90.318,"relativeDirection":"LEFT","streetName":"parking aisle","absoluteDirection":"NORTHWEST","stayOn":false,"area":false,"bogusName":true,"lon":-71.05600720000001,"lat":48.4050992,"elevation":[]}]},{"startTime":1522702500000,"endTime":1522703400000,"departureDelay":0,"arrivalDelay":0,"realTime":false,"distance":4188.036446582453,"pathway":false,"mode":"BUS","route":"175","agencyName":"Société de Transport du Saguenay","agencyUrl":"http://ville.saguenay.ca/fr/services-aux-citoyens/transport-sts","agencyTimeZoneOffset":-14400000,"routeColor":"FF00FF","routeType":3,"routeId":"1:175","routeTextColor":"FFFFFF","interlineWithPreviousLeg":false,"tripBlockId":"11","headsign":"Terminus Chicoutimi","agencyId":"0","tripId":"1:217482","serviceDate":"20180402","from":{"name":"Place Royaume","stopId":"1:1801","stopCode":"1801","lon":-71.057017,"lat":48.405588,"arrival":1522702499000,"departure":1522702500000,"zoneId":"NA","stopIndex":10,"stopSequence":11,"vertexType":"TRANSIT"},"to":{"name":"Terminus Chicoutimi","stopId":"1:1289","stopCode":"1289","lon":-71.066163,"lat":48.428677,"arrival":1522703400000,"departure":1522703401000,"zoneId":"NA","stopIndex":27,"stopSequence":28,"vertexType":"TRANSIT"},"legGeometry":{"points":"sfmfH`kupL_U_TcNgNcBcB{E`Jc@x@qG~@{BlAk@XgSrQqB_GAeFiEeEOt@gAeA_A_ATm@yAwAgBeBqDnL@nBF`@f@|C[dCuAfB]xAs@OmCmCmEkE]a@g@i@ZiGTmEl@oLaEe@cFk@?pH?tJDvBPjMB~Bo@PQDRbFKdGMhIOvIK|EQpHoCQEdC","length":51},"routeShortName":"175","routeLongName":"Term. Chic / Costco","rentedBike":false,"transitLeg":true,"duration":900.0,"steps":[]},{"startTime":1522703401000,"endTime":1522703895000,"departureDelay":0,"arrivalDelay":0,"realTime":false,"distance":631.6030000000001,"pathway":false,"mode":"WALK","route":"","agencyTimeZoneOffset":-14400000,"interlineWithPreviousLeg":false,"from":{"name":"Terminus Chicoutimi","stopId":"1:1289","stopCode":"1289","lon":-71.066163,"lat":48.428677,"arrival":1522703400000,"departure":1522703401000,"zoneId":"NA","stopIndex":27,"stopSequence":28,"vertexType":"TRANSIT"},"to":{"name":"Destination","lon":-71.068732,"lat":48.424931,"arrival":1522703895000,"orig":"","vertexType":"NORMAL"},"legGeometry":{"points":"{uqfHb~vpLbAJR@JDb@LrBHP@jCPrAFzBT^BPF@n@Ah@EfBEdBK~FB?tAJB?","length":20},"rentedBike":false,"transitLeg":false,"duration":494.0,"steps":[{"distance":374.48300000000006,"relativeDirection":"DEPART","streetName":"Rue Morin","absoluteDirection":"SOUTH","stayOn":false,"area":false,"bogusName":false,"lon":-71.0654590096484,"lat":48.428628638946556,"elevation":[]},{"distance":204.411,"relativeDirection":"RIGHT","streetName":"Rue Price Est","absoluteDirection":"WEST","stayOn":false,"area":false,"bogusName":false,"lon":-71.06598410000001,"lat":48.4252842,"elevation":[]},{"distance":52.709,"relativeDirection":"LEFT","streetName":"Rue Sainte-Anne","absoluteDirection":"SOUTH","stayOn":false,"area":false,"bogusName":false,"lon":-71.06874640000001,"lat":48.4254073,"elevation":[]}]}],"tooSloped":false},{"duration":1475,"startTime":1522703735000,"endTime":1522705210000,"walkTime":420,"transitTime":1053,"waitingTime":2,"walkDistance":532.3179548845736,"walkLimitExceeded":false,"elevationLost":0.0,"elevationGained":0.0,"transfers":0,"legs":[{"startTime":1522703735000,"endTime":1522703939000,"departureDelay":0,"arrivalDelay":0,"realTime":false,"distance":256.48499999999996,"pathway":false,"mode":"WALK","route":"","agencyTimeZoneOffset":-14400000,"interlineWithPreviousLeg":false,"from":{"name":"Origin","lon":-71.056775,"lat":48.403727,"departure":1522703735000,"orig":"","vertexType":"NORMAL"},"to":{"name":"Place du Royaume (Saguenéens)","stopId":"1:1294","stopCode":"1294","lon":-71.057691,"lat":48.402355,"arrival":1522703939000,"departure":1522703940000,"zoneId":"NA","stopIndex":11,"stopSequence":12,"vertexType":"TRANSIT"},"legGeometry":{"points":"a{lfHviupLRRXXr@p@XVXXb@`@h@`AZl@FLLi@`@eC","length":12},"rentedBike":false,"transitLeg":false,"duration":204.0,"steps":[{"distance":186.47699999999998,"relativeDirection":"DEPART","streetName":"service road","absoluteDirection":"SOUTHWEST","stayOn":false,"area":false,"bogusName":false,"lon":-71.05707521889572,"lat":48.40385594353976,"elevation":[]},{"distance":70.008,"relativeDirection":"LEFT","streetName":"Rue des Saguenéens","absoluteDirection":"SOUTHEAST","stayOn":false,"area":false,"bogusName":false,"lon":-71.0586019,"lat":48.4025327,"elevation":[]}]},{"startTime":1522703940000,"endTime":1522704993000,"departureDelay":0,"arrivalDelay":0,"realTime":false,"distance":5708.981892907111,"pathway":false,"mode":"BUS","route":"15","agencyName":"Société de Transport du Saguenay","agencyUrl":"http://ville.saguenay.ca/fr/services-aux-citoyens/transport-sts","agencyTimeZoneOffset":-14400000,"routeColor":"FF00FF","routeType":3,"routeId":"1:15","routeTextColor":"FFFFFF","interlineWithPreviousLeg":false,"tripBlockId":"30","headsign":"Terminus Chicoutimi","agencyId":"0","tripId":"1:218108","serviceDate":"20180402","from":{"name":"Place du Royaume (Saguenéens)","stopId":"1:1294","stopCode":"1294","lon":-71.057691,"lat":48.402355,"arrival":1522703939000,"departure":1522703940000,"zoneId":"NA","stopIndex":11,"stopSequence":12,"vertexType":"TRANSIT"},"to":{"name":"Jacques-Cartier / Tessier","stopId":"1:62","stopCode":"62","lon":-71.067531,"lat":48.426736,"arrival":1522704993000,"departure":1522704994000,"zoneId":"NA","stopIndex":37,"stopSequence":38,"vertexType":"TRANSIT"},"legGeometry":{"points":"eqlfHzmupLUxAm@nCcAlDeCvGmA|CUr@}@~A_@\\_DvCEZcA|@UP_@d@Yl@oBdFeCxG_CfGYVQXS\\dK|HlFZbC\\p@zA\\rB@hBiArG{BNw@FiG}@iDwAECcCcBo@y@sEeGe@o@qAa@m@MoB?C@}BZwAc@oA_Bs@gDCKZ{Di@QECc@_@sAkAoBwB_EcE{A_BoAmAk@o@cCaCkIkIaJaJUUwBaCj@wCjAsCzGoG_CoHL{D_@kAqD{CQr@iAcAy@w@L{@wAuA_B_B_EpLDh@NbBVvCIxBg@`Am@l@Sb@a@rAqDqDmEkE]a@kAqAU|@WnKG|DGxDOdPKvJU|F?XQlJC~@ChA","length":98},"routeShortName":"15","routeLongName":"Term. Chic / Costco","rentedBike":false,"transitLeg":true,"duration":1053.0,"steps":[]},{"startTime":1522704994000,"endTime":1522705210000,"departureDelay":0,"arrivalDelay":0,"realTime":false,"distance":275.751,"pathway":false,"mode":"WALK","route":"","agencyTimeZoneOffset":-14400000,"interlineWithPreviousLeg":false,"from":{"name":"Jacques-Cartier / Tessier","stopId":"1:62","stopCode":"62","lon":-71.067531,"lat":48.426736,"arrival":1522704993000,"departure":1522704994000,"zoneId":"NA","stopIndex":37,"stopSequence":38,"vertexType":"TRANSIT"},"to":{"name":"Destination","lon":-71.068732,"lat":48.424931,"arrival":1522705210000,"orig":"","vertexType":"NORMAL"},"legGeometry":{"points":"uiqfHbkwpLEnBC~AhAHz@F`CNB?tAJB?","length":9},"rentedBike":false,"transitLeg":false,"duration":216.0,"steps":[{"distance":76.392,"relativeDirection":"DEPART","streetName":"Rue Jacques-Cartier Est","absoluteDirection":"WEST","stayOn":false,"area":false,"bogusName":false,"lon":-71.0675380239516,"lat":48.42667414840684,"elevation":[]},{"distance":199.359,"relativeDirection":"LEFT","streetName":"Rue Sainte-Anne","absoluteDirection":"SOUTH","stayOn":false,"area":false,"bogusName":false,"lon":-71.0685709,"lat":48.426721,"elevation":[]}]}],"tooSloped":false}]},"debugOutput":{"precalculationTime":33,"pathCalculationTime":33,"pathTimes":[19,7,7],"renderingTime":1,"totalTime":67,"timedOut":false},"elevationMetadata":{"ellipsoidToGeoidDifference":-28.885904201182168,"geoidElevation":false}}