{"requestParameters":{"date":"2018/04/02","walkSpeed":"1.33","walkReluctance":"2.0","fromPlace":"48.412691,-71.06630099","maxWalkDistance":"3000","waitReluctance":"1.0","carSpeed":"33","numItineraries":"3","waitAtBeginningFactor":"0.4","mode":"TRANSIT,WALK","ignoreRealtimeUpdates":"false","stairsReluctance":"2.0","toPlace":"48.403727,-71.056775","time":"8:45:00"},"plan":{"date":1522673100000,"from":{"name":"Origin","lon":-71.06630099,"lat":48.412691,"orig":"","vertexType":"NORMAL"},"to":{"name":"Destination","lon":-71.056775,"lat":48.403727,"orig":"","vertexType":"NORMAL"},"itineraries":[{"duration":1314,"startTime":1522673100000,"endTime":1522674414000,"walkTime":1314,"transitTime":0,"waitingTime":0,"walkDistance":1700.6410150325603,"walkLimitExceeded":false,"elevationLost":0.0,"elevationGained":0.0,"transfers":0,"legs":[{"startTime":1522673100000,"endTime":1522674414000,"departureDelay":0,"arrivalDelay":0,"realTime":false,"distance":1700.4850000000004,"pathway":false,"mode":"WALK","route":"","agencyTimeZoneOffset":-14400000,"interlineWithPreviousLeg":false,"from":{"name":"Origin","lon":-71.06630099,"lat":48.412691,"departure":1522673100000,"orig":"","vertexType":"NORMAL"},"to":{"name":"Destination","lon":-71.056775,"lat":48.403727,"arrival":1522674414000,"orig":"","vertexType":"NORMAL"},"legGeometry":{"points":"konfHnfwpLBEtByElANbAFl@CCLLv@V|@~DfA`DcJbAcC~HnFPNl@}Az@eCfAwA?ABCbA_AHW`A_A`A}@V[t@_A`A{BfAoCxBwFJW@EFSlAsEGM[m@i@aAc@a@YYYWs@q@YYSS","length":41},"rentedBike":false,"transitLeg":false,"duration":1314.0,"steps":[{"distance":106.443,"relativeDirection":"DEPART","streetName":"Rue Georges-Vanier","absoluteDirection":"SOUTHEAST","stayOn":false,"area":false,"bogusName":false,"lon":-71.066793,"lat":48.41222,"elevation":[]},{"distance":270.66,"relativeDirection":"RIGHT","streetName":"bike path","absoluteDirection":"SOUTH","stayOn":false,"area":false,"bogusName":true,"lon":-71.0656757,"lat":48.4116147,"elevation":[]},{"distance":221.662,"relativeDirection":"LEFT","streetName":"Rue Don Bosco","absoluteDirection":"SOUTHEAST","stayOn":false,"area":false,"bogusName":false,"lon":-71.06679700000001,"lat":48.409527700000005,"elevation":[]},{"distance":210.232,"relativeDirection":"RIGHT","streetName":"service road","absoluteDirection":"SOUTHWEST","stayOn":false,"area":false,"bogusName":true,"lon":-71.064351,"lat":48.4083722,"elevation":[]},{"distance":705.011,"relativeDirection":"LEFT","streetName":"Rue des Saguenéens","absoluteDirection":"SOUTHEAST","stayOn":false,"area":false,"bogusName":false,"lon":-71.06563030000001,"lat":48.406683,"elevation":[]},{"distance":186.477,"relativeDirection":"LEFT","streetName":"service road","absoluteDirection":"NORTHEAST","stayOn":false,"area":false,"bogusName":true,"lon":-71.0586019,"lat":48.4025327,"elevation":[]}]}],"tooSloped":false},{"duration":927,"startTime":1522673698000,"endTime":1522674625000,"walkTime":325,"transitTime":600,"waitingTime":2,"walkDistance":409.897834583761,"walkLimitExceeded":false,"elevationLost":0.0,"elevationGained":0.0,"transfers":0,"legs":[{"startTime":1522673698000,"endTime":1522673819000,"departureDelay":0,"arrivalDelay":0,"realTime":false,"distance":153.329,"pathway":false,"mode":"WALK","route":"","agencyTimeZoneOffset":-14400000,"interlineWithPreviousLeg":false,"from":{"name":"Origin","lon":-71.06630099,"lat":48.412691,"departure":1522673698000,"orig":"","vertexType":"NORMAL"},"to":{"name":"École secondaire de l'Odyssé Dominique-Racine","stopId":"1:580","stopCode":"580","lon":-71.067703,"lat":48.412977,"arrival":1522673819000,"departure":1522673820000,"zoneId":"NA","stopIndex":12,"stopSequence":13,"vertexType":"TRANSIT"},"legGeometry":{"points":"konfHnfwpLyAdGMUs@m@","length":4},"rentedBike":false,"transitLeg":false,"duration":121.0,"steps":[{"distance":109.258,"relativeDirection":"DEPART","streetName":"Rue Georges-Vanier","absoluteDirection":"NORTHWEST","stayOn":false,"area":false,"bogusName":false,"lon":-71.066793,"lat":48.41222,"elevation":[]},{"distance":44.071,"relativeDirection":"RIGHT","streetName":"Rue Bégin","absoluteDirection":"NORTHEAST","stayOn":false,"area":false,"bogusName":false,"lon":-71.0681022,"lat":48.4126786,"elevation":[]}]},{"startTime":1522673820000,"endTime":1522674420000,"departureDelay":0,"arrivalDelay":0,"realTime":false,"distance":2510.5167971403876,"pathway":false,"mode":"BUS","route":"15","agencyName":"Société de Transport du Saguenay","agencyUrl":"http://ville.saguenay.ca/fr/services-aux-citoyens/transport-sts","agencyTimeZoneOffset":-14400000,"routeColor":"FF00FF","routeType":3,"routeId":"1:15","routeTextColor":"FFFFFF","interlineWithPreviousLeg":false,"tripBlockId":"31","headsign":"Talbot / Barrette","agencyId":"0","tripId":"1:218126","serviceDate":"20180402","from":{"name":"École secondaire de l'Odyssé Dominique-Racine","stopId":"1:580","stopCode":"580","lon":-71.067703,"lat":48.412977,"arrival":1522673819000,"departure":1522673820000,"zoneId":"NA","stopIndex":12,"stopSequence":13,"vertexType":"TRANSIT"},"to":{"name":"Place du Royaume (Saguenéens)","stopId":"1:1294","stopCode":"1294","lon":-71.057691,"lat":48.402355,"arrival":1522674420000,"departure":1522674421000,"zoneId":"NA","stopIndex":24,"stopSequence":25,"vertexType":"TRANSIT"},"legGeometry":{"points":"ctnfHhlwpLdAfALzDNzDrAdBrEKvBEbCv@d@TvFlC|DlBpMlGrB`AM}@hAwEC{B]oBiBmBsH_@_K{H`EgIvCaGfEoItDsH~DeItC{FnBoL","length":27},"routeShortName":"15","routeLongName":"Term. Chic / Costco","rentedBike":false,"transitLeg":true,"duration":600.0,"steps":[]},{"startTime":1522674421000,"endTime":1522674625000,"departureDelay":0,"arrivalDelay":0,"realTime":false,"distance":256.485,"pathway":false,"mode":"WALK","route":"","agencyTimeZoneOffset":-14400000,"interlineWithPreviousLeg":false,"from":{"name":"Place du Royaume (Saguenéens)","stopId":"1:1294","stopCode":"1294","lon":-71.057691,"lat":48.402355,"arrival":1522674420000,"departure":1522674421000,"zoneId":"NA","stopIndex":24,"stopSequence":25,"vertexType":"TRANSIT"},"to":{"name":"Destination","lon":-71.056775,"lat":48.403727,"arrival":1522674625000,"orig":"","vertexType":"NORMAL"},"legGeometry":{"points":"iqlfHxmupLa@dCMh@GM[m@i@aAc@a@YYYWs@q@YYSS","length":12},"rentedBike":false,"transitLeg":false,"duration":204.0,"steps":[{"distance":70.008,"relativeDirection":"DEPART","streetName":"Rue des Saguenéens","absoluteDirection":"WEST","stayOn":false,"area":false,"bogusName":false,"lon":-71.05772328170832,"lat":48.402297506554895,"elevation":[]},{"distance":186.477,"relativeDirection":"RIGHT","streetName":"service road","absoluteDirection":"NORTHEAST","stayOn":false,"area":false,"bogusName":true,"lon":-71.0586019,"lat":48.4025327,"elevation":[]}]}],"tooSloped":false},{"duration":927,"startTime":1522675498000,"endTime":1522676425000,"walkTime":325,"transitTime":600,"waitingTime":2,"walkDistance":409.897834583761,"walkLimitExceeded":false,"elevationLost":0.0,"elevationGained":0.0,"transfers":0,"legs":[{"startTime":1522675498000,"endTime":1522675619000,"departureDelay":0,"arrivalDelay":0,"realTime":false,"distance":153.329,"pathway":false,"mode":"WALK","route":"","agencyTimeZoneOffset":-14400000,"interlineWithPreviousLeg":false,"from":{"name":"Origin","lon":-71.06630099,"lat":48.412691,"departure":1522675498000,"orig":"","vertexType":"NORMAL"},"to":{"name":"École secondaire de l'Odyssé Dominique-Racine","stopId":"1:580","stopCode":"580","lon":-71.067703,"lat":48.412977,"arrival":1522675619000,"departure":1522675620000,"zoneId":"NA","stopIndex":12,"stopSequence":13,"vertexType":"TRANSIT"},"legGeometry":{"points":"konfHnfwpLyAdGMUs@m@","length":4},"rentedBike":false,"transitLeg":false,"duration":121.0,"steps":[{"distance":109.258,"relativeDirection":"DEPART","streetName":"Rue Georges-Vanier","absoluteDirection":"NORTHWEST","stayOn":false,"area":false,"bogusName":false,"lon":-71.066793,"lat":48.41222,"elevation":[]},{"distance":44.071,"relativeDirection":"RIGHT","streetName":"Rue Bégin","absoluteDirection":"NORTHEAST","stayOn":false,"area":false,"bogusName":false,"lon":-71.0681022,"lat":48.4126786,"elevation":[]}]},{"startTime":1522675620000,"endTime":1522676220000,"departureDelay":0,"arrivalDelay":0,"realTime":false,"distance":2510.5167971403876,"pathway":false,"mode":"BUS","route":"15","agencyName":"Société de Transport du Saguenay","agencyUrl":"http://ville.saguenay.ca/fr/services-aux-citoyens/transport-sts","agencyTimeZoneOffset":-14400000,"routeColor":"FF00FF","routeType":3,"routeId":"1:15","routeTextColor":"FFFFFF","interlineWithPreviousLeg":false,"tripBlockId":"33","headsign":"Talbot / Barrette","agencyId":"0","tripId":"1:218177","serviceDate":"20180402","from":{"name":"École secondaire de l'Odyssé Dominique-Racine","stopId":"1:580","stopCode":"580","lon":-71.067703,"lat":48.412977,"arrival":1522675619000,"departure":1522675620000,"zoneId":"NA","stopIndex":12,"stopSequence":13,"vertexType":"TRANSIT"},"to":{"name":"Place du Royaume (Saguenéens)","stopId":"1:1294","stopCode":"1294","lon":-71.057691,"lat":48.402355,"arrival":1522676220000,"departure":1522676221000,"zoneId":"NA","stopIndex":24,"stopSequence":25,"vertexType":"TRANSIT"},"legGeometry":{"points":"ctnfHhlwpLdAfALzDNzDrAdBrEKvBEbCv@d@TvFlC|DlBpMlGrB`AM}@hAwEC{B]oBiBmBsH_@_K{H`EgIvCaGfEoItDsH~DeItC{FnBoL","length":27},"routeShortName":"15","routeLongName":"Term. Chic / Costco","rentedBike":false,"transitLeg":true,"duration":600.0,"steps":[]},{"startTime":1522676221000,"endTime":1522676425000,"departureDelay":0,"arrivalDelay":0,"realTime":false,"distance":256.485,"pathway":false,"mode":"WALK","route":"","agencyTimeZoneOffset":-14400000,"interlineWithPreviousLeg":false,"from":{"name":"Place du Royaume (Saguenéens)","stopId":"1:1294","stopCode":"1294","lon":-71.057691,"lat":48.402355,"arrival":1522676220000,"departure":1522676221000,"zoneId":"NA","stopIndex":24,"stopSequence":25,"vertexType":"TRANSIT"},"to":{"name":"Destination","lon":-71.056775,"lat":48.403727,"arrival":1522676425000,"orig":"","vertexType":"NORMAL"},"legGeometry":{"points":"iqlfHxmupLa@dCMh@GM[m@i@aAc@a@YYYWs@q@YYSS","length":12},"rentedBike":false,"transitLeg":false,"duration":204.0,"steps":[{"distance":70.008,"relativeDirection":"DEPART","streetName":"Rue des Saguenéens","absoluteDirection":"WEST","stayOn":false,"area":false,"bogusName":false,"lon":-71.05772328170832,"lat":48.402297506554895,"elevation":[]},{"distance":186.477,"relativeDirection":"RIGHT","streetName":"service road","absoluteDirection":"NORTHEAST","stayOn":false,"area":false,"bogusName":true,"lon":-71.0586019,"lat":48.4025327,"elevation":[]}]}],"tooSloped":false}]},"debugOutput":{"precalculationTime":33,"pathCalculationTime":30,"pathTimes":[19,4,7],"renderingTime":0,"totalTime":63,"timedOut":false},"elevationMetadata":{"ellipsoidToGeoidDifference":-28.885904201182168,"geoidElevation":false}}