{"requestParameters":{"date":"2018/04/02","walkSpeed":"1.33","walkReluctance":"2.0","fromPlace":"48.419401,-71.05914799","maxWalkDistance":"3000","waitReluctance":"1.0","carSpeed":"33","numItineraries":"3","waitAtBeginningFactor":"0.4","mode":"TRANSIT,WALK","ignoreRealtimeUpdates":"false","stairsReluctance":"2.0","toPlace":"48.424931,-71.068732","time":"21:30:00"},"plan":{"date":1522719000000,"from":{"name":"Origin","lon":-71.05914799,"lat":48.419401,"orig":"","vertexType":"NORMAL"},"to":{"name":"Destination","lon":-71.068732,"lat":48.424931,"orig":"","vertexType":"NORMAL"},"itineraries":[{"duration":1088,"startTime":1522719000000,"endTime":1522720088000,"walkTime":1088,"transitTime":0,"waitingTime":0,"walkDistance":1403.6371052585725,"walkLimitExceeded":false,"elevationLost":0.0,"elevationGained":0.0,"transfers":0,"legs":[{"startTime":1522719000000,"endTime":1522720088000,"departureDelay":0,"arrivalDelay":0,"realTime":false,"distance":1403.495,"pathway":false,"mode":"WALK","route":"","agencyTimeZoneOffset":-14400000,"interlineWithPreviousLeg":false,"from":{"name":"Origin","lon":-71.05914799,"lat":48.419401,"departure":1522719000000,"orig":"","vertexType":"NORMAL"},"to":{"name":"Destination","lon":-71.068732,"lat":48.424931,"arrival":1522720088000,"orig":"","vertexType":"NORMAL"},"legGeometry":{"points":"uzofHdxupL]fAkCqBJeAc@aBu@fAi@bBm@tCCh@KpBm@hQAb@An@EtBCj@QfHMAM?qBCs@?O?}@EcAIw@EWnLExBm@Eg@ESAYCkCO[C","length":32},"rentedBike":false,"transitLeg":false,"duration":1088.0,"steps":[{"distance":188.656,"relativeDirection":"DEPART","streetName":"service road","absoluteDirection":"NORTHWEST","stayOn":false,"area":false,"bogusName":false,"lon":-71.05938841130246,"lat":48.41915106654826,"elevation":[]},{"distance":621.7090000000001,"relativeDirection":"LEFT","streetName":"Boulevard de l'Université","absoluteDirection":"NORTHWEST","stayOn":false,"area":false,"bogusName":false,"lon":-71.0583302,"lat":48.420123200000006,"elevation":[]},{"distance":220.878,"relativeDirection":"RIGHT","streetName":"Rue Morin","absoluteDirection":"NORTH","stayOn":false,"area":false,"bogusName":false,"lon":-71.06636540000001,"lat":48.4213,"elevation":[]},{"distance":205.195,"relativeDirection":"LEFT","streetName":"Rue Saint-Luc","absoluteDirection":"WEST","stayOn":false,"area":false,"bogusName":false,"lon":-71.0662247,"lat":48.423283100000006,"elevation":[]},{"distance":167.057,"relativeDirection":"RIGHT","streetName":"Rue Sainte-Anne","absoluteDirection":"NORTH","stayOn":false,"area":false,"bogusName":false,"lon":-71.0689957,"lat":48.423437500000006,"elevation":[]}]}],"tooSloped":false},{"duration":1196,"startTime":1522720380000,"endTime":1522721576000,"walkTime":994,"transitTime":200,"waitingTime":2,"walkDistance":1270.9160601447595,"walkLimitExceeded":false,"elevationLost":0.0,"elevationGained":0.0,"transfers":0,"legs":[{"startTime":1522720380000,"endTime":1522721011000,"departureDelay":0,"arrivalDelay":0,"realTime":false,"distance":812.2879999999999,"pathway":false,"mode":"WALK","route":"","agencyTimeZoneOffset":-14400000,"interlineWithPreviousLeg":false,"from":{"name":"Origin","lon":-71.05914799,"lat":48.419401,"departure":1522720380000,"orig":"","vertexType":"NORMAL"},"to":{"name":"Cégep de Chicoutimi (Bégin)","stopId":"1:66","stopCode":"66","lon":-71.056314,"lat":48.424377,"arrival":1522721011000,"departure":1522721012000,"zoneId":"NA","stopIndex":32,"stopSequence":33,"vertexType":"TRANSIT"},"legGeometry":{"points":"uzofHdxupL]fAkCqBJeAc@aBu@fAi@bBm@tCYYSQ{B{BcAeAKIeAkAWYiAgAaAcASOWWIII_@sAkAaA_AKK","length":24},"rentedBike":false,"transitLeg":false,"duration":631.0,"steps":[{"distance":188.656,"relativeDirection":"DEPART","streetName":"service road","absoluteDirection":"NORTHWEST","stayOn":false,"area":false,"bogusName":false,"lon":-71.05938841130246,"lat":48.41915106654826,"elevation":[]},{"distance":145.001,"relativeDirection":"LEFT","streetName":"Boulevard de l'Université","absoluteDirection":"NORTHWEST","stayOn":false,"area":false,"bogusName":false,"lon":-71.0583302,"lat":48.420123200000006,"elevation":[]},{"distance":359.598,"relativeDirection":"RIGHT","streetName":"Rue Bégin","absoluteDirection":"NORTHEAST","stayOn":false,"area":false,"bogusName":false,"lon":-71.0599459,"lat":48.4208319,"elevation":[]},{"distance":12.842,"relativeDirection":"SLIGHTLY_RIGHT","streetName":"path","absoluteDirection":"NORTHEAST","stayOn":false,"area":false,"bogusName":true,"lon":-71.0572466,"lat":48.423523700000004,"elevation":[]},{"distance":106.191,"relativeDirection":"SLIGHTLY_LEFT","streetName":"sidewalk","absoluteDirection":"NORTHEAST","stayOn":true,"area":false,"bogusName":true,"lon":-71.057089,"lat":48.4235727,"elevation":[]}]},{"startTime":1522721012000,"endTime":1522721212000,"departureDelay":0,"arrivalDelay":0,"realTime":false,"distance":905.2119096614193,"pathway":false,"mode":"BUS","route":"14","agencyName":"Société de Transport du Saguenay","agencyUrl":"http://ville.saguenay.ca/fr/services-aux-citoyens/transport-sts","agencyTimeZoneOffset":-14400000,"routeColor":"C0C000","routeType":3,"routeId":"1:14","routeTextColor":"000000","interlineWithPreviousLeg":false,"tripBlockId":"33","headsign":"Terminus Chicoutimi","agencyId":"0","tripId":"1:218202","serviceDate":"20180402","from":{"name":"Cégep de Chicoutimi (Bégin)","stopId":"1:66","stopCode":"66","lon":-71.056314,"lat":48.424377,"arrival":1522721011000,"departure":1522721012000,"zoneId":"NA","stopIndex":32,"stopSequence":33,"vertexType":"TRANSIT"},"to":{"name":"Jacques-Cartier / Morin","stopId":"1:1930","stopCode":"1930","lon":-71.065007,"lat":48.426603,"arrival":1522721212000,"departure":1522721213000,"zoneId":"NA","stopIndex":36,"stopSequence":37,"vertexType":"TRANSIT"},"legGeometry":{"points":"k{pfH`eupLmFgFa@_@w@s@CfAOrBEtAGbA?jBQtC?|@ExKMdIG~EUnL","length":15},"routeShortName":"14","routeLongName":"Coopérative","rentedBike":false,"transitLeg":true,"duration":200.0,"steps":[]},{"startTime":1522721213000,"endTime":1522721576000,"departureDelay":0,"arrivalDelay":0,"realTime":false,"distance":458.454,"pathway":false,"mode":"WALK","route":"","agencyTimeZoneOffset":-14400000,"interlineWithPreviousLeg":false,"from":{"name":"Jacques-Cartier / Morin","stopId":"1:1930","stopCode":"1930","lon":-71.065007,"lat":48.426603,"arrival":1522721212000,"departure":1522721213000,"zoneId":"NA","stopIndex":36,"stopSequence":37,"vertexType":"TRANSIT"},"to":{"name":"Destination","lon":-71.068732,"lat":48.424931,"arrival":1522721576000,"orig":"","vertexType":"NORMAL"},"legGeometry":{"points":"{hqfHj{vpLEvCrAFzBT^BPF@n@Ah@EfBEdBK~FB?tAJB?","length":14},"rentedBike":false,"transitLeg":false,"duration":363.0,"steps":[{"distance":56.564,"relativeDirection":"DEPART","streetName":"Rue Jacques-Cartier Est","absoluteDirection":"WEST","stayOn":false,"area":false,"bogusName":false,"lon":-71.06501225432459,"lat":48.42654615659386,"elevation":[]},{"distance":144.77,"relativeDirection":"LEFT","streetName":"Rue Morin","absoluteDirection":"SOUTH","stayOn":false,"area":false,"bogusName":false,"lon":-71.0657774,"lat":48.426577300000005,"elevation":[]},{"distance":204.411,"relativeDirection":"RIGHT","streetName":"Rue Price Est","absoluteDirection":"WEST","stayOn":false,"area":false,"bogusName":false,"lon":-71.06598410000001,"lat":48.4252842,"elevation":[]},{"distance":52.709,"relativeDirection":"LEFT","streetName":"Rue Sainte-Anne","absoluteDirection":"SOUTH","stayOn":false,"area":false,"bogusName":false,"lon":-71.06874640000001,"lat":48.4254073,"elevation":[]}]}],"tooSloped":false}]},"debugOutput":{"precalculationTime":41,"pathCalculationTime":36,"pathTimes":[18,10,8],"renderingTime":0,"totalTime":77,"timedOut":false},"elevationMetadata":{"ellipsoidToGeoidDifference":-28.885904201182168,"geoidElevation":false}}