{"requestParameters":{"date":"2018/04/02","walkSpeed":"1.33","walkReluctance":"2.0","fromPlace":"48.428889,-71.046113","maxWalkDistance":"3000","waitReluctance":"1.0","carSpeed":"33","numItineraries":"3","waitAtBeginningFactor":"0.4","mode":"TRANSIT,WALK","ignoreRealtimeUpdates":"false","stairsReluctance":"2.0","toPlace":"48.386625,-71.13219","time":"16:0:00"},"plan":{"date":1522699200000,"from":{"name":"Origin","lon":-71.046113,"lat":48.428889,"orig":"","vertexType":"NORMAL"},"to":{"name":"Destination","lon":-71.13219,"lat":48.386625,"orig":"","vertexType":"NORMAL"},"itineraries":[{"duration":2470,"startTime":1522699442000,"endTime":1522701912000,"walkTime":610,"transitTime":1618,"waitingTime":242,"walkDistance":796.4265864650494,"walkLimitExceeded":false,"elevationLost":0.0,"elevationGained":0.0,"transfers":1,"legs":[{"startTime":1522699442000,"endTime":1522699621000,"departureDelay":0,"arrivalDelay":0,"realTime":false,"distance":230.994,"pathway":false,"mode":"WALK","route":"","agencyTimeZoneOffset":-14400000,"interlineWithPreviousLeg":false,"from":{"name":"Origin","lon":-71.046113,"lat":48.428889,"departure":1522699442000,"orig":"","vertexType":"NORMAL"},"to":{"name":"boul. Saguenay / Bon-Conseil","stopId":"1:1990","stopCode":"1990","lon":-71.043002,"lat":48.429311,"arrival":1522699621000,"departure":1522699622000,"zoneId":"NA","stopIndex":30,"stopSequence":31,"vertexType":"TRANSIT"},"legGeometry":{"points":"}{qfHbespL?WDmAB[PuBHkAB[Dy@DqA@q@@}@@M","length":12},"rentedBike":false,"transitLeg":false,"duration":179.0,"steps":[{"distance":184.47,"relativeDirection":"DEPART","streetName":"Rue Racine Est","absoluteDirection":"EAST","stayOn":false,"area":false,"bogusName":false,"lon":-71.04609506966572,"lat":48.42959744359158,"elevation":[]},{"distance":46.524,"relativeDirection":"CONTINUE","streetName":"Boulevard du Saguenay Est","absoluteDirection":"EAST","stayOn":false,"area":false,"bogusName":false,"lon":-71.04363190000001,"lat":48.4293294,"elevation":[]}]},{"startTime":1522699622000,"endTime":1522699860000,"departureDelay":0,"arrivalDelay":0,"realTime":false,"distance":1722.6244316128991,"pathway":false,"mode":"BUS","route":"12","agencyName":"Société de Transport du Saguenay","agencyUrl":"http://ville.saguenay.ca/fr/services-aux-citoyens/transport-sts","agencyTimeZoneOffset":-14400000,"routeColor":"556B2F","routeType":3,"routeId":"1:12","routeTextColor":"FFFFFF","interlineWithPreviousLeg":false,"tripBlockId":"29","headsign":"Terminus Chicoutimi","agencyId":"0","tripId":"1:218070","serviceDate":"20180402","from":{"name":"boul. Saguenay / Bon-Conseil","stopId":"1:1990","stopCode":"1990","lon":-71.043002,"lat":48.429311,"arrival":1522699621000,"departure":1522699622000,"zoneId":"NA","stopIndex":30,"stopSequence":31,"vertexType":"TRANSIT"},"to":{"name":"Terminus Chicoutimi","stopId":"1:1289","stopCode":"1289","lon":-71.066163,"lat":48.428677,"arrival":1522699860000,"departure":1522700100000,"zoneId":"NA","stopIndex":33,"stopSequence":34,"vertexType":"TRANSIT"},"legGeometry":{"points":"q{qfH~qrpLPvHsCrMFxf@|ApJj@nDDl]BvZdCXJhC","length":10},"routeShortName":"12","routeLongName":"Rivière du Moulin","rentedBike":false,"transitLeg":true,"duration":238.0,"steps":[]},{"startTime":1522700100000,"endTime":1522701480000,"departureDelay":0,"arrivalDelay":0,"realTime":false,"distance":10050.236521205601,"pathway":false,"mode":"BUS","route":"11","agencyName":"Société de Transport du Saguenay","agencyUrl":"http://ville.saguenay.ca/fr/services-aux-citoyens/transport-sts","agencyTimeZoneOffset":-14400000,"routeColor":"FF0000","routeType":3,"routeId":"1:11","routeTextColor":"FFFFFF","interlineWithPreviousLeg":false,"tripBlockId":"37","headsign":"Boul.Royaume/St-Pierre","agencyId":"0","tripId":"1:218322","serviceDate":"20180402","from":{"name":"Terminus Chicoutimi","stopId":"1:1289","stopCode":"1289","lon":-71.066163,"lat":48.428677,"arrival":1522699860000,"departure":1522700100000,"zoneId":"NA","stopIndex":0,"stopSequence":1,"vertexType":"TRANSIT"},"to":{"name":"boul. Royaume / St-Pierre","stopId":"1:1922","stopCode":"1922","lon":-71.129819,"lat":48.391404,"arrival":1522701480000,"departure":1522701481000,"zoneId":"NA","stopIndex":31,"stopSequence":32,"vertexType":"TRANSIT"},"legGeometry":{"points":"evqfHzcwpLk@?UhKfIh@dKp@GnDIfDOtEE~@Ff@x@rEF~@CbAALO~ADRNJXBr@DfGRPBPJLN@@FPFTBX?TE`BhBR@?J@NELKFOlAiDL[bA`AfIjIbGdGzDzD`A~An@`ApApBpClEvJrOR\\bAfBLa@t@]LjAVvAVbAVv@^bAXj@b@t@xEtGh@r@n@x@FDjA|AlBpCnJ|NNTX`@V`@eCtHpFjH{FhPcB|Ft@|CEAdCnEdHKrBz@lGiQ|CyI~IrJtAzAmKrWsE`LzJjL|P}d@Ri@hCpEpBdCHJzPrR_AhC}Ppd@KZkDxJq@`CyGfZOl@fNzIJ@HAHIDI@CnNco@vE}Sh@kCb@oCXyBTuAFSBMl@iBlHjJxEtGPRbBdBp@r@xDpDrL`LlAtAiBdFOd@oCrH}JnXY~@GRU~@[fB_@hCIv@KnAIpAGlAAPA~A?lBJzDRxEB~@DzB","length":139},"routeShortName":"11","routeLongName":"Chic/Faubourg via St-Paul","rentedBike":false,"transitLeg":true,"duration":1380.0,"steps":[]},{"startTime":1522701481000,"endTime":1522701912000,"departureDelay":0,"arrivalDelay":0,"realTime":false,"distance":565.398,"pathway":false,"mode":"WALK","route":"","agencyTimeZoneOffset":-14400000,"interlineWithPreviousLeg":false,"from":{"name":"boul. Royaume / St-Pierre","stopId":"1:1922","stopCode":"1922","lon":-71.129819,"lat":48.391404,"arrival":1522701480000,"departure":1522701481000,"zoneId":"NA","stopIndex":31,"stopSequence":32,"vertexType":"TRANSIT"},"to":{"name":"Destination","lon":-71.13219,"lat":48.386625,"arrival":1522701912000,"orig":"","vertexType":"NORMAL"},"legGeometry":{"points":"uljfHjpcqL@n@?TTDPB\\Dp@Bh@DlATrAV~A`@`Br@`Bt@p@ZtAb@~Ah@ZHx@LD?","length":19},"rentedBike":false,"transitLeg":false,"duration":431.0,"steps":[{"distance":25.659,"relativeDirection":"DEPART","streetName":"Boulevard du Royaume Ouest","absoluteDirection":"WEST","stayOn":false,"area":false,"bogusName":false,"lon":-71.12981366448275,"lat":48.39131535185243,"elevation":[]},{"distance":539.739,"relativeDirection":"LEFT","streetName":"Rang Saint-Pierre","absoluteDirection":"SOUTH","stayOn":false,"area":false,"bogusName":false,"lon":-71.1301609,"lat":48.3913062,"elevation":[]}]}],"tooSloped":false},{"duration":2778,"startTime":1522699854000,"endTime":1522702632000,"walkTime":933,"transitTime":1843,"waitingTime":2,"walkDistance":1219.3487443577485,"walkLimitExceeded":false,"elevationLost":0.0,"elevationGained":0.0,"transfers":0,"legs":[{"startTime":1522699854000,"endTime":1522700356000,"departureDelay":0,"arrivalDelay":0,"realTime":false,"distance":653.8530000000001,"pathway":false,"mode":"WALK","route":"","agencyTimeZoneOffset":-14400000,"interlineWithPreviousLeg":false,"from":{"name":"Origin","lon":-71.046113,"lat":48.428889,"departure":1522699854000,"orig":"","vertexType":"NORMAL"},"to":{"name":"Hôtel-Dieu / Séminaire","stopId":"1:341","stopCode":"341","lon":-71.05125,"lat":48.42738,"arrival":1522700356000,"departure":1522700357000,"zoneId":"NA","stopIndex":5,"stopSequence":6,"vertexType":"TRANSIT"},"legGeometry":{"points":"}{qfHbespL?H?|@?ZAzA?jDAjC?f@AtHBp@Hl@l@bBl@v@NPf@|@TEVEdBWp@Mb@G^M@sA","length":22},"rentedBike":false,"transitLeg":false,"duration":502.0,"steps":[{"distance":471.723,"relativeDirection":"DEPART","streetName":"Rue Racine Est","absoluteDirection":"WEST","stayOn":false,"area":false,"bogusName":false,"lon":-71.04609506966572,"lat":48.42959744359158,"elevation":[]},{"distance":151.044,"relativeDirection":"LEFT","streetName":"Rue du Séminaire","absoluteDirection":"SOUTH","stayOn":false,"area":false,"bogusName":false,"lon":-71.0520228,"lat":48.4288171,"elevation":[]},{"distance":31.086,"relativeDirection":"LEFT","streetName":"Rue de l'Hôtel-Dieu","absoluteDirection":"EAST","stayOn":false,"area":false,"bogusName":false,"lon":-71.05166870000001,"lat":48.42748,"elevation":[]}]},{"startTime":1522700357000,"endTime":1522701720000,"departureDelay":0,"arrivalDelay":0,"realTime":false,"distance":7246.15616634882,"pathway":false,"mode":"BUS","route":"175","agencyName":"Société de Transport du Saguenay","agencyUrl":"http://ville.saguenay.ca/fr/services-aux-citoyens/transport-sts","agencyTimeZoneOffset":-14400000,"routeColor":"FF00FF","routeType":3,"routeId":"1:175","routeTextColor":"FFFFFF","interlineWithPreviousLeg":false,"tripBlockId":"7","headsign":"Costco","agencyId":"0","tripId":"1:217340","serviceDate":"20180402","from":{"name":"Hôtel-Dieu / Séminaire","stopId":"1:341","stopCode":"341","lon":-71.05125,"lat":48.42738,"arrival":1522700356000,"departure":1522700357000,"zoneId":"NA","stopIndex":5,"stopSequence":6,"vertexType":"TRANSIT"},"to":{"name":"COSTCO","stopId":"1:1710","stopCode":"1710","lon":-71.085767,"lat":48.382333,"arrival":1522701720000,"departure":1522701900000,"zoneId":"NA","stopIndex":30,"stopSequence":31,"vertexType":"TRANSIT"},"legGeometry":{"points":"gnqfHhetpL@iFbEf@xEj@iCtYp@r@z@`ABBvHtHXRx@l@VwAvAgB\\qBIuAC]g@yEzDuLbBbBvAxAMx@|@v@`A~@Xw@~D~DPxFZtA~ApE`N{LpFmEb@[ROl@[vDQXKfA[|@q@fAsBlEmMr@sBhCsKz@dAjB|@dM`GzCvAXrCr@~Gx@]PEr@ObACn@FrBb@|@Ch@Kx@U~HsB^KZ|DJpII~Fa@rFUzBi@bDUxAm@nCcAlDM^RTfD`DjF`FjCrCrAvAbCfDjIfMdAzAfFpHd@n@nC`DlXv[b@f@mCtHv@v@p@r@_@p@uAcBjDoJhAzApBrBrFvGjDdEbD|DZb@~DrEbDfDrA~ApLbNpG|GyCtHwBcC","length":100},"routeShortName":"175","routeLongName":"Term. Chic / Costco","rentedBike":false,"transitLeg":true,"duration":1363.0,"steps":[]},{"startTime":1522701900000,"endTime":1522702200000,"departureDelay":0,"arrivalDelay":0,"realTime":false,"distance":3486.4253948114783,"pathway":false,"mode":"BUS","route":"2","agencyName":"Société de Transport du Saguenay","agencyUrl":"http://ville.saguenay.ca/fr/services-aux-citoyens/transport-sts","agencyTimeZoneOffset":-14400000,"routeColor":"FF0000","routeType":3,"routeId":"1:2","routeTextColor":"FFFFFF","interlineWithPreviousLeg":true,"tripBlockId":"7","headsign":"Terminus Jonquière","agencyId":"0","tripId":"1:217341","serviceDate":"20180402","from":{"name":"COSTCO","stopId":"1:1710","stopCode":"1710","lon":-71.085767,"lat":48.382333,"arrival":1522701720000,"departure":1522701900000,"zoneId":"NA","stopIndex":0,"stopSequence":1,"vertexType":"TRANSIT"},"to":{"name":"boul. Royaume / St-Pierre","stopId":"1:1922","stopCode":"1922","lon":-71.129819,"lat":48.391404,"arrival":1522702200000,"departure":1522702201000,"zoneId":"NA","stopIndex":7,"stopSequence":8,"vertexType":"TRANSIT"},"legGeometry":{"points":"wthfHn}zpLeLkMxCaIbPzPkL|[eB~GwBlIa@bXIbQO`^aBhTiBlNUfBiI~ZeHzQeFxMqDtKAJ}ApJM~EWhIb@`N","length":22},"routeShortName":"2","routeLongName":"Chic/Jonq via Boul. Royaume","rentedBike":false,"transitLeg":true,"duration":300.0,"steps":[]},{"startTime":1522702201000,"endTime":1522702632000,"departureDelay":0,"arrivalDelay":0,"realTime":false,"distance":565.398,"pathway":false,"mode":"WALK","route":"","agencyTimeZoneOffset":-14400000,"interlineWithPreviousLeg":false,"from":{"name":"boul. Royaume / St-Pierre","stopId":"1:1922","stopCode":"1922","lon":-71.129819,"lat":48.391404,"arrival":1522702200000,"departure":1522702201000,"zoneId":"NA","stopIndex":7,"stopSequence":8,"vertexType":"TRANSIT"},"to":{"name":"Destination","lon":-71.13219,"lat":48.386625,"arrival":1522702632000,"orig":"","vertexType":"NORMAL"},"legGeometry":{"points":"uljfHjpcqL@n@?TTDPB\\Dp@Bh@DlATrAV~A`@`Br@`Bt@p@ZtAb@~Ah@ZHx@LD?","length":19},"rentedBike":false,"transitLeg":false,"duration":431.0,"steps":[{"distance":25.659,"relativeDirection":"DEPART","streetName":"Boulevard du Royaume Ouest","absoluteDirection":"WEST","stayOn":false,"area":false,"bogusName":false,"lon":-71.12981366448275,"lat":48.39131535185243,"elevation":[]},{"distance":539.739,"relativeDirection":"LEFT","streetName":"Rang Saint-Pierre","absoluteDirection":"SOUTH","stayOn":false,"area":false,"bogusName":false,"lon":-71.1301609,"lat":48.3913062,"elevation":[]}]}],"tooSloped":false},{"duration":2470,"startTime":1522701242000,"endTime":1522703712000,"walkTime":610,"transitTime":1618,"waitingTime":242,"walkDistance":796.4265864650494,"walkLimitExceeded":false,"elevationLost":0.0,"elevationGained":0.0,"transfers":1,"legs":[{"startTime":1522701242000,"endTime":1522701421000,"departureDelay":0,"arrivalDelay":0,"realTime":false,"distance":230.994,"pathway":false,"mode":"WALK","route":"","agencyTimeZoneOffset":-14400000,"interlineWithPreviousLeg":false,"from":{"name":"Origin","lon":-71.046113,"lat":48.428889,"departure":1522701242000,"orig":"","vertexType":"NORMAL"},"to":{"name":"boul. Saguenay / Bon-Conseil","stopId":"1:1990","stopCode":"1990","lon":-71.043002,"lat":48.429311,"arrival":1522701421000,"departure":1522701422000,"zoneId":"NA","stopIndex":30,"stopSequence":31,"vertexType":"TRANSIT"},"legGeometry":{"points":"}{qfHbespL?WDmAB[PuBHkAB[Dy@DqA@q@@}@@M","length":12},"rentedBike":false,"transitLeg":false,"duration":179.0,"steps":[{"distance":184.47,"relativeDirection":"DEPART","streetName":"Rue Racine Est","absoluteDirection":"EAST","stayOn":false,"area":false,"bogusName":false,"lon":-71.04609506966572,"lat":48.42959744359158,"elevation":[]},{"distance":46.524,"relativeDirection":"CONTINUE","streetName":"Boulevard du Saguenay Est","absoluteDirection":"EAST","stayOn":false,"area":false,"bogusName":false,"lon":-71.04363190000001,"lat":48.4293294,"elevation":[]}]},{"startTime":1522701422000,"endTime":1522701660000,"departureDelay":0,"arrivalDelay":0,"realTime":false,"distance":1722.6244316128991,"pathway":false,"mode":"BUS","route":"12","agencyName":"Société de Transport du Saguenay","agencyUrl":"http://ville.saguenay.ca/fr/services-aux-citoyens/transport-sts","agencyTimeZoneOffset":-14400000,"routeColor":"556B2F","routeType":3,"routeId":"1:12","routeTextColor":"FFFFFF","interlineWithPreviousLeg":false,"tripBlockId":"26","headsign":"Terminus Chicoutimi","agencyId":"0","tripId":"1:217983","serviceDate":"20180402","from":{"name":"boul. Saguenay / Bon-Conseil","stopId":"1:1990","stopCode":"1990","lon":-71.043002,"lat":48.429311,"arrival":1522701421000,"departure":1522701422000,"zoneId":"NA","stopIndex":30,"stopSequence":31,"vertexType":"TRANSIT"},"to":{"name":"Terminus Chicoutimi","stopId":"1:1289","stopCode":"1289","lon":-71.066163,"lat":48.428677,"arrival":1522701660000,"departure":1522701900000,"zoneId":"NA","stopIndex":33,"stopSequence":34,"vertexType":"TRANSIT"},"legGeometry":{"points":"q{qfH~qrpLPvHsCrMFxf@|ApJj@nDDl]BvZdCXJhC","length":10},"routeShortName":"12","routeLongName":"Rivière du Moulin","rentedBike":false,"transitLeg":true,"duration":238.0,"steps":[]},{"startTime":1522701900000,"endTime":1522703280000,"departureDelay":0,"arrivalDelay":0,"realTime":false,"distance":10050.236521205601,"pathway":false,"mode":"BUS","route":"11","agencyName":"Société de Transport du Saguenay","agencyUrl":"http://ville.saguenay.ca/fr/services-aux-citoyens/transport-sts","agencyTimeZoneOffset":-14400000,"routeColor":"FF0000","routeType":3,"routeId":"1:11","routeTextColor":"FFFFFF","interlineWithPreviousLeg":false,"tripBlockId":"34","headsign":"Boul.Royaume/St-Pierre","agencyId":"0","tripId":"1:218227","serviceDate":"20180402","from":{"name":"Terminus Chicoutimi","stopId":"1:1289","stopCode":"1289","lon":-71.066163,"lat":48.428677,"arrival":1522701660000,"departure":1522701900000,"zoneId":"NA","stopIndex":0,"stopSequence":1,"vertexType":"TRANSIT"},"to":{"name":"boul. Royaume / St-Pierre","stopId":"1:1922","stopCode":"1922","lon":-71.129819,"lat":48.391404,"arrival":1522703280000,"departure":1522703281000,"zoneId":"NA","stopIndex":31,"stopSequence":32,"vertexType":"TRANSIT"},"legGeometry":{"points":"evqfHzcwpLk@?UhKfIh@dKp@GnDIfDOtEE~@Ff@x@rEF~@CbAALO~ADRNJXBr@DfGRPBPJLN@@FPFTBX?TE`BhBR@?J@NELKFOlAiDL[bA`AfIjIbGdGzDzD`A~An@`ApApBpClEvJrOR\\bAfBLa@t@]LjAVvAVbAVv@^bAXj@b@t@xEtGh@r@n@x@FDjA|AlBpCnJ|NNTX`@V`@eCtHpFjH{FhPcB|Ft@|CEAdCnEdHKrBz@lGiQ|CyI~IrJtAzAmKrWsE`LzJjL|P}d@Ri@hCpEpBdCHJzPrR_AhC}Ppd@KZkDxJq@`CyGfZOl@fNzIJ@HAHIDI@CnNco@vE}Sh@kCb@oCXyBTuAFSBMl@iBlHjJxEtGPRbBdBp@r@xDpDrL`LlAtAiBdFOd@oCrH}JnXY~@GRU~@[fB_@hCIv@KnAIpAGlAAPA~A?lBJzDRxEB~@DzB","length":139},"routeShortName":"11","routeLongName":"Chic/Faubourg via St-Paul","rentedBike":false,"transitLeg":true,"duration":1380.0,"steps":[]},{"startTime":1522703281000,"endTime":1522703712000,"departureDelay":0,"arrivalDelay":0,"realTime":false,"distance":565.398,"pathway":false,"mode":"WALK","route":"","agencyTimeZoneOffset":-14400000,"interlineWithPreviousLeg":false,"from":{"name":"boul. Royaume / St-Pierre","stopId":"1:1922","stopCode":"1922","lon":-71.129819,"lat":48.391404,"arrival":1522703280000,"departure":1522703281000,"zoneId":"NA","stopIndex":31,"stopSequence":32,"vertexType":"TRANSIT"},"to":{"name":"Destination","lon":-71.13219,"lat":48.386625,"arrival":1522703712000,"orig":"","vertexType":"NORMAL"},"legGeometry":{"points":"uljfHjpcqL@n@?TTDPB\\Dp@Bh@DlATrAV~A`@`Br@`Bt@p@ZtAb@~Ah@ZHx@LD?","length":19},"rentedBike":false,"transitLeg":false,"duration":431.0,"steps":[{"distance":25.659,"relativeDirection":"DEPART","streetName":"Boulevard du Royaume Ouest","absoluteDirection":"WEST","stayOn":false,"area":false,"bogusName":false,"lon":-71.12981366448275,"lat":48.39131535185243,"elevation":[]},{"distance":539.739,"relativeDirection":"LEFT","streetName":"Rang Saint-Pierre","absoluteDirection":"SOUTH","stayOn":false,"area":false,"bogusName":false,"lon":-71.1301609,"lat":48.3913062,"elevation":[]}]}],"tooSloped":false}]},"debugOutput":{"precalculationTime":15,"pathCalculationTime":34,"pathTimes":[18,7,9],"renderingTime":1,"totalTime":50,"timedOut":false},"elevationMetadata":{"ellipsoidToGeoidDifference":-28.885904201182168,"geoidElevation":false}}