{"requestParameters":{"date":"2018/04/02","walkSpeed":"1.33","walkReluctance":"2.0","fromPlace":"48.430208,-71.051124","maxWalkDistance":"3000","waitReluctance":"1.0","carSpeed":"33","numItineraries":"3","waitAtBeginningFactor":"0.4","mode":"TRANSIT,WALK","ignoreRealtimeUpdates":"false","stairsReluctance":"2.0","toPlace":"48.426899,-71.064687","time":"7:0:00"},"plan":{"date":1522666800000,"from":{"name":"Origin","lon":-71.051124,"lat":48.430208,"orig":"","vertexType":"NORMAL"},"to":{"name":"Destination","lon":-71.064687,"lat":48.426899,"orig":"","vertexType":"NORMAL"},"itineraries":[{"duration":619,"startTime":1522667102000,"endTime":1522667721000,"walkTime":500,"transitTime":117,"waitingTime":2,"walkDistance":642.3904210504239,"walkLimitExceeded":false,"elevationLost":0.0,"elevationGained":0.0,"transfers":0,"legs":[{"startTime":1522667102000,"endTime":1522667342000,"departureDelay":0,"arrivalDelay":0,"realTime":false,"distance":313.194,"pathway":false,"mode":"WALK","route":"","agencyTimeZoneOffset":-14400000,"interlineWithPreviousLeg":false,"from":{"name":"Origin","lon":-71.051124,"lat":48.430208,"departure":1522667102000,"orig":"","vertexType":"NORMAL"},"to":{"name":"Réserve Navale (boul. Saguenay)","stopId":"1:1584","stopCode":"1584","lon":-71.055268,"lat":48.429877,"arrival":1522667342000,"departure":1522667343000,"zoneId":"NA","stopIndex":31,"stopSequence":32,"vertexType":"TRANSIT"},"legGeometry":{"points":"a`rfHpdtpL?xBIbGDrAFf@PpBJr@p@tC","length":8},"rentedBike":false,"transitLeg":false,"duration":240.0,"steps":[{"distance":313.194,"relativeDirection":"DEPART","streetName":"bike path","absoluteDirection":"WEST","stayOn":false,"area":false,"bogusName":false,"lon":-71.05112399053904,"lat":48.43025033941567,"elevation":[]}]},{"startTime":1522667343000,"endTime":1522667460000,"departureDelay":0,"arrivalDelay":0,"realTime":false,"distance":815.4239941708515,"pathway":false,"mode":"BUS","route":"12","agencyName":"Société de Transport du Saguenay","agencyUrl":"http://ville.saguenay.ca/fr/services-aux-citoyens/transport-sts","agencyTimeZoneOffset":-14400000,"routeColor":"556B2F","routeType":3,"routeId":"1:12","routeTextColor":"FFFFFF","interlineWithPreviousLeg":false,"tripBlockId":"29","headsign":"Terminus Chicoutimi","agencyId":"0","tripId":"1:218052","serviceDate":"20180402","from":{"name":"Réserve Navale (boul. Saguenay)","stopId":"1:1584","stopCode":"1584","lon":-71.055268,"lat":48.429877,"arrival":1522667342000,"departure":1522667343000,"zoneId":"NA","stopIndex":31,"stopSequence":32,"vertexType":"TRANSIT"},"to":{"name":"Terminus Chicoutimi","stopId":"1:1289","stopCode":"1289","lon":-71.066163,"lat":48.428677,"arrival":1522667460000,"departure":1522667461000,"zoneId":"NA","stopIndex":33,"stopSequence":34,"vertexType":"TRANSIT"},"legGeometry":{"points":"m|qfHv}tpLj@nDDl]BvZdCXJhC","length":6},"routeShortName":"12","routeLongName":"Rivière du Moulin","rentedBike":false,"transitLeg":true,"duration":117.0,"steps":[]},{"startTime":1522667461000,"endTime":1522667721000,"departureDelay":0,"arrivalDelay":0,"realTime":false,"distance":329.12800000000004,"pathway":false,"mode":"WALK","route":"","agencyTimeZoneOffset":-14400000,"interlineWithPreviousLeg":false,"from":{"name":"Terminus Chicoutimi","stopId":"1:1289","stopCode":"1289","lon":-71.066163,"lat":48.428677,"arrival":1522667460000,"departure":1522667461000,"zoneId":"NA","stopIndex":33,"stopSequence":34,"vertexType":"TRANSIT"},"to":{"name":"Destination","lon":-71.064687,"lat":48.426899,"arrival":1522667721000,"orig":"","vertexType":"NORMAL"},"legGeometry":{"points":"{uqfHb~vpLbAJR@JDb@LrBHP@jCPDwC@s@@_@EKGM","length":13},"rentedBike":false,"transitLeg":false,"duration":260.0,"steps":[{"distance":229.71300000000002,"relativeDirection":"DEPART","streetName":"Rue Morin","absoluteDirection":"SOUTH","stayOn":false,"area":false,"bogusName":false,"lon":-71.0654590096484,"lat":48.428628638946556,"elevation":[]},{"distance":87.542,"relativeDirection":"LEFT","streetName":"Rue Jacques-Cartier Est","absoluteDirection":"EAST","stayOn":false,"area":false,"bogusName":false,"lon":-71.0657774,"lat":48.426577300000005,"elevation":[]},{"distance":11.873,"relativeDirection":"LEFT","streetName":"Rue de l'Hôtel-de-Ville","absoluteDirection":"NORTHEAST","stayOn":false,"area":false,"bogusName":false,"lon":-71.0645932,"lat":48.4265291,"elevation":[]}]}],"tooSloped":false},{"duration":946,"startTime":1522666800000,"endTime":1522667746000,"walkTime":946,"transitTime":0,"waitingTime":0,"walkDistance":1210.4442481138717,"walkLimitExceeded":false,"elevationLost":0.0,"elevationGained":0.0,"transfers":0,"legs":[{"startTime":1522666800000,"endTime":1522667746000,"departureDelay":0,"arrivalDelay":0,"realTime":false,"distance":1210.2450000000003,"pathway":false,"mode":"WALK","route":"","agencyTimeZoneOffset":-14400000,"interlineWithPreviousLeg":false,"from":{"name":"Origin","lon":-71.051124,"lat":48.430208,"departure":1522666800000,"orig":"","vertexType":"NORMAL"},"to":{"name":"Destination","lon":-71.064687,"lat":48.426899,"arrival":1522667746000,"orig":"","vertexType":"NORMAL"},"legGeometry":{"points":"a`rfHpdtpL?xBXCHzGFxAB\\Fh@PdAR|@^~APM^Db@|BNQTr@tAzDp@jBhA~Dx@lBJJDFA~@C~@EtAKpFAl@?RCv@IxEjCBLJJLFZv@bFDV","length":35},"rentedBike":false,"transitLeg":false,"duration":946.0,"steps":[{"distance":45.435,"relativeDirection":"DEPART","streetName":"bike path","absoluteDirection":"WEST","stayOn":false,"area":false,"bogusName":false,"lon":-71.05112399053904,"lat":48.43025033941567,"elevation":[]},{"distance":13.95,"relativeDirection":"LEFT","streetName":"path","absoluteDirection":"SOUTH","stayOn":false,"area":false,"bogusName":true,"lon":-71.05173980000001,"lat":48.430250400000006,"elevation":[]},{"distance":258.09000000000003,"relativeDirection":"RIGHT","streetName":"Boulevard du Saguenay Est","absoluteDirection":"WEST","stayOn":false,"area":false,"bogusName":false,"lon":-71.0517177,"lat":48.430125800000006,"elevation":[]},{"distance":90.312,"relativeDirection":"LEFT","streetName":"path","absoluteDirection":"SOUTHEAST","stayOn":false,"area":false,"bogusName":true,"lon":-71.0550807,"lat":48.429626600000006,"elevation":[]},{"distance":302.591,"relativeDirection":"RIGHT","streetName":"Rue du Havre","absoluteDirection":"SOUTHWEST","stayOn":false,"area":false,"bogusName":false,"lon":-71.05558330000001,"lat":48.429117600000005,"elevation":[]},{"distance":294.21,"relativeDirection":"RIGHT","streetName":"Rue Racine Est","absoluteDirection":"WEST","stayOn":false,"area":false,"bogusName":false,"lon":-71.0589396,"lat":48.4275712,"elevation":[]},{"distance":86.921,"relativeDirection":"LEFT","streetName":"Rue de l'Hôtel-de-Ville","absoluteDirection":"SOUTH","stayOn":false,"area":false,"bogusName":false,"lon":-71.0629152,"lat":48.4277742,"elevation":[]},{"distance":118.736,"relativeDirection":"RIGHT","streetName":"Rue de l'Hôtel-de-Ville","absoluteDirection":"SOUTHWEST","stayOn":true,"area":false,"bogusName":false,"lon":-71.0629919,"lat":48.4270002,"elevation":[]}]}],"tooSloped":false},{"duration":729,"startTime":1522667839000,"endTime":1522668568000,"walkTime":630,"transitTime":97,"waitingTime":2,"walkDistance":789.662135331759,"walkLimitExceeded":false,"elevationLost":0.0,"elevationGained":0.0,"transfers":0,"legs":[{"startTime":1522667839000,"endTime":1522668433000,"departureDelay":0,"arrivalDelay":0,"realTime":false,"distance":746.6070000000001,"pathway":false,"mode":"WALK","route":"","agencyTimeZoneOffset":-14400000,"interlineWithPreviousLeg":false,"from":{"name":"Origin","lon":-71.051124,"lat":48.430208,"departure":1522667839000,"orig":"","vertexType":"NORMAL"},"to":{"name":"Bégin / Jacques-Cartier","stopId":"1:561","stopCode":"561","lon":-71.05511,"lat":48.425555,"arrival":1522668433000,"departure":1522668434000,"zoneId":"NA","stopIndex":42,"stopSequence":43,"vertexType":"TRANSIT"},"legGeometry":{"points":"a`rfHpdtpL?xBXCHzGFxADAfB[zC]Dn@jAGvBKd@CJBxAtABB`A|@h@`@ZVz@r@p@p@`@`@","length":21},"rentedBike":false,"transitLeg":false,"duration":594.0,"steps":[{"distance":45.435,"relativeDirection":"DEPART","streetName":"bike path","absoluteDirection":"WEST","stayOn":false,"area":false,"bogusName":false,"lon":-71.05112399053904,"lat":48.43025033941567,"elevation":[]},{"distance":13.95,"relativeDirection":"LEFT","streetName":"path","absoluteDirection":"SOUTH","stayOn":false,"area":false,"bogusName":true,"lon":-71.05173980000001,"lat":48.430250400000006,"elevation":[]},{"distance":137.862,"relativeDirection":"RIGHT","streetName":"Boulevard du Saguenay Est","absoluteDirection":"WEST","stayOn":false,"area":false,"bogusName":false,"lon":-71.0517177,"lat":48.430125800000006,"elevation":[]},{"distance":149.33100000000002,"relativeDirection":"LEFT","streetName":"Rue Salaberry","absoluteDirection":"SOUTH","stayOn":false,"area":false,"bogusName":false,"lon":-71.0535809,"lat":48.4300371,"elevation":[]},{"distance":18.475,"relativeDirection":"RIGHT","streetName":"Rue Racine Est","absoluteDirection":"WEST","stayOn":false,"area":false,"bogusName":false,"lon":-71.0532845,"lat":48.428708900000004,"elevation":[]},{"distance":381.55400000000003,"relativeDirection":"LEFT","streetName":"Rue Bégin","absoluteDirection":"SOUTH","stayOn":false,"area":false,"bogusName":false,"lon":-71.0535297,"lat":48.4286752,"elevation":[]}]},{"startTime":1522668434000,"endTime":1522668531000,"departureDelay":0,"arrivalDelay":0,"realTime":false,"distance":746.9376963967021,"pathway":false,"mode":"BUS","route":"105S","agencyName":"Société de Transport du Saguenay","agencyUrl":"http://ville.saguenay.ca/fr/services-aux-citoyens/transport-sts","agencyTimeZoneOffset":-14400000,"routeColor":"8B0000","routeType":3,"routeId":"1:105S","routeTextColor":"FFFFFF","interlineWithPreviousLeg":false,"tripBlockId":"39","headsign":"Terminus Chicoutimi","agencyId":"0","tripId":"1:218335","serviceDate":"20180402","from":{"name":"Bégin / Jacques-Cartier","stopId":"1:561","stopCode":"561","lon":-71.05511,"lat":48.425555,"arrival":1522668433000,"departure":1522668434000,"zoneId":"NA","stopIndex":42,"stopSequence":43,"vertexType":"TRANSIT"},"to":{"name":"Jacques-Cartier / Morin","stopId":"1:1930","stopCode":"1930","lon":-71.065007,"lat":48.426603,"arrival":1522668531000,"departure":1522668532000,"zoneId":"NA","stopIndex":45,"stopSequence":46,"vertexType":"TRANSIT"},"legGeometry":{"points":"}bqfH`~tpLkAqAU|@WnKG|DGxDOdPKvJU|F?X","length":10},"routeShortName":"105S","routeLongName":"Terminus Chicoutimi via Bégin","rentedBike":false,"transitLeg":true,"duration":97.0,"steps":[]},{"startTime":1522668532000,"endTime":1522668568000,"departureDelay":0,"arrivalDelay":0,"realTime":false,"distance":42.851,"pathway":false,"mode":"WALK","route":"","agencyTimeZoneOffset":-14400000,"interlineWithPreviousLeg":false,"from":{"name":"Jacques-Cartier / Morin","stopId":"1:1930","stopCode":"1930","lon":-71.065007,"lat":48.426603,"arrival":1522668531000,"departure":1522668532000,"zoneId":"NA","stopIndex":45,"stopSequence":46,"vertexType":"TRANSIT"},"to":{"name":"Destination","lon":-71.064687,"lat":48.426899,"arrival":1522668568000,"orig":"","vertexType":"NORMAL"},"legGeometry":{"points":"{hqfHj{vpL@s@@_@EKGM","length":5},"rentedBike":false,"transitLeg":false,"duration":36.0,"steps":[{"distance":30.978,"relativeDirection":"DEPART","streetName":"Rue Jacques-Cartier Est","absoluteDirection":"EAST","stayOn":false,"area":false,"bogusName":false,"lon":-71.06501225432459,"lat":48.42654615659386,"elevation":[]},{"distance":11.873,"relativeDirection":"LEFT","streetName":"Rue de l'Hôtel-de-Ville","absoluteDirection":"NORTHEAST","stayOn":false,"area":false,"bogusName":false,"lon":-71.0645932,"lat":48.4265291,"elevation":[]}]}],"tooSloped":false}]},"debugOutput":{"precalculationTime":70,"pathCalculationTime":35,"pathTimes":[19,7,9],"renderingTime":3,"totalTime":108,"timedOut":false},"elevationMetadata":{"ellipsoidToGeoidDifference":-28.885904201182168,"geoidElevation":false}}