{"requestParameters":{"date":"2018/04/02","walkSpeed":"1.33","walkReluctance":"2.0","fromPlace":"48.426899,-71.064687","maxWalkDistance":"3000","waitReluctance":"1.0","carSpeed":"33","numItineraries":"3","waitAtBeginningFactor":"0.4","mode":"TRANSIT,WALK","ignoreRealtimeUpdates":"false","stairsReluctance":"2.0","toPlace":"48.430208,-71.051124","time":"16:0:00"},"plan":{"date":1522699200000,"from":{"name":"Origin","lon":-71.064687,"lat":48.426899,"orig":"","vertexType":"NORMAL"},"to":{"name":"Destination","lon":-71.051124,"lat":48.430208,"orig":"","vertexType":"NORMAL"},"itineraries":[{"duration":945,"startTime":1522699200000,"endTime":1522700145000,"walkTime":945,"transitTime":0,"waitingTime":0,"walkDistance":1210.4431202943592,"walkLimitExceeded":false,"elevationLost":0.0,"elevationGained":0.0,"transfers":0,"legs":[{"startTime":1522699200000,"endTime":1522700145000,"departureDelay":0,"arrivalDelay":0,"realTime":false,"distance":1210.2450000000001,"pathway":false,"mode":"WALK","route":"","agencyTimeZoneOffset":-14400000,"interlineWithPreviousLeg":false,"from":{"name":"Origin","lon":-71.064687,"lat":48.426899,"departure":1522699200000,"orig":"","vertexType":"NORMAL"},"to":{"name":"Destination","lon":-71.051124,"lat":48.430208,"arrival":1522700145000,"orig":"","vertexType":"NORMAL"},"legGeometry":{"points":"eiqfH|wvpLEWw@cFG[KMMKkCCHyEBw@?S@m@JqFDuAB_A@_AEGKKy@mBiA_Eq@kBuA{DUs@OPc@}B_@EQL_@_BS}@QeAGi@C]GyAI{GYB?yB","length":35},"rentedBike":false,"transitLeg":false,"duration":945.0,"steps":[{"distance":118.736,"relativeDirection":"DEPART","streetName":"Rue de l'Hôtel-de-Ville","absoluteDirection":"EAST","stayOn":false,"area":false,"bogusName":false,"lon":-71.064468,"lat":48.426596,"elevation":[]},{"distance":86.921,"relativeDirection":"LEFT","streetName":"Rue de l'Hôtel-de-Ville","absoluteDirection":"NORTH","stayOn":true,"area":false,"bogusName":false,"lon":-71.0629919,"lat":48.4270002,"elevation":[]},{"distance":294.21,"relativeDirection":"RIGHT","streetName":"Rue Racine Est","absoluteDirection":"EAST","stayOn":false,"area":false,"bogusName":false,"lon":-71.0629152,"lat":48.4277742,"elevation":[]},{"distance":302.591,"relativeDirection":"LEFT","streetName":"Rue du Havre","absoluteDirection":"NORTHEAST","stayOn":false,"area":false,"bogusName":false,"lon":-71.0589396,"lat":48.4275712,"elevation":[]},{"distance":90.312,"relativeDirection":"LEFT","streetName":"path","absoluteDirection":"NORTHWEST","stayOn":false,"area":false,"bogusName":true,"lon":-71.05558330000001,"lat":48.429117600000005,"elevation":[]},{"distance":258.09000000000003,"relativeDirection":"RIGHT","streetName":"Boulevard du Saguenay Est","absoluteDirection":"NORTHEAST","stayOn":false,"area":false,"bogusName":false,"lon":-71.0550807,"lat":48.429626600000006,"elevation":[]},{"distance":13.95,"relativeDirection":"LEFT","streetName":"path","absoluteDirection":"NORTH","stayOn":false,"area":false,"bogusName":true,"lon":-71.0517177,"lat":48.430125800000006,"elevation":[]},{"distance":45.435,"relativeDirection":"RIGHT","streetName":"bike path","absoluteDirection":"EAST","stayOn":false,"area":false,"bogusName":false,"lon":-71.05173980000001,"lat":48.430250400000006,"elevation":[]}]}],"tooSloped":false},{"duration":369,"startTime":1522700004000,"endTime":1522700373000,"walkTime":138,"transitTime":229,"waitingTime":2,"walkDistance":165.1545789447361,"walkLimitExceeded":false,"elevationLost":0.0,"elevationGained":0.0,"transfers":0,"legs":[{"startTime":1522700004000,"endTime":1522700040000,"departureDelay":0,"arrivalDelay":0,"realTime":false,"distance":42.851,"pathway":false,"mode":"WALK","route":"","agencyTimeZoneOffset":-14400000,"interlineWithPreviousLeg":false,"from":{"name":"Origin","lon":-71.064687,"lat":48.426899,"departure":1522700004000,"orig":"","vertexType":"NORMAL"},"to":{"name":"Jacques-Cartier / Morin","stopId":"1:1930","stopCode":"1930","lon":-71.065007,"lat":48.426603,"arrival":1522700040000,"departure":1522700041000,"zoneId":"NA","stopIndex":4,"stopSequence":5,"vertexType":"TRANSIT"},"legGeometry":{"points":"eiqfH|wvpLFLDJA^Ar@","length":5},"rentedBike":false,"transitLeg":false,"duration":36.0,"steps":[{"distance":11.873,"relativeDirection":"DEPART","streetName":"Rue de l'Hôtel-de-Ville","absoluteDirection":"SOUTHWEST","stayOn":false,"area":false,"bogusName":false,"lon":-71.064468,"lat":48.426596,"elevation":[]},{"distance":30.978,"relativeDirection":"RIGHT","streetName":"Rue Jacques-Cartier Est","absoluteDirection":"WEST","stayOn":false,"area":false,"bogusName":false,"lon":-71.0645932,"lat":48.4265291,"elevation":[]}]},{"startTime":1522700041000,"endTime":1522700100000,"departureDelay":0,"arrivalDelay":0,"realTime":false,"distance":245.88679523960366,"pathway":false,"mode":"BUS","route":"203S","agencyName":"Société de Transport du Saguenay","agencyUrl":"http://ville.saguenay.ca/fr/services-aux-citoyens/transport-sts","agencyTimeZoneOffset":-14400000,"routeColor":"8B0000","routeType":3,"routeId":"1:203S","routeTextColor":"FFFFFF","interlineWithPreviousLeg":false,"tripBlockId":"56","headsign":"Terminus Chicoutimi","agencyId":"0","tripId":"1:218523","serviceDate":"20180402","from":{"name":"Jacques-Cartier / Morin","stopId":"1:1930","stopCode":"1930","lon":-71.065007,"lat":48.426603,"arrival":1522700040000,"departure":1522700041000,"zoneId":"NA","stopIndex":4,"stopSequence":5,"vertexType":"TRANSIT"},"to":{"name":"Terminus Chicoutimi","stopId":"1:1289","stopCode":"1289","lon":-71.066163,"lat":48.428677,"arrival":1522700100000,"departure":1522700100000,"zoneId":"NA","stopIndex":5,"stopSequence":6,"vertexType":"TRANSIT"},"legGeometry":{"points":"yhqfHj{vpLGbDgCO}BY{AKK`C","length":6},"routeShortName":"203S","routeLongName":"Séminaire - Term. Chic","rentedBike":false,"transitLeg":true,"duration":59.0,"steps":[]},{"startTime":1522700100000,"endTime":1522700270000,"departureDelay":0,"arrivalDelay":0,"realTime":false,"distance":1144.3905147454593,"pathway":false,"mode":"BUS","route":"13","agencyName":"Société de Transport du Saguenay","agencyUrl":"http://ville.saguenay.ca/fr/services-aux-citoyens/transport-sts","agencyTimeZoneOffset":-14400000,"routeColor":"00FFFF","routeType":3,"routeId":"1:13","routeTextColor":"000000","interlineWithPreviousLeg":true,"tripBlockId":"56","headsign":"St-Martin / St-Joseph","agencyId":"0","tripId":"1:218524","serviceDate":"20180402","from":{"name":"Terminus Chicoutimi","stopId":"1:1289","stopCode":"1289","lon":-71.066163,"lat":48.428677,"arrival":1522700100000,"departure":1522700100000,"zoneId":"NA","stopIndex":0,"stopSequence":1,"vertexType":"TRANSIT"},"to":{"name":"Alliance Funéraire Du Royaume ","stopId":"1:2200","stopCode":"2200","lon":-71.050861,"lat":48.430022,"arrival":1522700270000,"departure":1522700271000,"zoneId":"NA","stopIndex":3,"stopSequence":4,"vertexType":"TRANSIT"},"legGeometry":{"points":"uuqfH`bwpLIkABu@oBK\\kHNoDJ_JGuDCgDAECc@Cs@OyEW}ESgC}@sEa@}AGUa@}BKyAG_CG_H?}A","length":23},"routeShortName":"13","routeLongName":"Rang St-Martin / St-Jospeh","rentedBike":false,"transitLeg":true,"duration":170.0,"steps":[]},{"startTime":1522700271000,"endTime":1522700373000,"departureDelay":0,"arrivalDelay":0,"realTime":false,"distance":122.22200000000001,"pathway":false,"mode":"WALK","route":"","agencyTimeZoneOffset":-14400000,"interlineWithPreviousLeg":false,"from":{"name":"Alliance Funéraire Du Royaume ","stopId":"1:2200","stopCode":"2200","lon":-71.050861,"lat":48.430022,"arrival":1522700270000,"departure":1522700271000,"zoneId":"NA","stopIndex":3,"stopSequence":4,"vertexType":"TRANSIT"},"to":{"name":"Destination","lon":-71.051124,"lat":48.430208,"arrival":1522700373000,"orig":"","vertexType":"NORMAL"},"legGeometry":{"points":"k_rfH|btpL@pB@v@YB?yB","length":5},"rentedBike":false,"transitLeg":false,"duration":102.0,"steps":[{"distance":62.837,"relativeDirection":"DEPART","streetName":"Boulevard du Saguenay Est","absoluteDirection":"WEST","stayOn":false,"area":false,"bogusName":false,"lon":-71.05086644381025,"lat":48.43014316737718,"elevation":[]},{"distance":13.95,"relativeDirection":"RIGHT","streetName":"path","absoluteDirection":"NORTH","stayOn":false,"area":false,"bogusName":true,"lon":-71.0517177,"lat":48.430125800000006,"elevation":[]},{"distance":45.435,"relativeDirection":"RIGHT","streetName":"bike path","absoluteDirection":"EAST","stayOn":false,"area":false,"bogusName":false,"lon":-71.05173980000001,"lat":48.430250400000006,"elevation":[]}]}],"tooSloped":false},{"duration":750,"startTime":1522699839000,"endTime":1522700589000,"walkTime":600,"transitTime":148,"waitingTime":2,"walkDistance":752.0674811967967,"walkLimitExceeded":false,"elevationLost":0.0,"elevationGained":0.0,"transfers":0,"legs":[{"startTime":1522699839000,"endTime":1522700099000,"departureDelay":0,"arrivalDelay":0,"realTime":false,"distance":329.128,"pathway":false,"mode":"WALK","route":"","agencyTimeZoneOffset":-14400000,"interlineWithPreviousLeg":false,"from":{"name":"Origin","lon":-71.064687,"lat":48.426899,"departure":1522699839000,"orig":"","vertexType":"NORMAL"},"to":{"name":"Terminus Chicoutimi","stopId":"1:1289","stopCode":"1289","lon":-71.066163,"lat":48.428677,"arrival":1522700099000,"departure":1522700100000,"zoneId":"NA","stopIndex":0,"stopSequence":1,"vertexType":"TRANSIT"},"legGeometry":{"points":"eiqfH|wvpLFLDJA^Ar@EvCkCQQAsBIc@MKESAcAK","length":13},"rentedBike":false,"transitLeg":false,"duration":260.0,"steps":[{"distance":11.873,"relativeDirection":"DEPART","streetName":"Rue de l'Hôtel-de-Ville","absoluteDirection":"SOUTHWEST","stayOn":false,"area":false,"bogusName":false,"lon":-71.064468,"lat":48.426596,"elevation":[]},{"distance":87.542,"relativeDirection":"RIGHT","streetName":"Rue Jacques-Cartier Est","absoluteDirection":"WEST","stayOn":false,"area":false,"bogusName":false,"lon":-71.0645932,"lat":48.4265291,"elevation":[]},{"distance":229.713,"relativeDirection":"RIGHT","streetName":"Rue Morin","absoluteDirection":"NORTH","stayOn":false,"area":false,"bogusName":false,"lon":-71.0657774,"lat":48.426577300000005,"elevation":[]}]},{"startTime":1522700100000,"endTime":1522700248000,"departureDelay":0,"arrivalDelay":0,"realTime":false,"distance":1067.3713480953313,"pathway":false,"mode":"BUS","route":"12","agencyName":"Société de Transport du Saguenay","agencyUrl":"http://ville.saguenay.ca/fr/services-aux-citoyens/transport-sts","agencyTimeZoneOffset":-14400000,"routeColor":"556B2F","routeType":3,"routeId":"1:12","routeTextColor":"FFFFFF","interlineWithPreviousLeg":false,"tripBlockId":"28","headsign":"Terminus UQAC","agencyId":"0","tripId":"1:218045","serviceDate":"20180402","from":{"name":"Terminus Chicoutimi","stopId":"1:1289","stopCode":"1289","lon":-71.066163,"lat":48.428677,"arrival":1522700099000,"departure":1522700100000,"zoneId":"NA","stopIndex":0,"stopSequence":1,"vertexType":"TRANSIT"},"to":{"name":"Racine / Séminaire","stopId":"1:1523","stopCode":"1523","lon":-71.052243,"lat":48.428706,"arrival":1522700248000,"departure":1522700249000,"zoneId":"NA","stopIndex":3,"stopSequence":4,"vertexType":"TRANSIT"},"legGeometry":{"points":"evqfHpbwpLpFcj@IaKmFy^","length":4},"routeShortName":"12","routeLongName":"Rivière du Moulin","rentedBike":false,"transitLeg":true,"duration":148.0,"steps":[]},{"startTime":1522700249000,"endTime":1522700589000,"departureDelay":0,"arrivalDelay":0,"realTime":false,"distance":422.74699999999996,"pathway":false,"mode":"WALK","route":"","agencyTimeZoneOffset":-14400000,"interlineWithPreviousLeg":false,"from":{"name":"Racine / Séminaire","stopId":"1:1523","stopCode":"1523","lon":-71.052243,"lat":48.428706,"arrival":1522700248000,"departure":1522700249000,"zoneId":"NA","stopIndex":3,"stopSequence":4,"vertexType":"TRANSIT"},"to":{"name":"Destination","lon":-71.051124,"lat":48.430208,"arrival":1522700589000,"orig":"","vertexType":"NORMAL"},"legGeometry":{"points":"}vqfHtktpLJfC@VBj@{C\\gBZE@GyAI{GYB?yB","length":11},"rentedBike":false,"transitLeg":false,"duration":340.0,"steps":[{"distance":76.169,"relativeDirection":"DEPART","streetName":"Rue Racine Est","absoluteDirection":"WEST","stayOn":false,"area":false,"bogusName":false,"lon":-71.05226067284002,"lat":48.428796690119405,"elevation":[]},{"distance":149.33100000000002,"relativeDirection":"RIGHT","streetName":"Rue Salaberry","absoluteDirection":"NORTH","stayOn":false,"area":false,"bogusName":false,"lon":-71.0532845,"lat":48.428708900000004,"elevation":[]},{"distance":137.862,"relativeDirection":"RIGHT","streetName":"Boulevard du Saguenay Est","absoluteDirection":"EAST","stayOn":false,"area":false,"bogusName":false,"lon":-71.0535809,"lat":48.4300371,"elevation":[]},{"distance":13.95,"relativeDirection":"LEFT","streetName":"path","absoluteDirection":"NORTH","stayOn":false,"area":false,"bogusName":true,"lon":-71.0517177,"lat":48.430125800000006,"elevation":[]},{"distance":45.435,"relativeDirection":"RIGHT","streetName":"bike path","absoluteDirection":"EAST","stayOn":false,"area":false,"bogusName":false,"lon":-71.05173980000001,"lat":48.430250400000006,"elevation":[]}]}],"tooSloped":false}]},"debugOutput":{"precalculationTime":54,"pathCalculationTime":41,"pathTimes":[19,13,9],"renderingTime":2,"totalTime":97,"timedOut":false},"elevationMetadata":{"ellipsoidToGeoidDifference":-28.885904201182168,"geoidElevation":false}}