{"requestParameters":{"date":"2018/04/02","walkSpeed":"1.33","walkReluctance":"2.0","fromPlace":"48.403374,-71.058501","maxWalkDistance":"3000","waitReluctance":"1.0","carSpeed":"33","numItineraries":"3","waitAtBeginningFactor":"0.4","mode":"TRANSIT,WALK","ignoreRealtimeUpdates":"false","stairsReluctance":"2.0","toPlace":"48.413697,-71.086375","time":"18:45:00"},"plan":{"date":1522709100000,"from":{"name":"Origin","lon":-71.058501,"lat":48.403374,"orig":"","vertexType":"NORMAL"},"to":{"name":"Destination","lon":-71.086375,"lat":48.413697,"orig":"","vertexType":"NORMAL"},"itineraries":[{"duration":2338,"startTime":1522710964000,"endTime":1522713302000,"walkTime":359,"transitTime":1444,"waitingTime":535,"walkDistance":449.635533830923,"walkLimitExceeded":false,"elevationLost":0.0,"elevationGained":0.0,"transfers":1,"legs":[{"startTime":1522710964000,"endTime":1522711139000,"departureDelay":0,"arrivalDelay":0,"realTime":false,"distance":211.423,"pathway":false,"mode":"WALK","route":"","agencyTimeZoneOffset":-14400000,"interlineWithPreviousLeg":false,"from":{"name":"Origin","lon":-71.058501,"lat":48.403374,"departure":1522710964000,"orig":"","vertexType":"NORMAL"},"to":{"name":"Place du Royaume (Saguenéens)","stopId":"1:1294","stopCode":"1294","lon":-71.057691,"lat":48.402355,"arrival":1522711139000,"departure":1522711140000,"zoneId":"NA","stopIndex":11,"stopSequence":12,"vertexType":"TRANSIT"},"legGeometry":{"points":"axlfHtrupLZXHUd@qAL[h@`AZl@FLLi@`@eC","length":10},"rentedBike":false,"transitLeg":false,"duration":175.0,"steps":[{"distance":77.801,"relativeDirection":"DEPART","streetName":"parking aisle","absoluteDirection":"SOUTHWEST","stayOn":false,"area":false,"bogusName":false,"lon":-71.05850815479232,"lat":48.403376994029955,"elevation":[]},{"distance":63.614000000000004,"relativeDirection":"RIGHT","streetName":"service road","absoluteDirection":"SOUTHWEST","stayOn":false,"area":false,"bogusName":true,"lon":-71.0579793,"lat":48.402928200000005,"elevation":[]},{"distance":70.008,"relativeDirection":"LEFT","streetName":"Rue des Saguenéens","absoluteDirection":"SOUTHEAST","stayOn":false,"area":false,"bogusName":false,"lon":-71.0586019,"lat":48.4025327,"elevation":[]}]},{"startTime":1522711140000,"endTime":1522712220000,"departureDelay":0,"arrivalDelay":0,"realTime":false,"distance":5806.411506174393,"pathway":false,"mode":"BUS","route":"15","agencyName":"Société de Transport du Saguenay","agencyUrl":"http://ville.saguenay.ca/fr/services-aux-citoyens/transport-sts","agencyTimeZoneOffset":-14400000,"routeColor":"FF00FF","routeType":3,"routeId":"1:15","routeTextColor":"FFFFFF","interlineWithPreviousLeg":false,"tripBlockId":"30","headsign":"Terminus Chicoutimi","agencyId":"0","tripId":"1:218112","serviceDate":"20180402","from":{"name":"Place du Royaume (Saguenéens)","stopId":"1:1294","stopCode":"1294","lon":-71.057691,"lat":48.402355,"arrival":1522711139000,"departure":1522711140000,"zoneId":"NA","stopIndex":11,"stopSequence":12,"vertexType":"TRANSIT"},"to":{"name":"Sainte-Anne / Racine","stopId":"1:558","stopCode":"558","lon":-71.068444,"lat":48.427369,"arrival":1522712220000,"departure":1522712220000,"zoneId":"NA","stopIndex":38,"stopSequence":39,"vertexType":"TRANSIT"},"legGeometry":{"points":"eqlfHzmupLUxAm@nCcAlDeCvGmA|CUr@}@~A_@\\_DvCEZcA|@UP_@d@Yl@oBdFeCxG_CfGYVQXS\\dK|HlFZbC\\p@zA\\rB@hBiArG{BNw@FiG}@iDwAECcCcBo@y@sEeGe@o@qAa@m@MoB?C@}BZwAc@oA_Bs@gDCKZ{Di@QECc@_@sAkAoBwB_EcE{A_BoAmAk@o@cCaCkIkIaJaJUUwBaCj@wCjAsCzGoG_CoHL{D_@kAqD{CQr@iAcAy@w@L{@wAuA_B_B_EpLDh@NbBVvCIxBg@`Am@l@Sb@a@rAqDqDmEkE]a@kAqAU|@WnKG|DGxDOdPKvJU|F?XQlJC~@ChAIzEcCO","length":100},"routeShortName":"15","routeLongName":"Term. Chic / Costco","rentedBike":false,"transitLeg":true,"duration":1080.0,"steps":[]},{"startTime":1522712220000,"endTime":1522712223000,"departureDelay":0,"arrivalDelay":0,"realTime":false,"distance":0.224,"pathway":false,"mode":"WALK","route":"","agencyTimeZoneOffset":-14400000,"interlineWithPreviousLeg":false,"from":{"name":"Sainte-Anne / Racine","stopId":"1:558","stopCode":"558","lon":-71.068444,"lat":48.427369,"arrival":1522712220000,"departure":1522712220000,"zoneId":"NA","stopIndex":38,"stopSequence":39,"vertexType":"TRANSIT"},"to":{"name":"Sainte-Anne / Jacques-Cartier","stopId":"1:413","stopCode":"413","lon":-71.068639,"lat":48.427373,"arrival":1522712223000,"departure":1522712756000,"zoneId":"NA","stopIndex":1,"stopSequence":2,"vertexType":"TRANSIT"},"legGeometry":{"points":"anqfHhqwpL@?","length":2},"rentedBike":false,"transitLeg":false,"duration":3.0,"steps":[{"distance":0.224,"relativeDirection":"DEPART","streetName":"Rue Sainte-Anne","absoluteDirection":"SOUTH","stayOn":false,"area":false,"bogusName":false,"lon":-71.06852127104082,"lat":48.427371387668245,"elevation":[]}]},{"startTime":1522712756000,"endTime":1522713120000,"departureDelay":0,"arrivalDelay":0,"realTime":false,"distance":2081.3899646445952,"pathway":false,"mode":"BUS","route":"11","agencyName":"Société de Transport du Saguenay","agencyUrl":"http://ville.saguenay.ca/fr/services-aux-citoyens/transport-sts","agencyTimeZoneOffset":-14400000,"routeColor":"FF0000","routeType":3,"routeId":"1:11","routeTextColor":"FFFFFF","interlineWithPreviousLeg":false,"tripBlockId":"35","headsign":"Boul.Royaume/St-Pierre","agencyId":"0","tripId":"1:218268","serviceDate":"20180402","from":{"name":"Sainte-Anne / Jacques-Cartier","stopId":"1:413","stopCode":"413","lon":-71.068639,"lat":48.427373,"arrival":1522712223000,"departure":1522712756000,"zoneId":"NA","stopIndex":1,"stopSequence":2,"vertexType":"TRANSIT"},"to":{"name":"Saint-Paul / Saint-Augustin","stopId":"1:426","stopCode":"426","lon":-71.084129,"lat":48.414194,"arrival":1522713120000,"departure":1522713121000,"zoneId":"NA","stopIndex":12,"stopSequence":13,"vertexType":"TRANSIT"},"legGeometry":{"points":"_nqfHnqwpLdKp@GnDIfDOtEE~@Ff@x@rEF~@CbAALO~ADRNJXBr@DfGRPBPJLN@@FPFTBX?TE`BhBR@?J@NELKFOlAiDL[bA`AfIjIbGdGzDzD`A~An@`ApApBpClEvJrO","length":43},"routeShortName":"11","routeLongName":"Chic/Faubourg via St-Paul","rentedBike":false,"transitLeg":true,"duration":364.0,"steps":[]},{"startTime":1522713121000,"endTime":1522713302000,"departureDelay":0,"arrivalDelay":0,"realTime":false,"distance":237.875,"pathway":false,"mode":"WALK","route":"","agencyTimeZoneOffset":-14400000,"interlineWithPreviousLeg":false,"from":{"name":"Saint-Paul / Saint-Augustin","stopId":"1:426","stopCode":"426","lon":-71.084129,"lat":48.414194,"arrival":1522713120000,"departure":1522713121000,"zoneId":"NA","stopIndex":12,"stopSequence":13,"vertexType":"TRANSIT"},"to":{"name":"Destination","lon":-71.086375,"lat":48.413697,"arrival":1522713302000,"orig":"","vertexType":"NORMAL"},"legGeometry":{"points":"k{nfHjrzpLfAfBPTLTv@lAXdA@~@Up@e@xA","length":9},"rentedBike":false,"transitLeg":false,"duration":181.0,"steps":[{"distance":68.066,"relativeDirection":"DEPART","streetName":"Rue Saint-Paul","absoluteDirection":"SOUTHWEST","stayOn":false,"area":false,"bogusName":false,"lon":-71.08405531431303,"lat":48.4141469515624,"elevation":[]},{"distance":169.809,"relativeDirection":"CONTINUE","streetName":"Rue Brébeuf","absoluteDirection":"SOUTHWEST","stayOn":false,"area":false,"bogusName":false,"lon":-71.0846811,"lat":48.413698000000004,"elevation":[]}]}],"tooSloped":false},{"duration":1565,"startTime":1522712044000,"endTime":1522713609000,"walkTime":706,"transitTime":857,"waitingTime":2,"walkDistance":887.5219473610335,"walkLimitExceeded":false,"elevationLost":0.0,"elevationGained":0.0,"transfers":0,"legs":[{"startTime":1522712044000,"endTime":1522712219000,"departureDelay":0,"arrivalDelay":0,"realTime":false,"distance":211.423,"pathway":false,"mode":"WALK","route":"","agencyTimeZoneOffset":-14400000,"interlineWithPreviousLeg":false,"from":{"name":"Origin","lon":-71.058501,"lat":48.403374,"departure":1522712044000,"orig":"","vertexType":"NORMAL"},"to":{"name":"Place du Royaume (Saguenéens)","stopId":"1:1294","stopCode":"1294","lon":-71.057691,"lat":48.402355,"arrival":1522712219000,"departure":1522712220000,"zoneId":"NA","stopIndex":24,"stopSequence":25,"vertexType":"TRANSIT"},"legGeometry":{"points":"axlfHtrupLZXHUd@qAL[h@`AZl@FLLi@`@eC","length":10},"rentedBike":false,"transitLeg":false,"duration":175.0,"steps":[{"distance":77.801,"relativeDirection":"DEPART","streetName":"parking aisle","absoluteDirection":"SOUTHWEST","stayOn":false,"area":false,"bogusName":false,"lon":-71.05850815479232,"lat":48.403376994029955,"elevation":[]},{"distance":63.614000000000004,"relativeDirection":"RIGHT","streetName":"service road","absoluteDirection":"SOUTHWEST","stayOn":false,"area":false,"bogusName":true,"lon":-71.0579793,"lat":48.402928200000005,"elevation":[]},{"distance":70.008,"relativeDirection":"LEFT","streetName":"Rue des Saguenéens","absoluteDirection":"SOUTHEAST","stayOn":false,"area":false,"bogusName":false,"lon":-71.0586019,"lat":48.4025327,"elevation":[]}]},{"startTime":1522712220000,"endTime":1522712520000,"departureDelay":0,"arrivalDelay":0,"realTime":false,"distance":3143.631018514618,"pathway":false,"mode":"BUS","route":"15","agencyName":"Société de Transport du Saguenay","agencyUrl":"http://ville.saguenay.ca/fr/services-aux-citoyens/transport-sts","agencyTimeZoneOffset":-14400000,"routeColor":"FF00FF","routeType":3,"routeId":"1:15","routeTextColor":"FFFFFF","interlineWithPreviousLeg":false,"tripBlockId":"33","headsign":"Talbot / Barrette","agencyId":"0","tripId":"1:218197","serviceDate":"20180402","from":{"name":"Place du Royaume (Saguenéens)","stopId":"1:1294","stopCode":"1294","lon":-71.057691,"lat":48.402355,"arrival":1522712219000,"departure":1522712220000,"zoneId":"NA","stopIndex":24,"stopSequence":25,"vertexType":"TRANSIT"},"to":{"name":"Roitelets / Sapins","stopId":"1:1543","stopCode":"1543","lon":-71.069553,"lat":48.393375,"arrival":1522712520000,"departure":1522712520000,"zoneId":"NA","stopIndex":35,"stopSequence":36,"vertexType":"TRANSIT"},"legGeometry":{"points":"_rlfHjmupLbCaO?qLa@uJzF`ApF~@~@PzAgEeDcBf@qAWcKUqEx@Ef@ExDVjDxAFBrBvAfGjG@BjCzC~DxC@@zA~Cb@fCJlC?BsBre@?DWbOAn@?nEGnM@H\\hCzA~ELvAAlAi@jDo@nB","length":40},"routeShortName":"15","routeLongName":"Term. Chic / Costco","rentedBike":false,"transitLeg":true,"duration":300.0,"steps":[]},{"startTime":1522712520000,"endTime":1522713077000,"departureDelay":0,"arrivalDelay":0,"realTime":false,"distance":5264.696000246383,"pathway":false,"mode":"BUS","route":"14","agencyName":"Société de Transport du Saguenay","agencyUrl":"http://ville.saguenay.ca/fr/services-aux-citoyens/transport-sts","agencyTimeZoneOffset":-14400000,"routeColor":"C0C000","routeType":3,"routeId":"1:14","routeTextColor":"000000","interlineWithPreviousLeg":true,"tripBlockId":"33","headsign":"Terminus Chicoutimi","agencyId":"0","tripId":"1:218198","serviceDate":"20180402","from":{"name":"Roitelets / Sapins","stopId":"1:1513","stopCode":"1513","lon":-71.069396,"lat":48.393523,"arrival":1522712520000,"departure":1522712520000,"zoneId":"NA","stopIndex":0,"stopSequence":1,"vertexType":"TRANSIT"},"to":{"name":"Boily / Garnier","stopId":"1:1561","stopCode":"1561","lon":-71.0798,"lat":48.4117,"arrival":1522713077000,"departure":1522713078000,"zoneId":"NA","stopIndex":21,"stopSequence":22,"vertexType":"TRANSIT"},"legGeometry":{"points":"azjfHfwwpLiEfLuBzFsAnDgGzSWfAcD`Mi@dCgChLmCzMwGd\\aDxOdFtFhCtCdDY|F_On@aB`B_GNoBvAyT|@sNuAyAuF}F}AaB_BkAC@qC\\gAWiBwBiKgMiCwEgEyHCGy@uB}@rAa@nAc@lFEf@mGvUYfAqCs@ICMCqFmDc@s@mAkBuEoESUgAhDiAfD}@zDyAcA","length":52},"routeShortName":"14","routeLongName":"Coopérative","rentedBike":false,"transitLeg":true,"duration":557.0,"steps":[]},{"startTime":1522713078000,"endTime":1522713609000,"departureDelay":0,"arrivalDelay":0,"realTime":false,"distance":675.87,"pathway":false,"mode":"WALK","route":"","agencyTimeZoneOffset":-14400000,"interlineWithPreviousLeg":false,"from":{"name":"Boily / Garnier","stopId":"1:1561","stopCode":"1561","lon":-71.0798,"lat":48.4117,"arrival":1522713077000,"departure":1522713078000,"zoneId":"NA","stopIndex":21,"stopSequence":22,"vertexType":"TRANSIT"},"to":{"name":"Destination","lon":-71.086375,"lat":48.413697,"arrival":1522713609000,"orig":"","vertexType":"NORMAL"},"legGeometry":{"points":"ilnfHnxypLB@nAr@{@vDWzBY`D{@fDoAnBg@XoAh@IB[PSJe@VIVLTv@lAXdA@~@Up@e@xA","length":21},"rentedBike":false,"transitLeg":false,"duration":531.0,"steps":[{"distance":51.092999999999996,"relativeDirection":"DEPART","streetName":"Rue Boily","absoluteDirection":"SOUTHWEST","stayOn":false,"area":false,"bogusName":false,"lon":-71.07991450023346,"lat":48.4117325016581,"elevation":[]},{"distance":387.072,"relativeDirection":"RIGHT","streetName":"Rue Garnier","absoluteDirection":"NORTHWEST","stayOn":false,"area":false,"bogusName":false,"lon":-71.0801867,"lat":48.41131,"elevation":[]},{"distance":67.896,"relativeDirection":"CONTINUE","streetName":"Rue Saint-Augustin","absoluteDirection":"NORTH","stayOn":false,"area":false,"bogusName":false,"lon":-71.0842714,"lat":48.413164,"elevation":[]},{"distance":169.809,"relativeDirection":"LEFT","streetName":"Rue Brébeuf","absoluteDirection":"SOUTHWEST","stayOn":false,"area":false,"bogusName":false,"lon":-71.0846811,"lat":48.413698000000004,"elevation":[]}]}],"tooSloped":false},{"duration":1565,"startTime":1522715644000,"endTime":1522717209000,"walkTime":706,"transitTime":857,"waitingTime":2,"walkDistance":887.5219473610335,"walkLimitExceeded":false,"elevationLost":0.0,"elevationGained":0.0,"transfers":0,"legs":[{"startTime":1522715644000,"endTime":1522715819000,"departureDelay":0,"arrivalDelay":0,"realTime":false,"distance":211.423,"pathway":false,"mode":"WALK","route":"","agencyTimeZoneOffset":-14400000,"interlineWithPreviousLeg":false,"from":{"name":"Origin","lon":-71.058501,"lat":48.403374,"departure":1522715644000,"orig":"","vertexType":"NORMAL"},"to":{"name":"Place du Royaume (Saguenéens)","stopId":"1:1294","stopCode":"1294","lon":-71.057691,"lat":48.402355,"arrival":1522715819000,"departure":1522715820000,"zoneId":"NA","stopIndex":24,"stopSequence":25,"vertexType":"TRANSIT"},"legGeometry":{"points":"axlfHtrupLZXHUd@qAL[h@`AZl@FLLi@`@eC","length":10},"rentedBike":false,"transitLeg":false,"duration":175.0,"steps":[{"distance":77.801,"relativeDirection":"DEPART","streetName":"parking aisle","absoluteDirection":"SOUTHWEST","stayOn":false,"area":false,"bogusName":false,"lon":-71.05850815479232,"lat":48.403376994029955,"elevation":[]},{"distance":63.614000000000004,"relativeDirection":"RIGHT","streetName":"service road","absoluteDirection":"SOUTHWEST","stayOn":false,"area":false,"bogusName":true,"lon":-71.0579793,"lat":48.402928200000005,"elevation":[]},{"distance":70.008,"relativeDirection":"LEFT","streetName":"Rue des Saguenéens","absoluteDirection":"SOUTHEAST","stayOn":false,"area":false,"bogusName":false,"lon":-71.0586019,"lat":48.4025327,"elevation":[]}]},{"startTime":1522715820000,"endTime":1522716120000,"departureDelay":0,"arrivalDelay":0,"realTime":false,"distance":3143.631018514618,"pathway":false,"mode":"BUS","route":"15","agencyName":"Société de Transport du Saguenay","agencyUrl":"http://ville.saguenay.ca/fr/services-aux-citoyens/transport-sts","agencyTimeZoneOffset":-14400000,"routeColor":"FF00FF","routeType":3,"routeId":"1:15","routeTextColor":"FFFFFF","interlineWithPreviousLeg":false,"tripBlockId":"33","headsign":"Talbot / Barrette","agencyId":"0","tripId":"1:218199","serviceDate":"20180402","from":{"name":"Place du Royaume (Saguenéens)","stopId":"1:1294","stopCode":"1294","lon":-71.057691,"lat":48.402355,"arrival":1522715819000,"departure":1522715820000,"zoneId":"NA","stopIndex":24,"stopSequence":25,"vertexType":"TRANSIT"},"to":{"name":"Roitelets / Sapins","stopId":"1:1543","stopCode":"1543","lon":-71.069553,"lat":48.393375,"arrival":1522716120000,"departure":1522716120000,"zoneId":"NA","stopIndex":35,"stopSequence":36,"vertexType":"TRANSIT"},"legGeometry":{"points":"_rlfHjmupLbCaO?qLa@uJzF`ApF~@~@PzAgEeDcBf@qAWcKUqEx@Ef@ExDVjDxAFBrBvAfGjG@BjCzC~DxC@@zA~Cb@fCJlC?BsBre@?DWbOAn@?nEGnM@H\\hCzA~ELvAAlAi@jDo@nB","length":40},"routeShortName":"15","routeLongName":"Term. Chic / Costco","rentedBike":false,"transitLeg":true,"duration":300.0,"steps":[]},{"startTime":1522716120000,"endTime":1522716677000,"departureDelay":0,"arrivalDelay":0,"realTime":false,"distance":5264.696000246383,"pathway":false,"mode":"BUS","route":"14","agencyName":"Société de Transport du Saguenay","agencyUrl":"http://ville.saguenay.ca/fr/services-aux-citoyens/transport-sts","agencyTimeZoneOffset":-14400000,"routeColor":"C0C000","routeType":3,"routeId":"1:14","routeTextColor":"000000","interlineWithPreviousLeg":true,"tripBlockId":"33","headsign":"Terminus Chicoutimi","agencyId":"0","tripId":"1:218200","serviceDate":"20180402","from":{"name":"Roitelets / Sapins","stopId":"1:1513","stopCode":"1513","lon":-71.069396,"lat":48.393523,"arrival":1522716120000,"departure":1522716120000,"zoneId":"NA","stopIndex":0,"stopSequence":1,"vertexType":"TRANSIT"},"to":{"name":"Boily / Garnier","stopId":"1:1561","stopCode":"1561","lon":-71.0798,"lat":48.4117,"arrival":1522716677000,"departure":1522716678000,"zoneId":"NA","stopIndex":21,"stopSequence":22,"vertexType":"TRANSIT"},"legGeometry":{"points":"azjfHfwwpLiEfLuBzFsAnDgGzSWfAcD`Mi@dCgChLmCzMwGd\\aDxOdFtFhCtCdDY|F_On@aB`B_GNoBvAyT|@sNuAyAuF}F}AaB_BkAC@qC\\gAWiBwBiKgMiCwEgEyHCGy@uB}@rAa@nAc@lFEf@mGvUYfAqCs@ICMCqFmDc@s@mAkBuEoESUgAhDiAfD}@zDyAcA","length":52},"routeShortName":"14","routeLongName":"Coopérative","rentedBike":false,"transitLeg":true,"duration":557.0,"steps":[]},{"startTime":1522716678000,"endTime":1522717209000,"departureDelay":0,"arrivalDelay":0,"realTime":false,"distance":675.87,"pathway":false,"mode":"WALK","route":"","agencyTimeZoneOffset":-14400000,"interlineWithPreviousLeg":false,"from":{"name":"Boily / Garnier","stopId":"1:1561","stopCode":"1561","lon":-71.0798,"lat":48.4117,"arrival":1522716677000,"departure":1522716678000,"zoneId":"NA","stopIndex":21,"stopSequence":22,"vertexType":"TRANSIT"},"to":{"name":"Destination","lon":-71.086375,"lat":48.413697,"arrival":1522717209000,"orig":"","vertexType":"NORMAL"},"legGeometry":{"points":"ilnfHnxypLB@nAr@{@vDWzBY`D{@fDoAnBg@XoAh@IB[PSJe@VIVLTv@lAXdA@~@Up@e@xA","length":21},"rentedBike":false,"transitLeg":false,"duration":531.0,"steps":[{"distance":51.092999999999996,"relativeDirection":"DEPART","streetName":"Rue Boily","absoluteDirection":"SOUTHWEST","stayOn":false,"area":false,"bogusName":false,"lon":-71.07991450023346,"lat":48.4117325016581,"elevation":[]},{"distance":387.072,"relativeDirection":"RIGHT","streetName":"Rue Garnier","absoluteDirection":"NORTHWEST","stayOn":false,"area":false,"bogusName":false,"lon":-71.0801867,"lat":48.41131,"elevation":[]},{"distance":67.896,"relativeDirection":"CONTINUE","streetName":"Rue Saint-Augustin","absoluteDirection":"NORTH","stayOn":false,"area":false,"bogusName":false,"lon":-71.0842714,"lat":48.413164,"elevation":[]},{"distance":169.809,"relativeDirection":"LEFT","streetName":"Rue Brébeuf","absoluteDirection":"SOUTHWEST","stayOn":false,"area":false,"bogusName":false,"lon":-71.0846811,"lat":48.413698000000004,"elevation":[]}]}],"tooSloped":false}]},"debugOutput":{"precalculationTime":24,"pathCalculationTime":50,"pathTimes":[23,13,14],"renderingTime":1,"totalTime":75,"timedOut":false},"elevationMetadata":{"ellipsoidToGeoidDifference":-28.885904201182168,"geoidElevation":false}}