{"requestParameters":{"date":"2018/04/02","walkSpeed":"1.33","walkReluctance":"2.0","fromPlace":"48.375596,-71.13553","maxWalkDistance":"3000","waitReluctance":"1.0","carSpeed":"33","numItineraries":"3","waitAtBeginningFactor":"0.4","mode":"TRANSIT,WALK","ignoreRealtimeUpdates":"false","stairsReluctance":"2.0","toPlace":"48.424514,-71.088553","time":"17:50:00"},"plan":{"date":1522705800000,"from":{"name":"Origin","lon":-71.13553,"lat":48.375596,"orig":"","vertexType":"NORMAL"},"to":{"name":"Destination","lon":-71.088553,"lat":48.424514,"orig":"","vertexType":"NORMAL"},"itineraries":[{"duration":4051,"startTime":1522706195000,"endTime":1522710246000,"walkTime":1464,"transitTime":1385,"waitingTime":1202,"walkDistance":1930.7964511252237,"walkLimitExceeded":false,"elevationLost":0.0,"elevationGained":0.0,"transfers":1,"legs":[{"startTime":1522706195000,"endTime":1522707599000,"departureDelay":0,"arrivalDelay":0,"realTime":false,"distance":1858.406,"pathway":false,"mode":"WALK","route":"","agencyTimeZoneOffset":-14400000,"interlineWithPreviousLeg":false,"from":{"name":"Origin","lon":-71.13553,"lat":48.375596,"departure":1522706195000,"orig":"","vertexType":"NORMAL"},"to":{"name":"boul. Royaume / St-Pierre","stopId":"1:1922","stopCode":"1922","lon":-71.129819,"lat":48.391404,"arrival":1522707599000,"departure":1522707600000,"zoneId":"NA","stopIndex":7,"stopSequence":8,"vertexType":"TRANSIT"},"legGeometry":{"points":"ejgfHtsdqLaAuAk@e@{CaCyKiGgJsDkC{@_@Ic@KUAU@kA@wCRcD^gCJ{AF_BBQ@{@Cu@AoAIy@M[I_Bi@uAc@q@[aBu@aBs@_Ba@sAWmAUi@Eq@C]EQCUE?UAo@","length":38},"rentedBike":false,"transitLeg":false,"duration":1404.0,"steps":[{"distance":1832.7469999999998,"relativeDirection":"DEPART","streetName":"Rang Saint-Pierre","absoluteDirection":"NORTHEAST","stayOn":false,"area":false,"bogusName":false,"lon":-71.13546557425921,"lat":48.375559074547255,"elevation":[]},{"distance":25.659,"relativeDirection":"RIGHT","streetName":"Boulevard du Royaume Ouest","absoluteDirection":"EAST","stayOn":false,"area":false,"bogusName":false,"lon":-71.1301609,"lat":48.3913062,"elevation":[]}]},{"startTime":1522707600000,"endTime":1522707900000,"departureDelay":0,"arrivalDelay":0,"realTime":false,"distance":3059.442229057539,"pathway":false,"mode":"BUS","route":"2","agencyName":"Société de Transport du Saguenay","agencyUrl":"http://ville.saguenay.ca/fr/services-aux-citoyens/transport-sts","agencyTimeZoneOffset":-14400000,"routeColor":"FF0000","routeType":3,"routeId":"1:2","routeTextColor":"FFFFFF","interlineWithPreviousLeg":false,"tripBlockId":"7","headsign":"Terminus Jonquière","agencyId":"0","tripId":"1:217344","serviceDate":"20180402","from":{"name":"boul. Royaume / St-Pierre","stopId":"1:1922","stopCode":"1922","lon":-71.129819,"lat":48.391404,"arrival":1522707599000,"departure":1522707600000,"zoneId":"NA","stopIndex":7,"stopSequence":8,"vertexType":"TRANSIT"},"to":{"name":"Faubourg Sagamie","stopId":"1:1129","stopCode":"1129","lon":-71.167414,"lat":48.402974,"arrival":1522707900000,"departure":1522709100000,"zoneId":"NA","stopIndex":9,"stopSequence":10,"vertexType":"TRANSIT"},"legGeometry":{"points":"qljfHhpcqLFlB_@fOsBvK_DrH_G|HiSfXwExNyEzZoHll@}GpYuL`_@PPZ^lC|Bn@j@bB|A","length":17},"routeShortName":"2","routeLongName":"Chic/Jonq via Boul. Royaume","rentedBike":false,"transitLeg":true,"duration":300.0,"steps":[]},{"startTime":1522709100000,"endTime":1522710185000,"departureDelay":0,"arrivalDelay":0,"realTime":false,"distance":7150.680679959849,"pathway":false,"mode":"BUS","route":"16","agencyName":"Société de Transport du Saguenay","agencyUrl":"http://ville.saguenay.ca/fr/services-aux-citoyens/transport-sts","agencyTimeZoneOffset":-14400000,"routeColor":"00FF00","routeType":3,"routeId":"1:16","routeTextColor":"000000","interlineWithPreviousLeg":false,"tripBlockId":"36","headsign":"Terminus Chicoutimi","agencyId":"0","tripId":"1:218301","serviceDate":"20180402","from":{"name":"Faubourg Sagamie","stopId":"1:1129","stopCode":"1129","lon":-71.167414,"lat":48.402974,"arrival":1522707900000,"departure":1522709100000,"zoneId":"NA","stopIndex":0,"stopSequence":1,"vertexType":"TRANSIT"},"to":{"name":"ch. de la Réserve / Albanel","stopId":"1:623","stopCode":"623","lon":-71.0885,"lat":48.4237,"arrival":1522710185000,"departure":1522710186000,"zoneId":"NA","stopIndex":28,"stopSequence":29,"vertexType":"TRANSIT"},"legGeometry":{"points":"sulfHn{jqLq@g@J]kIkHbAoDzB{HhBoGxGiTd@{A`ByIXyCZcDaB_@aBoBeGmH[_@m@iClA_AlAuEj@yBt@iDDq@Z}EpAkDlAiAv@i@zB}AeA}H\\sCNgApDyKeE}EoEgF`@gAl@gB}GoImCqFeD_H}DcEiJqJgEeGqAyGk@kEg@_EmD}NkB_IUoBmB{PAiAI_IWkF_BoFM_@i@kCs@{B_CqPy@{FQmAoAwK[aEeByD}BkCmC_DaDqDyDcDkD]_Bc@aAY_IsGYo@}@mBqAkKg@aE@wFS}AiAaIgA{B}CiGiBeF","length":79},"routeShortName":"16","routeLongName":"Côte de la Réserve","rentedBike":false,"transitLeg":true,"duration":1085.0,"steps":[]},{"startTime":1522710186000,"endTime":1522710246000,"departureDelay":0,"arrivalDelay":0,"realTime":false,"distance":72.31,"pathway":false,"mode":"WALK","route":"","agencyTimeZoneOffset":-14400000,"interlineWithPreviousLeg":false,"from":{"name":"ch. de la Réserve / Albanel","stopId":"1:623","stopCode":"623","lon":-71.0885,"lat":48.4237,"arrival":1522710185000,"departure":1522710186000,"zoneId":"NA","stopIndex":28,"stopSequence":29,"vertexType":"TRANSIT"},"to":{"name":"Destination","lon":-71.088553,"lat":48.424514,"arrival":1522710246000,"orig":"","vertexType":"NORMAL"},"legGeometry":{"points":"kwpfHnn{pL??Ug@_@dASh@AF","length":6},"rentedBike":false,"transitLeg":false,"duration":60.0,"steps":[{"distance":19.582,"relativeDirection":"DEPART","streetName":"Chemin de la Réserve","absoluteDirection":"NORTHEAST","stayOn":false,"area":false,"bogusName":false,"lon":-71.08855534649012,"lat":48.423740347419006,"elevation":[]},{"distance":52.728,"relativeDirection":"LEFT","streetName":"Rue Albanel","absoluteDirection":"NORTHWEST","stayOn":false,"area":false,"bogusName":false,"lon":-71.0883591,"lat":48.423858900000006,"elevation":[]}]}],"tooSloped":false},{"duration":3852,"startTime":1522707284000,"endTime":1522711136000,"walkTime":2198,"transitTime":1652,"waitingTime":2,"walkDistance":2875.618894730135,"walkLimitExceeded":false,"elevationLost":0.0,"elevationGained":0.0,"transfers":0,"legs":[{"startTime":1522707284000,"endTime":1522708679000,"departureDelay":0,"arrivalDelay":0,"realTime":false,"distance":1845.4529999999997,"pathway":false,"mode":"WALK","route":"","agencyTimeZoneOffset":-14400000,"interlineWithPreviousLeg":false,"from":{"name":"Origin","lon":-71.13553,"lat":48.375596,"departure":1522707284000,"orig":"","vertexType":"NORMAL"},"to":{"name":"boul. Royaume / St-Pierre","stopId":"1:34","stopCode":"34","lon":-71.13054,"lat":48.391059,"arrival":1522708679000,"departure":1522708680000,"zoneId":"NA","stopIndex":0,"stopSequence":1,"vertexType":"TRANSIT"},"legGeometry":{"points":"ejgfHtsdqLaAuAk@e@{CaCyKiGgJsDkC{@_@Ic@KUAU@kA@wCRcD^gCJ{AF_BBQ@{@Cu@AoAIy@M[I_Bi@uAc@q@[aBu@aBs@_Ba@sAWmAUi@Eq@C]EQC?j@?V","length":37},"rentedBike":false,"transitLeg":false,"duration":1395.0,"steps":[{"distance":1819.6529999999998,"relativeDirection":"DEPART","streetName":"Rang Saint-Pierre","absoluteDirection":"NORTHEAST","stayOn":false,"area":false,"bogusName":false,"lon":-71.13546557425921,"lat":48.375559074547255,"elevation":[]},{"distance":25.8,"relativeDirection":"LEFT","streetName":"Boulevard du Royaume Ouest","absoluteDirection":"WEST","stayOn":false,"area":false,"bogusName":false,"lon":-71.1301906,"lat":48.3911901,"elevation":[]}]},{"startTime":1522708680000,"endTime":1522710332000,"departureDelay":0,"arrivalDelay":0,"realTime":false,"distance":7380.894223508241,"pathway":false,"mode":"BUS","route":"11","agencyName":"Société de Transport du Saguenay","agencyUrl":"http://ville.saguenay.ca/fr/services-aux-citoyens/transport-sts","agencyTimeZoneOffset":-14400000,"routeColor":"FF0000","routeType":3,"routeId":"1:11","routeTextColor":"FFFFFF","interlineWithPreviousLeg":false,"tripBlockId":"37","headsign":"Terminus Chicoutimi","agencyId":"0","tripId":"1:218327","serviceDate":"20180402","from":{"name":"boul. Royaume / St-Pierre","stopId":"1:34","stopCode":"34","lon":-71.13054,"lat":48.391059,"arrival":1522708679000,"departure":1522708680000,"zoneId":"NA","stopIndex":0,"stopSequence":1,"vertexType":"TRANSIT"},"to":{"name":"Doré / Bossé","stopId":"1:1851","stopCode":"1851","lon":-71.078314,"lat":48.423588,"arrival":1522710332000,"departure":1522710333000,"zoneId":"NA","stopIndex":24,"stopSequence":25,"vertexType":"TRANSIT"},"legGeometry":{"points":"ykjfHztcqL?{@[eF_@{IE_B?yBBuA@]LkCHaAf@}D\\mB\\mA@CVaAxBkGzFmOnDmJzByFO[Q]yBsBiMqLKIsFyFMQ}AuBuCgEmGaISV[|@Qj@K`@AFSlAYvBc@nCi@lCyE`T}@dEoLxh@GLIHI@KAgN{IhHu[p@aCjDyJfQie@`AmCJ[kXi[gKsLqMgOmAbDAVSl@y@vBeCuCoCaDkDuE_@g@{FwGOMnA}CnA_DJWu@iAW[S[yI{MmBqC{@wAQUw@gAsDiF_B_CQYa@cA[_AUy@YcBOgAYHu@\\M`@cAiBuAyBkHgL{C{E}AcCc@o@q@gAOWwCyCyGyG_IaIs@rBEHwAtDmBvEOd@[bBK~AIf@YHE@Q@O?OCI_@GMEKI_AB_A","length":116},"routeShortName":"11","routeLongName":"Chic/Faubourg via St-Paul","rentedBike":false,"transitLeg":true,"duration":1652.0,"steps":[]},{"startTime":1522710333000,"endTime":1522711136000,"departureDelay":0,"arrivalDelay":0,"realTime":false,"distance":1029.958,"pathway":false,"mode":"WALK","route":"","agencyTimeZoneOffset":-14400000,"interlineWithPreviousLeg":false,"from":{"name":"Doré / Bossé","stopId":"1:1851","stopCode":"1851","lon":-71.078314,"lat":48.423588,"arrival":1522710332000,"departure":1522710333000,"zoneId":"NA","stopIndex":24,"stopSequence":25,"vertexType":"TRANSIT"},"to":{"name":"Destination","lon":-71.088553,"lat":48.424514,"arrival":1522711136000,"orig":"","vertexType":"NORMAL"},"legGeometry":{"points":"gvpfHvmypLRDWtDDP?jAO`B_BpBqBpBs@t@Y`@Yl@aAxCi@zAyAfEjBrD~@hBBFf@dAbAzBz@bC~AhDZt@_@dASh@AF","length":25},"rentedBike":false,"transitLeg":false,"duration":803.0,"steps":[{"distance":11.439,"relativeDirection":"DEPART","streetName":"road","absoluteDirection":"SOUTH","stayOn":false,"area":false,"bogusName":true,"lon":-71.07819180328963,"lat":48.42356983840622,"elevation":[]},{"distance":68.065,"relativeDirection":"RIGHT","streetName":"Rue le Doré","absoluteDirection":"WEST","stayOn":false,"area":false,"bogusName":false,"lon":-71.0782257,"lat":48.4234694,"elevation":[]},{"distance":7.693,"relativeDirection":"LEFT","streetName":"Rue Bossé","absoluteDirection":"SOUTHWEST","stayOn":false,"area":false,"bogusName":false,"lon":-71.07913090000001,"lat":48.423587100000006,"elevation":[]},{"distance":65.531,"relativeDirection":"SLIGHTLY_RIGHT","streetName":"road","absoluteDirection":"WEST","stayOn":false,"area":false,"bogusName":true,"lon":-71.0792211,"lat":48.423552400000005,"elevation":[]},{"distance":179.39800000000002,"relativeDirection":"SLIGHTLY_RIGHT","streetName":"Rue Dubuc","absoluteDirection":"NORTHWEST","stayOn":false,"area":false,"bogusName":false,"lon":-71.080094,"lat":48.4236379,"elevation":[]},{"distance":238.88,"relativeDirection":"CONTINUE","streetName":"Côte Saint-Ange","absoluteDirection":"NORTHWEST","stayOn":false,"area":false,"bogusName":false,"lon":-71.0815067,"lat":48.424949000000005,"elevation":[]},{"distance":406.224,"relativeDirection":"LEFT","streetName":"Chemin de la Réserve","absoluteDirection":"SOUTHWEST","stayOn":false,"area":false,"bogusName":false,"lon":-71.0841347,"lat":48.426195400000005,"elevation":[]},{"distance":52.728,"relativeDirection":"RIGHT","streetName":"Rue Albanel","absoluteDirection":"NORTHWEST","stayOn":false,"area":false,"bogusName":false,"lon":-71.0883591,"lat":48.423858900000006,"elevation":[]}]}],"tooSloped":false},{"duration":4114,"startTime":1522709317000,"endTime":1522713431000,"walkTime":203,"transitTime":2746,"waitingTime":1165,"walkDistance":258.99066917074884,"walkLimitExceeded":false,"elevationLost":0.0,"elevationGained":0.0,"transfers":1,"legs":[{"startTime":1522709317000,"endTime":1522709361000,"departureDelay":0,"arrivalDelay":0,"realTime":false,"distance":58.254,"pathway":false,"mode":"WALK","route":"","agencyTimeZoneOffset":-14400000,"interlineWithPreviousLeg":false,"from":{"name":"Origin","lon":-71.13553,"lat":48.375596,"departure":1522709317000,"orig":"","vertexType":"NORMAL"},"to":{"name":"ch. St-Pierre (no. 3010)","stopId":"1:1785","stopCode":"1785","lon":-71.135837,"lat":48.37508,"arrival":1522709361000,"departure":1522709362000,"zoneId":"NA","stopIndex":20,"stopSequence":21,"vertexType":"TRANSIT"},"legGeometry":{"points":"ejgfHtsdqLlAfB","length":2},"rentedBike":false,"transitLeg":false,"duration":44.0,"steps":[{"distance":58.254,"relativeDirection":"DEPART","streetName":"Rang Saint-Pierre","absoluteDirection":"SOUTHWEST","stayOn":false,"area":false,"bogusName":false,"lon":-71.13546557425921,"lat":48.375559074547255,"elevation":[]}]},{"startTime":1522709362000,"endTime":1522709529000,"departureDelay":0,"arrivalDelay":0,"realTime":false,"distance":2699.6178101435494,"pathway":false,"mode":"BUS","route":"60","agencyName":"Société de Transport du Saguenay","agencyUrl":"http://ville.saguenay.ca/fr/services-aux-citoyens/transport-sts","agencyTimeZoneOffset":-14400000,"routeColor":"00FFFF","routeType":3,"routeId":"1:60","routeTextColor":"000000","interlineWithPreviousLeg":false,"tripBlockId":"53","headsign":"Costco","agencyId":"0","tripId":"1:218477","serviceDate":"20180402","from":{"name":"ch. St-Pierre (no. 3010)","stopId":"1:1785","stopCode":"1785","lon":-71.135837,"lat":48.37508,"arrival":1522709361000,"departure":1522709362000,"zoneId":"NA","stopIndex":20,"stopSequence":21,"vertexType":"TRANSIT"},"to":{"name":"boul. Royaume (no. 1460)","stopId":"1:267","stopCode":"267","lon":-71.1185,"lat":48.388791,"arrival":1522709529000,"departure":1522710692000,"zoneId":"NA","stopIndex":24,"stopSequence":25,"vertexType":"TRANSIT"},"legGeometry":{"points":"mggfHnvdqLqA_BkDgDoBuA{JsFgKgEoBo@aAS_CAeDR}Ej@yHP{BMgBYwC{@kGoCsBs@wAUqAUaCM[eF_@{IE_B?{BBsA@]LkCHaAf@}D\\mBZkA@EXaAxBkGzFmO","length":35},"routeShortName":"60","routeLongName":"Portage des Roches Nord","rentedBike":false,"transitLeg":true,"duration":167.0,"steps":[]},{"startTime":1522710692000,"endTime":1522712460000,"departureDelay":0,"arrivalDelay":0,"realTime":false,"distance":7665.843733910665,"pathway":false,"mode":"BUS","route":"11","agencyName":"Société de Transport du Saguenay","agencyUrl":"http://ville.saguenay.ca/fr/services-aux-citoyens/transport-sts","agencyTimeZoneOffset":-14400000,"routeColor":"FF0000","routeType":3,"routeId":"1:11","routeTextColor":"FFFFFF","interlineWithPreviousLeg":false,"tripBlockId":"34","headsign":"Terminus Chicoutimi","agencyId":"0","tripId":"1:218232","serviceDate":"20180402","from":{"name":"boul. Royaume (no. 1460)","stopId":"1:267","stopCode":"267","lon":-71.1185,"lat":48.388791,"arrival":1522709529000,"departure":1522710692000,"zoneId":"NA","stopIndex":3,"stopSequence":4,"vertexType":"TRANSIT"},"to":{"name":"Terminus Chicoutimi","stopId":"1:1289","stopCode":"1289","lon":-71.066163,"lat":48.428677,"arrival":1522712460000,"departure":1522712700000,"zoneId":"NA","stopIndex":30,"stopSequence":31,"vertexType":"TRANSIT"},"legGeometry":{"points":"i}ifHfiaqLnDmJzByFO[Q]yBsBiMqLKIsFyFMQ}AuBuCgEmGaISV[|@Qj@K`@AFSlAYvBc@nCi@lCyE`T}@dEoLxh@GLIHI@KAgN{IhHu[p@aCjDyJfQie@`AmCJ[kXi[gKsLqMgOmAbDAVSl@y@vBeCuCoCaDkDuE_@g@{FwGOMnA}CnA_DJWu@iAW[S[yI{MmBqC{@wAQUw@gAsDiF_B_CQYa@cA[_AUy@YcBOgAYHu@\\M`@cAiBuAyBkHgL{C{E}AcCc@o@q@gAOWwCyCyGyG_IaIs@rBEHwAtDmBvEOd@[bBK~AIf@YHE@Q@O?OCI_@GMEKI_AB_A?Yo@IKCIEIIKOEKCKe@}BKs@CQAUE_A@yCFcDVsLDaCD_@kBKW?e@Q_BQNuEDuBXmNLgHmKm@}BW{AMCn@o@G??","length":132},"routeShortName":"11","routeLongName":"Chic/Faubourg via St-Paul","rentedBike":false,"transitLeg":true,"duration":1768.0,"steps":[]},{"startTime":1522712700000,"endTime":1522713271000,"departureDelay":0,"arrivalDelay":0,"realTime":false,"distance":2967.5596063171365,"pathway":false,"mode":"BUS","route":"16","agencyName":"Société de Transport du Saguenay","agencyUrl":"http://ville.saguenay.ca/fr/services-aux-citoyens/transport-sts","agencyTimeZoneOffset":-14400000,"routeColor":"00FF00","routeType":3,"routeId":"1:16","routeTextColor":"000000","interlineWithPreviousLeg":true,"tripBlockId":"34","headsign":"Faubourg Sagamie","agencyId":"0","tripId":"1:218233","serviceDate":"20180402","from":{"name":"Terminus Chicoutimi","stopId":"1:1289","stopCode":"1289","lon":-71.066163,"lat":48.428677,"arrival":1522712460000,"departure":1522712700000,"zoneId":"NA","stopIndex":0,"stopSequence":1,"vertexType":"TRANSIT"},"to":{"name":"Dequen / Vilmond","stopId":"1:601","stopCode":"601","lon":-71.087641,"lat":48.424724,"arrival":1522713271000,"departure":1522713272000,"zoneId":"NA","stopIndex":15,"stopSequence":16,"vertexType":"TRANSIT"},"legGeometry":{"points":"evqfHzcwpLg@?AXCnAO~GxDVhCP~M~@jDTOrHKdGE^E~BQnIMhGAxCD~@Df@DVDZd@zBBLDJJNHHHDJBn@HCxAHdAFX@DFj@@b@Ab@SvAe@p@{EnEEB{@w@m@o@aDeDIKCMCM?SL}A?A@WCYi@mDOu@Wm@EIMSSWaAcAuAcBq@f@URa@d@u@`A}BzCV`DX~C@HFT^v@bA|AZ^`Av@\\`@Zf@pAvCtD`JJTrAtCpAjC@BvA|CvA~Ci@zA","length":82},"routeShortName":"16","routeLongName":"Côte de la Réserve","rentedBike":false,"transitLeg":true,"duration":571.0,"steps":[]},{"startTime":1522713272000,"endTime":1522713431000,"departureDelay":0,"arrivalDelay":0,"realTime":false,"distance":200.669,"pathway":false,"mode":"WALK","route":"","agencyTimeZoneOffset":-14400000,"interlineWithPreviousLeg":false,"from":{"name":"Dequen / Vilmond","stopId":"1:601","stopCode":"601","lon":-71.087641,"lat":48.424724,"arrival":1522713271000,"departure":1522713272000,"zoneId":"NA","stopIndex":15,"stopSequence":16,"vertexType":"TRANSIT"},"to":{"name":"Destination","lon":-71.088553,"lat":48.424514,"arrival":1522713431000,"orig":"","vertexType":"NORMAL"},"legGeometry":{"points":"g}pfH~h{pLh@wA~AhDZt@_@dASh@AF","length":7},"rentedBike":false,"transitLeg":false,"duration":159.0,"steps":[{"distance":40.67,"relativeDirection":"DEPART","streetName":"Rue De Quen","absoluteDirection":"SOUTHEAST","stayOn":false,"area":false,"bogusName":false,"lon":-71.08767920713842,"lat":48.42468992051686,"elevation":[]},{"distance":107.271,"relativeDirection":"RIGHT","streetName":"Chemin de la Réserve","absoluteDirection":"SOUTHWEST","stayOn":false,"area":false,"bogusName":false,"lon":-71.087237,"lat":48.424471600000004,"elevation":[]},{"distance":52.728,"relativeDirection":"RIGHT","streetName":"Rue Albanel","absoluteDirection":"NORTHWEST","stayOn":false,"area":false,"bogusName":false,"lon":-71.0883591,"lat":48.423858900000006,"elevation":[]}]}],"tooSloped":false}]},"debugOutput":{"precalculationTime":8,"pathCalculationTime":10,"pathTimes":[5,3,2],"renderingTime":1,"totalTime":19,"timedOut":false},"elevationMetadata":{"ellipsoidToGeoidDifference":-28.885904201182168,"geoidElevation":false}}