{"requestParameters":{"date":"2018/04/02","walkSpeed":"1.33","walkReluctance":"2.0","fromPlace":"48.416446,-71.07403999","maxWalkDistance":"3000","waitReluctance":"1.0","carSpeed":"33","numItineraries":"3","waitAtBeginningFactor":"0.4","mode":"TRANSIT,WALK","ignoreRealtimeUpdates":"false","stairsReluctance":"2.0","toPlace":"48.443436,-70.999472","time":"16:30:00"},"plan":{"date":1522701000000,"from":{"name":"Origin","lon":-71.07403999,"lat":48.416446,"orig":"","vertexType":"NORMAL"},"to":{"name":"Destination","lon":-70.999472,"lat":48.443436,"orig":"","vertexType":"NORMAL"},"itineraries":[{"duration":3995,"startTime":1522701138000,"endTime":1522705133000,"walkTime":2897,"transitTime":1096,"waitingTime":2,"walkDistance":3793.585759390308,"walkLimitExceeded":false,"elevationLost":0.0,"elevationGained":0.0,"transfers":0,"legs":[{"startTime":1522701138000,"endTime":1522701899000,"departureDelay":0,"arrivalDelay":0,"realTime":false,"distance":990.5859999999999,"pathway":false,"mode":"WALK","route":"","agencyTimeZoneOffset":-14400000,"interlineWithPreviousLeg":false,"from":{"name":"Origin","lon":-71.07403999,"lat":48.416446,"departure":1522701138000,"orig":"","vertexType":"NORMAL"},"to":{"name":"Champs-Élysées / Bégin","stopId":"1:566","stopCode":"566","lon":-71.064237,"lat":48.415762,"arrival":1522701899000,"departure":1522701900000,"zoneId":"NA","stopIndex":7,"stopSequence":8,"vertexType":"TRANSIT"},"legGeometry":{"points":"{iofHrsxpLz@eCPa@`CaH~CsIz@aCb@kAh@yA|AiEHQ_BwBsCqCw@w@CCGGsCqCMOo@m@j@kB","length":19},"rentedBike":false,"transitLeg":false,"duration":761.0,"steps":[{"distance":592.097,"relativeDirection":"DEPART","streetName":"Rue Des Oblats Est","absoluteDirection":"SOUTHEAST","stayOn":false,"area":false,"bogusName":false,"lon":-71.07401742285258,"lat":48.41646760216621,"elevation":[]},{"distance":352.20399999999995,"relativeDirection":"LEFT","streetName":"Rue Bégin","absoluteDirection":"NORTHEAST","stayOn":false,"area":false,"bogusName":false,"lon":-71.06744280000001,"lat":48.413416500000004,"elevation":[]},{"distance":46.285,"relativeDirection":"RIGHT","streetName":"Rue des Champs-Élysées","absoluteDirection":"SOUTHEAST","stayOn":false,"area":false,"bogusName":false,"lon":-71.0647342,"lat":48.416021,"elevation":[]}]},{"startTime":1522701900000,"endTime":1522702996000,"departureDelay":0,"arrivalDelay":0,"realTime":false,"distance":6278.926062737086,"pathway":false,"mode":"BUS","route":"12","agencyName":"Société de Transport du Saguenay","agencyUrl":"http://ville.saguenay.ca/fr/services-aux-citoyens/transport-sts","agencyTimeZoneOffset":-14400000,"routeColor":"556B2F","routeType":3,"routeId":"1:12","routeTextColor":"FFFFFF","interlineWithPreviousLeg":false,"tripBlockId":"29","headsign":"Terminus Chicoutimi","agencyId":"0","tripId":"1:218072","serviceDate":"20180402","from":{"name":"Champs-Élysées / Bégin","stopId":"1:566","stopCode":"566","lon":-71.064237,"lat":48.415762,"arrival":1522701899000,"departure":1522701900000,"zoneId":"NA","stopIndex":7,"stopSequence":8,"vertexType":"TRANSIT"},"to":{"name":"nouveau","stopId":"1:2303","stopCode":"2303","lon":-71.02291,"lat":48.432276,"arrival":1522702996000,"departure":1522702997000,"zoneId":"NA","stopIndex":24,"stopSequence":25,"vertexType":"TRANSIT"},"legGeometry":{"points":"oeofHnvvpLlAgIdCmFbAqDtBeCjFm@`Gs@hFo@xAmBrGcPxFoNlCyGa@yFYkD}CyA}KmFgD_BgAgBn@kFD_NoIgrAmD_WcAaLaDHoDJi`@wVoAbDbA|AnBU|B|AfBlAyLtKoGxFcFqDkJaHgEoDmDwC_TqQsBeB{HjWfAvA","length":41},"routeShortName":"12","routeLongName":"Rivière du Moulin","rentedBike":false,"transitLeg":true,"duration":1096.0,"steps":[]},{"startTime":1522702997000,"endTime":1522705133000,"departureDelay":0,"arrivalDelay":0,"realTime":false,"distance":2802.7459999999996,"pathway":false,"mode":"WALK","route":"","agencyTimeZoneOffset":-14400000,"interlineWithPreviousLeg":false,"from":{"name":"nouveau","stopId":"1:2303","stopCode":"2303","lon":-71.02291,"lat":48.432276,"arrival":1522702996000,"departure":1522702997000,"zoneId":"NA","stopIndex":24,"stopSequence":25,"vertexType":"TRANSIT"},"to":{"name":"Destination","lon":-70.999472,"lat":48.443436,"arrival":1522705133000,"orig":"","vertexType":"NORMAL"},"legGeometry":{"points":"mlrfHxsnpLA?eA{Aa@jA]v@y@tAmAyEYqAUa@q@oA_AmB[]iAqAs@y@q@w@u@_@KE]Mw@]g@QWEiAcAYWy@wA}@eCaBgFg@uAk@yBuBgKoAuIi@}DUqB?k@TwAz@_D`@{Az@mCl@uAw@cD_@yA]mCIi@YqE_@yEo@aEiBcHaFyJuAeBsEoDCC}AlCOn@y@bF","length":53},"rentedBike":false,"transitLeg":false,"duration":2136.0,"steps":[{"distance":51.95,"relativeDirection":"DEPART","streetName":"Rue Arthur-Hamel","absoluteDirection":"NORTHEAST","stayOn":false,"area":false,"bogusName":false,"lon":-71.02284512319854,"lat":48.43223878297246,"elevation":[]},{"distance":105.887,"relativeDirection":"LEFT","streetName":"Rue du Perche","absoluteDirection":"NORTHWEST","stayOn":false,"area":false,"bogusName":false,"lon":-71.02238460000001,"lat":48.4325922,"elevation":[]},{"distance":1537.165,"relativeDirection":"RIGHT","streetName":"Boulevard Renaud","absoluteDirection":"NORTHEAST","stayOn":false,"area":false,"bogusName":false,"lon":-71.0234782,"lat":48.433204200000006,"elevation":[]},{"distance":923.407,"relativeDirection":"LEFT","streetName":"Rang Saint-Martin","absoluteDirection":"NORTHEAST","stayOn":false,"area":false,"bogusName":false,"lon":-71.00717900000001,"lat":48.4387108,"elevation":[]},{"distance":184.337,"relativeDirection":"LEFT","streetName":"Chemin du Littoral","absoluteDirection":"NORTHWEST","stayOn":false,"area":false,"bogusName":false,"lon":-70.9971124,"lat":48.443052,"elevation":[]}]}],"tooSloped":false},{"duration":4012,"startTime":1522702300000,"endTime":1522706312000,"walkTime":2239,"transitTime":1351,"waitingTime":422,"walkDistance":2932.317300744771,"walkLimitExceeded":false,"elevationLost":0.0,"elevationGained":0.0,"transfers":1,"legs":[{"startTime":1522702300000,"endTime":1522702404000,"departureDelay":0,"arrivalDelay":0,"realTime":false,"distance":129.713,"pathway":false,"mode":"WALK","route":"","agencyTimeZoneOffset":-14400000,"interlineWithPreviousLeg":false,"from":{"name":"Origin","lon":-71.07403999,"lat":48.416446,"departure":1522702300000,"orig":"","vertexType":"NORMAL"},"to":{"name":"Boily / Oblats","stopId":"1:549","stopCode":"549","lon":-71.075339,"lat":48.416894,"arrival":1522702404000,"departure":1522702405000,"zoneId":"NA","stopIndex":24,"stopSequence":25,"vertexType":"TRANSIT"},"legGeometry":{"points":"{iofHrsxpLmAhDe@pAXV","length":4},"rentedBike":false,"transitLeg":false,"duration":104.0,"steps":[{"distance":112.922,"relativeDirection":"DEPART","streetName":"Rue Des Oblats Est","absoluteDirection":"NORTHWEST","stayOn":false,"area":false,"bogusName":false,"lon":-71.07401742285258,"lat":48.41646760216621,"elevation":[]},{"distance":16.791,"relativeDirection":"LEFT","streetName":"Rue Boily","absoluteDirection":"SOUTHWEST","stayOn":false,"area":false,"bogusName":false,"lon":-71.07527490000001,"lat":48.4170462,"elevation":[]}]},{"startTime":1522702405000,"endTime":1522703280000,"departureDelay":0,"arrivalDelay":0,"realTime":false,"distance":3687.071832388585,"pathway":false,"mode":"BUS","route":"14","agencyName":"Société de Transport du Saguenay","agencyUrl":"http://ville.saguenay.ca/fr/services-aux-citoyens/transport-sts","agencyTimeZoneOffset":-14400000,"routeColor":"C0C000","routeType":3,"routeId":"1:14","routeTextColor":"000000","interlineWithPreviousLeg":false,"tripBlockId":"33","headsign":"Terminus Chicoutimi","agencyId":"0","tripId":"1:218192","serviceDate":"20180402","from":{"name":"Boily / Oblats","stopId":"1:549","stopCode":"549","lon":-71.075339,"lat":48.416894,"arrival":1522702404000,"departure":1522702405000,"zoneId":"NA","stopIndex":24,"stopSequence":25,"vertexType":"TRANSIT"},"to":{"name":"Terminus Chicoutimi","stopId":"1:1289","stopCode":"1289","lon":-71.066163,"lat":48.428677,"arrival":1522703280000,"departure":1522703700000,"zoneId":"NA","stopIndex":37,"stopSequence":38,"vertexType":"TRANSIT"},"legGeometry":{"points":"wlofHh|xpL][aBhE}@}@oBmBwE{EwE{Ej@mBZeAa@SyEQg@CPcALuCx@{b@t@{[XoDd@sBl@iB~@gA`G{F{A{D_@sBFqDOq@iG{FGIoCkCgBgBsDpLHzBBT`@~COnBQf@gAjAg@bBuDmDmFgFa@_@w@s@CfAOrBEtAGbA?jBQtC?|@ExKMdIG~EUnLEhC}CKkBOkCOYbC","length":57},"routeShortName":"14","routeLongName":"Coopérative","rentedBike":false,"transitLeg":true,"duration":875.0,"steps":[]},{"startTime":1522703700000,"endTime":1522704176000,"departureDelay":0,"arrivalDelay":0,"realTime":false,"distance":3438.891887320039,"pathway":false,"mode":"BUS","route":"12","agencyName":"Société de Transport du Saguenay","agencyUrl":"http://ville.saguenay.ca/fr/services-aux-citoyens/transport-sts","agencyTimeZoneOffset":-14400000,"routeColor":"556B2F","routeType":3,"routeId":"1:12","routeTextColor":"FFFFFF","interlineWithPreviousLeg":false,"tripBlockId":"28","headsign":"Terminus UQAC","agencyId":"0","tripId":"1:218047","serviceDate":"20180402","from":{"name":"Terminus Chicoutimi","stopId":"1:1289","stopCode":"1289","lon":-71.066163,"lat":48.428677,"arrival":1522703280000,"departure":1522703700000,"zoneId":"NA","stopIndex":0,"stopSequence":1,"vertexType":"TRANSIT"},"to":{"name":"Arthur-Hamel / Perche","stopId":"1:1527","stopCode":"1527","lon":-71.02277,"lat":48.4322,"arrival":1522704176000,"departure":1522704177000,"zoneId":"NA","stopIndex":14,"stopSequence":15,"vertexType":"TRANSIT"},"legGeometry":{"points":"evqfHpbwpLpFcj@IaKmFy^_DaZz@u]SeV}@aNs@gKToKd@gTnCyHkGuLqFqJ_DeF","length":15},"routeShortName":"12","routeLongName":"Rivière du Moulin","rentedBike":false,"transitLeg":true,"duration":476.0,"steps":[]},{"startTime":1522704177000,"endTime":1522706312000,"departureDelay":0,"arrivalDelay":0,"realTime":false,"distance":2802.3839999999996,"pathway":false,"mode":"WALK","route":"","agencyTimeZoneOffset":-14400000,"interlineWithPreviousLeg":false,"from":{"name":"Arthur-Hamel / Perche","stopId":"1:1527","stopCode":"1527","lon":-71.02277,"lat":48.4322,"arrival":1522704176000,"departure":1522704177000,"zoneId":"NA","stopIndex":14,"stopSequence":15,"vertexType":"TRANSIT"},"to":{"name":"Destination","lon":-70.999472,"lat":48.443436,"arrival":1522706312000,"orig":"","vertexType":"NORMAL"},"legGeometry":{"points":"olrfHxsnpLeA{Aa@jA]v@y@tAmAyEYqAUa@q@oA_AmB[]iAqAs@y@q@w@u@_@KE]Mw@]g@QWEiAcAYWy@wA}@eCaBgFg@uAk@yBuBgKoAuIi@}DUqB?k@TwAz@_D`@{Az@mCl@uAw@cD_@yA]mCIi@YqE_@yEo@aEiBcHaFyJuAeBsEoDCC}AlCOn@y@bF","length":52},"rentedBike":false,"transitLeg":false,"duration":2135.0,"steps":[{"distance":51.588,"relativeDirection":"DEPART","streetName":"Rue Arthur-Hamel","absoluteDirection":"NORTHEAST","stayOn":false,"area":false,"bogusName":false,"lon":-71.02284190781319,"lat":48.43224125053964,"elevation":[]},{"distance":105.887,"relativeDirection":"LEFT","streetName":"Rue du Perche","absoluteDirection":"NORTHWEST","stayOn":false,"area":false,"bogusName":false,"lon":-71.02238460000001,"lat":48.4325922,"elevation":[]},{"distance":1537.165,"relativeDirection":"RIGHT","streetName":"Boulevard Renaud","absoluteDirection":"NORTHEAST","stayOn":false,"area":false,"bogusName":false,"lon":-71.0234782,"lat":48.433204200000006,"elevation":[]},{"distance":923.407,"relativeDirection":"LEFT","streetName":"Rang Saint-Martin","absoluteDirection":"NORTHEAST","stayOn":false,"area":false,"bogusName":false,"lon":-71.00717900000001,"lat":48.4387108,"elevation":[]},{"distance":184.337,"relativeDirection":"LEFT","streetName":"Chemin du Littoral","absoluteDirection":"NORTHWEST","stayOn":false,"area":false,"bogusName":false,"lon":-70.9971124,"lat":48.443052,"elevation":[]}]}],"tooSloped":false},{"duration":3995,"startTime":1522702938000,"endTime":1522706933000,"walkTime":2897,"transitTime":1096,"waitingTime":2,"walkDistance":3793.585759390308,"walkLimitExceeded":false,"elevationLost":0.0,"elevationGained":0.0,"transfers":0,"legs":[{"startTime":1522702938000,"endTime":1522703699000,"departureDelay":0,"arrivalDelay":0,"realTime":false,"distance":990.5859999999999,"pathway":false,"mode":"WALK","route":"","agencyTimeZoneOffset":-14400000,"interlineWithPreviousLeg":false,"from":{"name":"Origin","lon":-71.07403999,"lat":48.416446,"departure":1522702938000,"orig":"","vertexType":"NORMAL"},"to":{"name":"Champs-Élysées / Bégin","stopId":"1:566","stopCode":"566","lon":-71.064237,"lat":48.415762,"arrival":1522703699000,"departure":1522703700000,"zoneId":"NA","stopIndex":7,"stopSequence":8,"vertexType":"TRANSIT"},"legGeometry":{"points":"{iofHrsxpLz@eCPa@`CaH~CsIz@aCb@kAh@yA|AiEHQ_BwBsCqCw@w@CCGGsCqCMOo@m@j@kB","length":19},"rentedBike":false,"transitLeg":false,"duration":761.0,"steps":[{"distance":592.097,"relativeDirection":"DEPART","streetName":"Rue Des Oblats Est","absoluteDirection":"SOUTHEAST","stayOn":false,"area":false,"bogusName":false,"lon":-71.07401742285258,"lat":48.41646760216621,"elevation":[]},{"distance":352.20399999999995,"relativeDirection":"LEFT","streetName":"Rue Bégin","absoluteDirection":"NORTHEAST","stayOn":false,"area":false,"bogusName":false,"lon":-71.06744280000001,"lat":48.413416500000004,"elevation":[]},{"distance":46.285,"relativeDirection":"RIGHT","streetName":"Rue des Champs-Élysées","absoluteDirection":"SOUTHEAST","stayOn":false,"area":false,"bogusName":false,"lon":-71.0647342,"lat":48.416021,"elevation":[]}]},{"startTime":1522703700000,"endTime":1522704796000,"departureDelay":0,"arrivalDelay":0,"realTime":false,"distance":6278.926062737086,"pathway":false,"mode":"BUS","route":"12","agencyName":"Société de Transport du Saguenay","agencyUrl":"http://ville.saguenay.ca/fr/services-aux-citoyens/transport-sts","agencyTimeZoneOffset":-14400000,"routeColor":"556B2F","routeType":3,"routeId":"1:12","routeTextColor":"FFFFFF","interlineWithPreviousLeg":false,"tripBlockId":"26","headsign":"Terminus Chicoutimi","agencyId":"0","tripId":"1:217985","serviceDate":"20180402","from":{"name":"Champs-Élysées / Bégin","stopId":"1:566","stopCode":"566","lon":-71.064237,"lat":48.415762,"arrival":1522703699000,"departure":1522703700000,"zoneId":"NA","stopIndex":7,"stopSequence":8,"vertexType":"TRANSIT"},"to":{"name":"nouveau","stopId":"1:2303","stopCode":"2303","lon":-71.02291,"lat":48.432276,"arrival":1522704796000,"departure":1522704797000,"zoneId":"NA","stopIndex":24,"stopSequence":25,"vertexType":"TRANSIT"},"legGeometry":{"points":"oeofHnvvpLlAgIdCmFbAqDtBeCjFm@`Gs@hFo@xAmBrGcPxFoNlCyGa@yFYkD}CyA}KmFgD_BgAgBn@kFD_NoIgrAmD_WcAaLaDHoDJi`@wVoAbDbA|AnBU|B|AfBlAyLtKoGxFcFqDkJaHgEoDmDwC_TqQsBeB{HjWfAvA","length":41},"routeShortName":"12","routeLongName":"Rivière du Moulin","rentedBike":false,"transitLeg":true,"duration":1096.0,"steps":[]},{"startTime":1522704797000,"endTime":1522706933000,"departureDelay":0,"arrivalDelay":0,"realTime":false,"distance":2802.7459999999996,"pathway":false,"mode":"WALK","route":"","agencyTimeZoneOffset":-14400000,"interlineWithPreviousLeg":false,"from":{"name":"nouveau","stopId":"1:2303","stopCode":"2303","lon":-71.02291,"lat":48.432276,"arrival":1522704796000,"departure":1522704797000,"zoneId":"NA","stopIndex":24,"stopSequence":25,"vertexType":"TRANSIT"},"to":{"name":"Destination","lon":-70.999472,"lat":48.443436,"arrival":1522706933000,"orig":"","vertexType":"NORMAL"},"legGeometry":{"points":"mlrfHxsnpLA?eA{Aa@jA]v@y@tAmAyEYqAUa@q@oA_AmB[]iAqAs@y@q@w@u@_@KE]Mw@]g@QWEiAcAYWy@wA}@eCaBgFg@uAk@yBuBgKoAuIi@}DUqB?k@TwAz@_D`@{Az@mCl@uAw@cD_@yA]mCIi@YqE_@yEo@aEiBcHaFyJuAeBsEoDCC}AlCOn@y@bF","length":53},"rentedBike":false,"transitLeg":false,"duration":2136.0,"steps":[{"distance":51.95,"relativeDirection":"DEPART","streetName":"Rue Arthur-Hamel","absoluteDirection":"NORTHEAST","stayOn":false,"area":false,"bogusName":false,"lon":-71.02284512319854,"lat":48.43223878297246,"elevation":[]},{"distance":105.887,"relativeDirection":"LEFT","streetName":"Rue du Perche","absoluteDirection":"NORTHWEST","stayOn":false,"area":false,"bogusName":false,"lon":-71.02238460000001,"lat":48.4325922,"elevation":[]},{"distance":1537.165,"relativeDirection":"RIGHT","streetName":"Boulevard Renaud","absoluteDirection":"NORTHEAST","stayOn":false,"area":false,"bogusName":false,"lon":-71.0234782,"lat":48.433204200000006,"elevation":[]},{"distance":923.407,"relativeDirection":"LEFT","streetName":"Rang Saint-Martin","absoluteDirection":"NORTHEAST","stayOn":false,"area":false,"bogusName":false,"lon":-71.00717900000001,"lat":48.4387108,"elevation":[]},{"distance":184.337,"relativeDirection":"LEFT","streetName":"Chemin du Littoral","absoluteDirection":"NORTHWEST","stayOn":false,"area":false,"bogusName":false,"lon":-70.9971124,"lat":48.443052,"elevation":[]}]}],"tooSloped":false}]},"debugOutput":{"precalculationTime":19,"pathCalculationTime":73,"pathTimes":[30,20,23],"renderingTime":0,"totalTime":92,"timedOut":false},"elevationMetadata":{"ellipsoidToGeoidDifference":-28.885904201182168,"geoidElevation":false}}