{"requestParameters":{"date":"2018/04/02","walkSpeed":"1.33","walkReluctance":"2.0","fromPlace":"48.440221,-70.974786","maxWalkDistance":"3000","waitReluctance":"1.0","carSpeed":"33","numItineraries":"3","waitAtBeginningFactor":"0.4","mode":"TRANSIT,WALK","ignoreRealtimeUpdates":"false","stairsReluctance":"2.0","toPlace":"48.383492,-71.08352999","time":"14:0:00"},"plan":{"date":1522692000000,"from":{"name":"Origin","lon":-70.974786,"lat":48.440221,"orig":"","vertexType":"NORMAL"},"to":{"name":"Destination","lon":-71.08352999,"lat":48.383492,"orig":"","vertexType":"NORMAL"},"itineraries":[{"duration":5759,"startTime":1522700523000,"endTime":1522706282000,"walkTime":1739,"transitTime":2675,"waitingTime":1345,"walkDistance":2300.338849622775,"walkLimitExceeded":false,"elevationLost":0.0,"elevationGained":0.0,"transfers":2,"legs":[{"startTime":1522700523000,"endTime":1522701479000,"departureDelay":0,"arrivalDelay":0,"realTime":false,"distance":1266.5700000000002,"pathway":false,"mode":"WALK","route":"","agencyTimeZoneOffset":-14400000,"interlineWithPreviousLeg":false,"from":{"name":"Origin","lon":-70.974786,"lat":48.440221,"departure":1522700523000,"orig":"","vertexType":"NORMAL"},"to":{"name":"Légumier (face)","stopId":"1:119","stopCode":"119","lon":-70.961487,"lat":48.433016,"arrival":1522701479000,"departure":1522701480000,"zoneId":"NA","stopIndex":13,"stopSequence":14,"vertexType":"TRANSIT"},"legGeometry":{"points":"}_tfHjeepLn@wAfA_C`CcFhCwFrCcGx@gBlEmJhDmHn@sArDkHzD_KjAiC","length":13},"rentedBike":false,"transitLeg":false,"duration":956.0,"steps":[{"distance":1266.5700000000002,"relativeDirection":"DEPART","streetName":"Rang Saint-Martin","absoluteDirection":"SOUTHEAST","stayOn":false,"area":false,"bogusName":false,"lon":-70.97445536315098,"lat":48.44047963374101,"elevation":[]}]},{"startTime":1522701480000,"endTime":1522702800000,"departureDelay":0,"arrivalDelay":0,"realTime":false,"distance":15398.8689950227,"pathway":false,"mode":"BUS","route":"13","agencyName":"Société de Transport du Saguenay","agencyUrl":"http://ville.saguenay.ca/fr/services-aux-citoyens/transport-sts","agencyTimeZoneOffset":-14400000,"routeColor":"00FFFF","routeType":3,"routeId":"1:13","routeTextColor":"000000","interlineWithPreviousLeg":false,"tripBlockId":"56","headsign":"St-Martin / St-Joseph","agencyId":"0","tripId":"1:218524","serviceDate":"20180402","from":{"name":"Légumier (face)","stopId":"1:119","stopCode":"119","lon":-70.961487,"lat":48.433016,"arrival":1522701479000,"departure":1522701480000,"zoneId":"NA","stopIndex":13,"stopSequence":14,"vertexType":"TRANSIT"},"to":{"name":"rang St-Joseph / St-Martin","stopId":"1:13","stopCode":"13","lon":-71.013844,"lat":48.431087,"arrival":1522702800000,"departure":1522702800000,"zoneId":"NA","stopIndex":18,"stopSequence":19,"vertexType":"TRANSIT"},"legGeometry":{"points":"errfHdsbpLvB}EbDkHtCqGzCaHdDgGdCuEpBwDnBoD|AuCzA}F~@gKBmH?{@ScLk@iK{@sOTuDvAcJ|@{FdBgL|@wFbCgFfCsFXw@bAqCrBcGpCaItBgGvCqI`DcJzDcLzCgJRk@n@oE?ALy@B[Bc@d@yGFgAPaCReDXmEnA{GvBkGz@oAxAmBfAc@|BaAb@ShAsA|AoE~A}Eb@oA^kBX{BX}GDoADyAD_A@E?Q@U@UF{AJkDXsE|@uGt@uEVaBRqBCqCu@qCcBoE]iC@cCdAeG\\gDjG{T?wCW}GV}EpAgHnBkFlH_JrH`GrI|H`CrE|FxIvGrDnXpJ`BpAxCdG`AzETjC_@`Ie@~B{IpTmHzSoDxJaCdPoFh]wD~VsB|NaEl]BbJVjHj@zC`@zDf@bD`@vBXjBZvBDnATvB^fB^pCl@bCVvCp@zBTfC`@~AXxAVlAvCvIfBtCfApAtBxBnE|E|EfFhDzD`EtEj@n@cDfI{CxHsChHyArDyAlDy@pBsAxDaDlJsDnKsDtKeDtJq@pB_AvB{AzBqAtBo@~@aC~FsBhF}CtHaG|NeEdKiDrIsAnBiA~@qBf@}DdAqBh@yGxFiB~AqAp@iAd@w@^w@vByChIgBdHsAnLUfBe@fASj@Sh@]d@_@l@iE`E_EzDeA|ASx@_@fNEtCKxCI|@_@lC}ChI{AzFyBbIaArDoA~DgD~EY\\KPm@~@_@p@m@p@mAxC}@nBk@xAw@dBkAnC{AdD[x@kB`Ge@zDSdBEVEZCTANANCNCJA\\Eb@G`@Gb@CZA^C`@Cb@Aj@?j@A`@C`@Al@Cd@Cr@Ct@?z@Av@S`BKr@S~@UdAUbAU~@Y~@Y`ASp@Mf@Qj@ERELEJABAB?@IRAFCHAFEHEP]fAQp@M^Qn@uBlH","length":259},"routeShortName":"13","routeLongName":"Rang St-Martin / St-Jospeh","rentedBike":false,"transitLeg":true,"duration":1320.0,"steps":[]},{"startTime":1522702800000,"endTime":1522703430000,"departureDelay":0,"arrivalDelay":0,"realTime":false,"distance":835.2370000000002,"pathway":false,"mode":"WALK","route":"","agencyTimeZoneOffset":-14400000,"interlineWithPreviousLeg":false,"from":{"name":"rang St-Joseph / St-Martin","stopId":"1:13","stopCode":"13","lon":-71.013844,"lat":48.431087,"arrival":1522702800000,"departure":1522702800000,"zoneId":"NA","stopIndex":18,"stopSequence":19,"vertexType":"TRANSIT"},"to":{"name":"Normandie / Cèdres","stopId":"1:1529","stopCode":"1529","lon":-71.020638,"lat":48.428932,"arrival":1522703430000,"departure":1522704276000,"zoneId":"NA","stopIndex":17,"stopSequence":18,"vertexType":"TRANSIT"},"legGeometry":{"points":"sdrfHb|lpLOf@\\H|D|@CPATCZC^G\\ITGVIRELjCxBhA`Az@d@\\LPDAlFAvBKx@Qz@GBGEgAs@eAvD~@z@pAfA","length":28},"rentedBike":false,"transitLeg":false,"duration":630.0,"steps":[{"distance":17.368,"relativeDirection":"DEPART","streetName":"Rang Saint-Joseph","absoluteDirection":"NORTHWEST","stayOn":false,"area":false,"bogusName":false,"lon":-71.0139347545022,"lat":48.430985694046385,"elevation":[]},{"distance":125.143,"relativeDirection":"LEFT","streetName":"Rang Saint-Martin","absoluteDirection":"SOUTH","stayOn":false,"area":false,"bogusName":false,"lon":-71.0141371,"lat":48.4310655,"elevation":[]},{"distance":84.669,"relativeDirection":"RIGHT","streetName":"road","absoluteDirection":"WEST","stayOn":false,"area":false,"bogusName":true,"lon":-71.0144971,"lat":48.429965700000004,"elevation":[]},{"distance":201.82600000000002,"relativeDirection":"LEFT","streetName":"Rue d'Anjou","absoluteDirection":"SOUTHWEST","stayOn":false,"area":false,"bogusName":false,"lon":-71.0155488,"lat":48.430243600000004,"elevation":[]},{"distance":189.337,"relativeDirection":"RIGHT","streetName":"Rue des Cormiers","absoluteDirection":"WEST","stayOn":false,"area":false,"bogusName":false,"lon":-71.0167705,"lat":48.4286303,"elevation":[]},{"distance":43.618,"relativeDirection":"RIGHT","streetName":"Rue de la Rochelle","absoluteDirection":"NORTHEAST","stayOn":false,"area":false,"bogusName":false,"lon":-71.01914380000001,"lat":48.4288873,"elevation":[]},{"distance":78.442,"relativeDirection":"LEFT","streetName":"Rue de Bretagne","absoluteDirection":"NORTHWEST","stayOn":false,"area":false,"bogusName":false,"lon":-71.0188863,"lat":48.429240400000005,"elevation":[]},{"distance":94.834,"relativeDirection":"LEFT","streetName":"Rue de Normandie","absoluteDirection":"SOUTHWEST","stayOn":false,"area":false,"bogusName":false,"lon":-71.0198045,"lat":48.429596000000004,"elevation":[]}]},{"startTime":1522704276000,"endTime":1522704992000,"departureDelay":0,"arrivalDelay":0,"realTime":false,"distance":4252.145245244275,"pathway":false,"mode":"BUS","route":"12","agencyName":"Société de Transport du Saguenay","agencyUrl":"http://ville.saguenay.ca/fr/services-aux-citoyens/transport-sts","agencyTimeZoneOffset":-14400000,"routeColor":"556B2F","routeType":3,"routeId":"1:12","routeTextColor":"FFFFFF","interlineWithPreviousLeg":false,"tripBlockId":"28","headsign":"Terminus UQAC","agencyId":"0","tripId":"1:218047","serviceDate":"20180402","from":{"name":"Normandie / Cèdres","stopId":"1:1529","stopCode":"1529","lon":-71.020638,"lat":48.428932,"arrival":1522703430000,"departure":1522704276000,"zoneId":"NA","stopIndex":17,"stopSequence":18,"vertexType":"TRANSIT"},"to":{"name":"Émile Girardin / Roitelets","stopId":"1:253","stopCode":"253","lon":-71.050677,"lat":48.406726,"arrival":1522704992000,"departure":1522705489000,"zoneId":"NA","stopIndex":27,"stopSequence":28,"vertexType":"TRANSIT"},"legGeometry":{"points":"ywqfH~enpL`JlH`EfDnOdIdGlGjL|BzBiLv@}L`b@fNvVvrCdRvM","length":11},"routeShortName":"12","routeLongName":"Rivière du Moulin","rentedBike":false,"transitLeg":true,"duration":716.0,"steps":[]},{"startTime":1522705489000,"endTime":1522706128000,"departureDelay":0,"arrivalDelay":0,"realTime":false,"distance":3783.051094684991,"pathway":false,"mode":"BUS","route":"175","agencyName":"Société de Transport du Saguenay","agencyUrl":"http://ville.saguenay.ca/fr/services-aux-citoyens/transport-sts","agencyTimeZoneOffset":-14400000,"routeColor":"FF00FF","routeType":3,"routeId":"1:175","routeTextColor":"FFFFFF","interlineWithPreviousLeg":false,"tripBlockId":"77","headsign":"Costco","agencyId":"0","tripId":"1:218639","serviceDate":"20180402","from":{"name":"Émile Girardin / Roitelets","stopId":"1:253","stopCode":"253","lon":-71.050677,"lat":48.406726,"arrival":1522704992000,"departure":1522705489000,"zoneId":"NA","stopIndex":17,"stopSequence":18,"vertexType":"TRANSIT"},"to":{"name":"boul. Talbot (no. 2406)","stopId":"1:76","stopCode":"76","lon":-71.081157,"lat":48.38457,"arrival":1522706128000,"departure":1522706129000,"zoneId":"NA","stopIndex":29,"stopSequence":30,"vertexType":"TRANSIT"},"legGeometry":{"points":"_lmfHhatpLr@~Gx@]PEr@ObACn@FrBb@|@Ch@Kx@U~HsB^KZ|DJpII~Fa@rFUzBi@bDUxAm@nCcAlDM^RTfD`DjF`FjCrCrAvAbCfDjIfMdAzAfFpHd@n@nC`DlXv[b@f@mCtHv@v@p@r@_@p@uAcBjDoJhAzApBrBrFvGjDdEbD|DZb@~DrEbDfDrA~A","length":51},"routeShortName":"175","routeLongName":"Term. Chic / Costco","rentedBike":false,"transitLeg":true,"duration":639.0,"steps":[]},{"startTime":1522706129000,"endTime":1522706282000,"departureDelay":0,"arrivalDelay":0,"realTime":false,"distance":198.49200000000002,"pathway":false,"mode":"WALK","route":"","agencyTimeZoneOffset":-14400000,"interlineWithPreviousLeg":false,"from":{"name":"boul. Talbot (no. 2406)","stopId":"1:76","stopCode":"76","lon":-71.081157,"lat":48.38457,"arrival":1522706128000,"departure":1522706129000,"zoneId":"NA","stopIndex":29,"stopSequence":30,"vertexType":"TRANSIT"},"to":{"name":"Destination","lon":-71.08352999,"lat":48.383492,"arrival":1522706282000,"orig":"","vertexType":"NORMAL"},"legGeometry":{"points":"k}hfHbfzpLABwBpFPt@rAlB","length":5},"rentedBike":false,"transitLeg":false,"duration":153.0,"steps":[{"distance":113.958,"relativeDirection":"DEPART","streetName":"Rue des Routiers","absoluteDirection":"NORTHWEST","stayOn":false,"area":false,"bogusName":false,"lon":-71.08209375094117,"lat":48.3837423917909,"elevation":[]},{"distance":84.534,"relativeDirection":"LEFT","streetName":"service road","absoluteDirection":"SOUTHWEST","stayOn":false,"area":false,"bogusName":false,"lon":-71.083326,"lat":48.3843593,"elevation":[]}]}],"tooSloped":false}]},"debugOutput":{"precalculationTime":1,"pathCalculationTime":4,"pathTimes":[4],"renderingTime":1,"totalTime":6,"timedOut":false},"elevationMetadata":{"ellipsoidToGeoidDifference":-28.885904201182168,"geoidElevation":false}}