{"requestParameters":{"date":"2018/04/02","walkSpeed":"1.33","walkReluctance":"2.0","fromPlace":"48.403882,-71.063421","maxWalkDistance":"3000","waitReluctance":"1.0","carSpeed":"33","numItineraries":"3","waitAtBeginningFactor":"0.4","mode":"TRANSIT,WALK","ignoreRealtimeUpdates":"false","stairsReluctance":"2.0","toPlace":"48.430369,-71.03122899","time":"15:0:00"},"plan":{"date":1522695600000,"from":{"name":"Origin","lon":-71.063421,"lat":48.403882,"orig":"","vertexType":"NORMAL"},"to":{"name":"Destination","lon":-71.03122899,"lat":48.430369,"orig":"","vertexType":"NORMAL"},"itineraries":[{"duration":1835,"startTime":1522696036000,"endTime":1522697871000,"walkTime":807,"transitTime":1026,"waitingTime":2,"walkDistance":1033.8826616488222,"walkLimitExceeded":false,"elevationLost":0.0,"elevationGained":0.0,"transfers":0,"legs":[{"startTime":1522696036000,"endTime":1522696698000,"departureDelay":0,"arrivalDelay":0,"realTime":false,"distance":855.94,"pathway":false,"mode":"WALK","route":"","agencyTimeZoneOffset":-14400000,"interlineWithPreviousLeg":false,"from":{"name":"Origin","lon":-71.063421,"lat":48.403882,"departure":1522696036000,"orig":"","vertexType":"NORMAL"},"to":{"name":"Place du Saguenay (Champs-Élysées)","stopId":"1:571","stopCode":"571","lon":-71.055824,"lat":48.408307,"arrival":1522696698000,"departure":1522696699000,"zoneId":"NA","stopIndex":12,"stopSequence":13,"vertexType":"TRANSIT"},"legGeometry":{"points":"gylfHflvpLIGW]K_@EUGSGKSS}EuEeE}Dw@q@wAoAgGsF][YWMKbAwCgBgBL]Na@\\}@","length":21},"rentedBike":false,"transitLeg":false,"duration":662.0,"steps":[{"distance":661.2470000000001,"relativeDirection":"DEPART","streetName":"Rue Bach","absoluteDirection":"NORTHEAST","stayOn":false,"area":false,"bogusName":false,"lon":-71.06259359513047,"lat":48.40356975751186,"elevation":[]},{"distance":67.359,"relativeDirection":"RIGHT","streetName":"Rue Plamondon","absoluteDirection":"SOUTHEAST","stayOn":false,"area":false,"bogusName":false,"lon":-71.05766410000001,"lat":48.408490300000004,"elevation":[]},{"distance":69.905,"relativeDirection":"LEFT","streetName":"Rue Plamondon","absoluteDirection":"NORTHEAST","stayOn":true,"area":false,"bogusName":false,"lon":-71.05690750000001,"lat":48.408151600000004,"elevation":[]},{"distance":57.429,"relativeDirection":"RIGHT","streetName":"Rue des Champs-Élysées","absoluteDirection":"SOUTHEAST","stayOn":false,"area":false,"bogusName":false,"lon":-71.0563831,"lat":48.4086751,"elevation":[]}]},{"startTime":1522696699000,"endTime":1522697725000,"departureDelay":0,"arrivalDelay":0,"realTime":false,"distance":6025.832976192403,"pathway":false,"mode":"BUS","route":"12","agencyName":"Société de Transport du Saguenay","agencyUrl":"http://ville.saguenay.ca/fr/services-aux-citoyens/transport-sts","agencyTimeZoneOffset":-14400000,"routeColor":"556B2F","routeType":3,"routeId":"1:12","routeTextColor":"FFFFFF","interlineWithPreviousLeg":false,"tripBlockId":"26","headsign":"Terminus Chicoutimi","agencyId":"0","tripId":"1:217981","serviceDate":"20180402","from":{"name":"Place du Saguenay (Champs-Élysées)","stopId":"1:571","stopCode":"571","lon":-71.055824,"lat":48.408307,"arrival":1522696698000,"departure":1522696699000,"zoneId":"NA","stopIndex":12,"stopSequence":13,"vertexType":"TRANSIT"},"to":{"name":"boul. Saguenay / Jacques Bacon","stopId":"1:1994","stopCode":"1994","lon":-71.033006,"lat":48.429934,"arrival":1522697725000,"departure":1522697726000,"zoneId":"NA","stopIndex":26,"stopSequence":27,"vertexType":"TRANSIT"},"legGeometry":{"points":"{vmfH|aupLxFoNlCyGa@yFYkD}CyA}KmFgD_BgAgBn@kFD_NoIgrAmD_WcAaLaDHoDJi`@wVoAbDbA|AnBU|B|AfBlAyLtKoGxFcFqDkJaHgEoDmDwC_TqQsBeB{HjWfAvAfM|O|FlHmB`IgA|Cy@`U","length":37},"routeShortName":"12","routeLongName":"Rivière du Moulin","rentedBike":false,"transitLeg":true,"duration":1026.0,"steps":[]},{"startTime":1522697726000,"endTime":1522697871000,"departureDelay":0,"arrivalDelay":0,"realTime":false,"distance":177.778,"pathway":false,"mode":"WALK","route":"","agencyTimeZoneOffset":-14400000,"interlineWithPreviousLeg":false,"from":{"name":"boul. Saguenay / Jacques Bacon","stopId":"1:1994","stopCode":"1994","lon":-71.033006,"lat":48.429934,"arrival":1522697725000,"departure":1522697726000,"zoneId":"NA","stopIndex":26,"stopSequence":27,"vertexType":"TRANSIT"},"to":{"name":"Destination","lon":-71.03122899,"lat":48.430369,"arrival":1522697871000,"orig":"","vertexType":"NORMAL"},"legGeometry":{"points":"s}qfHlsppL@W@S{@[s@YBq@?_@AiC?g@","length":9},"rentedBike":false,"transitLeg":false,"duration":145.0,"steps":[{"distance":15.864,"relativeDirection":"DEPART","streetName":"Boulevard du Saguenay Est","absoluteDirection":"EAST","stayOn":false,"area":false,"bogusName":false,"lon":-71.03302061539898,"lat":48.42986493857392,"elevation":[]},{"distance":65.292,"relativeDirection":"LEFT","streetName":"Rue Jacques-Bacon","absoluteDirection":"NORTH","stayOn":false,"area":false,"bogusName":false,"lon":-71.0328077,"lat":48.4298451,"elevation":[]},{"distance":96.622,"relativeDirection":"RIGHT","streetName":"Rue King","absoluteDirection":"EAST","stayOn":false,"area":false,"bogusName":false,"lon":-71.0325368,"lat":48.430404100000004,"elevation":[]}]}],"tooSloped":false},{"duration":2106,"startTime":1522696673000,"endTime":1522698779000,"walkTime":249,"transitTime":1435,"waitingTime":422,"walkDistance":310.00948871872333,"walkLimitExceeded":false,"elevationLost":0.0,"elevationGained":0.0,"transfers":1,"legs":[{"startTime":1522696673000,"endTime":1522696784000,"departureDelay":0,"arrivalDelay":0,"realTime":false,"distance":140.51,"pathway":false,"mode":"WALK","route":"","agencyTimeZoneOffset":-14400000,"interlineWithPreviousLeg":false,"from":{"name":"Origin","lon":-71.063421,"lat":48.403882,"departure":1522696673000,"orig":"","vertexType":"NORMAL"},"to":{"name":"Saguenéens  / Bach","stopId":"1:575","stopCode":"575","lon":-71.061104,"lat":48.403689,"arrival":1522696784000,"departure":1522696785000,"zoneId":"NA","stopIndex":12,"stopSequence":13,"vertexType":"TRANSIT"},"legGeometry":{"points":"gylfHflvpLIGW]K_@EUGSGKSSfAoC","length":9},"rentedBike":false,"transitLeg":false,"duration":111.0,"steps":[{"distance":73.554,"relativeDirection":"DEPART","streetName":"Rue Bach","absoluteDirection":"NORTHEAST","stayOn":false,"area":false,"bogusName":false,"lon":-71.06259359513047,"lat":48.40356975751186,"elevation":[]},{"distance":66.956,"relativeDirection":"RIGHT","streetName":"Rue des Saguenéens","absoluteDirection":"SOUTHEAST","stayOn":false,"area":false,"bogusName":false,"lon":-71.06187870000001,"lat":48.404006700000004,"elevation":[]}]},{"startTime":1522696785000,"endTime":1522697880000,"departureDelay":0,"arrivalDelay":0,"realTime":false,"distance":5736.477922780734,"pathway":false,"mode":"BUS","route":"15","agencyName":"Société de Transport du Saguenay","agencyUrl":"http://ville.saguenay.ca/fr/services-aux-citoyens/transport-sts","agencyTimeZoneOffset":-14400000,"routeColor":"FF00FF","routeType":3,"routeId":"1:15","routeTextColor":"FFFFFF","interlineWithPreviousLeg":false,"tripBlockId":"30","headsign":"Terminus Chicoutimi","agencyId":"0","tripId":"1:218104","serviceDate":"20180402","from":{"name":"Saguenéens  / Bach","stopId":"1:575","stopCode":"575","lon":-71.061104,"lat":48.403689,"arrival":1522696784000,"departure":1522696785000,"zoneId":"NA","stopIndex":12,"stopSequence":13,"vertexType":"TRANSIT"},"to":{"name":"Terminus Chicoutimi","stopId":"1:1289","stopCode":"1289","lon":-71.066163,"lat":48.428677,"arrival":1522697880000,"departure":1522698300000,"zoneId":"NA","stopIndex":39,"stopSequence":40,"vertexType":"TRANSIT"},"legGeometry":{"points":"sylfHjcvpLmA|CUr@}@~A_@\\_DvCEZcA|@UP_@d@Yl@oBdFeCxG_CfGYVQXS\\dK|HlFZbC\\p@zA\\rB@hBiArG{BNw@FiG}@iDwAECcCcBo@y@sEeGe@o@qAa@m@MoB?C@}BZwAc@oA_Bs@gDCKZ{Di@QECc@_@sAkAoBwB_EcE{A_BoAmAk@o@cCaCkIkIaJaJUUwBaCj@wCjAsCzGoG_CoHL{D_@kAqD{CQr@iAcAy@w@L{@wAuA_B_B_EpLDh@NbBVvCIxBg@`Am@l@Sb@a@rAqDqDmEkE]a@kAqAU|@WnKG|DGxDOdPKvJU|F?XQlJC~@ChAIzEcCOaIi@VwL","length":98},"routeShortName":"15","routeLongName":"Term. Chic / Costco","rentedBike":false,"transitLeg":true,"duration":1095.0,"steps":[]},{"startTime":1522698300000,"endTime":1522698640000,"departureDelay":0,"arrivalDelay":0,"realTime":false,"distance":2512.8795460827155,"pathway":false,"mode":"BUS","route":"12","agencyName":"Société de Transport du Saguenay","agencyUrl":"http://ville.saguenay.ca/fr/services-aux-citoyens/transport-sts","agencyTimeZoneOffset":-14400000,"routeColor":"556B2F","routeType":3,"routeId":"1:12","routeTextColor":"FFFFFF","interlineWithPreviousLeg":false,"tripBlockId":"27","headsign":"Terminus UQAC","agencyId":"0","tripId":"1:218018","serviceDate":"20180402","from":{"name":"Terminus Chicoutimi","stopId":"1:1289","stopCode":"1289","lon":-71.066163,"lat":48.428677,"arrival":1522697880000,"departure":1522698300000,"zoneId":"NA","stopIndex":0,"stopSequence":1,"vertexType":"TRANSIT"},"to":{"name":"boul. Saguenay / Saint-Timothée","stopId":"1:495","stopCode":"495","lon":-71.032928,"lat":48.429761,"arrival":1522698640000,"departure":1522698641000,"zoneId":"NA","stopIndex":9,"stopSequence":10,"vertexType":"TRANSIT"},"legGeometry":{"points":"evqfHpbwpLpFcj@IaKmFy^_DaZz@u]SeV}@aNs@gKToK","length":10},"routeShortName":"12","routeLongName":"Rivière du Moulin","rentedBike":false,"transitLeg":true,"duration":340.0,"steps":[]},{"startTime":1522698641000,"endTime":1522698779000,"departureDelay":0,"arrivalDelay":0,"realTime":false,"distance":169.404,"pathway":false,"mode":"WALK","route":"","agencyTimeZoneOffset":-14400000,"interlineWithPreviousLeg":false,"from":{"name":"boul. Saguenay / Saint-Timothée","stopId":"1:495","stopCode":"495","lon":-71.032928,"lat":48.429761,"arrival":1522698640000,"departure":1522698641000,"zoneId":"NA","stopIndex":9,"stopSequence":10,"vertexType":"TRANSIT"},"to":{"name":"Destination","lon":-71.03122899,"lat":48.430369,"arrival":1522698779000,"orig":"","vertexType":"NORMAL"},"legGeometry":{"points":"q}qfHtrppL@S{@[s@YBq@?_@AiC?g@","length":8},"rentedBike":false,"transitLeg":false,"duration":138.0,"steps":[{"distance":7.49,"relativeDirection":"DEPART","streetName":"Boulevard du Saguenay Est","absoluteDirection":"EAST","stayOn":false,"area":false,"bogusName":false,"lon":-71.03290822001266,"lat":48.42985446603792,"elevation":[]},{"distance":65.292,"relativeDirection":"LEFT","streetName":"Rue Jacques-Bacon","absoluteDirection":"NORTH","stayOn":false,"area":false,"bogusName":false,"lon":-71.0328077,"lat":48.4298451,"elevation":[]},{"distance":96.622,"relativeDirection":"RIGHT","streetName":"Rue King","absoluteDirection":"EAST","stayOn":false,"area":false,"bogusName":false,"lon":-71.0325368,"lat":48.430404100000004,"elevation":[]}]}],"tooSloped":false},{"duration":1835,"startTime":1522697836000,"endTime":1522699671000,"walkTime":807,"transitTime":1026,"waitingTime":2,"walkDistance":1033.8826616488222,"walkLimitExceeded":false,"elevationLost":0.0,"elevationGained":0.0,"transfers":0,"legs":[{"startTime":1522697836000,"endTime":1522698498000,"departureDelay":0,"arrivalDelay":0,"realTime":false,"distance":855.94,"pathway":false,"mode":"WALK","route":"","agencyTimeZoneOffset":-14400000,"interlineWithPreviousLeg":false,"from":{"name":"Origin","lon":-71.063421,"lat":48.403882,"departure":1522697836000,"orig":"","vertexType":"NORMAL"},"to":{"name":"Place du Saguenay (Champs-Élysées)","stopId":"1:571","stopCode":"571","lon":-71.055824,"lat":48.408307,"arrival":1522698498000,"departure":1522698499000,"zoneId":"NA","stopIndex":12,"stopSequence":13,"vertexType":"TRANSIT"},"legGeometry":{"points":"gylfHflvpLIGW]K_@EUGSGKSS}EuEeE}Dw@q@wAoAgGsF][YWMKbAwCgBgBL]Na@\\}@","length":21},"rentedBike":false,"transitLeg":false,"duration":662.0,"steps":[{"distance":661.2470000000001,"relativeDirection":"DEPART","streetName":"Rue Bach","absoluteDirection":"NORTHEAST","stayOn":false,"area":false,"bogusName":false,"lon":-71.06259359513047,"lat":48.40356975751186,"elevation":[]},{"distance":67.359,"relativeDirection":"RIGHT","streetName":"Rue Plamondon","absoluteDirection":"SOUTHEAST","stayOn":false,"area":false,"bogusName":false,"lon":-71.05766410000001,"lat":48.408490300000004,"elevation":[]},{"distance":69.905,"relativeDirection":"LEFT","streetName":"Rue Plamondon","absoluteDirection":"NORTHEAST","stayOn":true,"area":false,"bogusName":false,"lon":-71.05690750000001,"lat":48.408151600000004,"elevation":[]},{"distance":57.429,"relativeDirection":"RIGHT","streetName":"Rue des Champs-Élysées","absoluteDirection":"SOUTHEAST","stayOn":false,"area":false,"bogusName":false,"lon":-71.0563831,"lat":48.4086751,"elevation":[]}]},{"startTime":1522698499000,"endTime":1522699525000,"departureDelay":0,"arrivalDelay":0,"realTime":false,"distance":6025.832976192403,"pathway":false,"mode":"BUS","route":"12","agencyName":"Société de Transport du Saguenay","agencyUrl":"http://ville.saguenay.ca/fr/services-aux-citoyens/transport-sts","agencyTimeZoneOffset":-14400000,"routeColor":"556B2F","routeType":3,"routeId":"1:12","routeTextColor":"FFFFFF","interlineWithPreviousLeg":false,"tripBlockId":"29","headsign":"Terminus Chicoutimi","agencyId":"0","tripId":"1:218070","serviceDate":"20180402","from":{"name":"Place du Saguenay (Champs-Élysées)","stopId":"1:571","stopCode":"571","lon":-71.055824,"lat":48.408307,"arrival":1522698498000,"departure":1522698499000,"zoneId":"NA","stopIndex":12,"stopSequence":13,"vertexType":"TRANSIT"},"to":{"name":"boul. Saguenay / Jacques Bacon","stopId":"1:1994","stopCode":"1994","lon":-71.033006,"lat":48.429934,"arrival":1522699525000,"departure":1522699526000,"zoneId":"NA","stopIndex":26,"stopSequence":27,"vertexType":"TRANSIT"},"legGeometry":{"points":"{vmfH|aupLxFoNlCyGa@yFYkD}CyA}KmFgD_BgAgBn@kFD_NoIgrAmD_WcAaLaDHoDJi`@wVoAbDbA|AnBU|B|AfBlAyLtKoGxFcFqDkJaHgEoDmDwC_TqQsBeB{HjWfAvAfM|O|FlHmB`IgA|Cy@`U","length":37},"routeShortName":"12","routeLongName":"Rivière du Moulin","rentedBike":false,"transitLeg":true,"duration":1026.0,"steps":[]},{"startTime":1522699526000,"endTime":1522699671000,"departureDelay":0,"arrivalDelay":0,"realTime":false,"distance":177.778,"pathway":false,"mode":"WALK","route":"","agencyTimeZoneOffset":-14400000,"interlineWithPreviousLeg":false,"from":{"name":"boul. Saguenay / Jacques Bacon","stopId":"1:1994","stopCode":"1994","lon":-71.033006,"lat":48.429934,"arrival":1522699525000,"departure":1522699526000,"zoneId":"NA","stopIndex":26,"stopSequence":27,"vertexType":"TRANSIT"},"to":{"name":"Destination","lon":-71.03122899,"lat":48.430369,"arrival":1522699671000,"orig":"","vertexType":"NORMAL"},"legGeometry":{"points":"s}qfHlsppL@W@S{@[s@YBq@?_@AiC?g@","length":9},"rentedBike":false,"transitLeg":false,"duration":145.0,"steps":[{"distance":15.864,"relativeDirection":"DEPART","streetName":"Boulevard du Saguenay Est","absoluteDirection":"EAST","stayOn":false,"area":false,"bogusName":false,"lon":-71.03302061539898,"lat":48.42986493857392,"elevation":[]},{"distance":65.292,"relativeDirection":"LEFT","streetName":"Rue Jacques-Bacon","absoluteDirection":"NORTH","stayOn":false,"area":false,"bogusName":false,"lon":-71.0328077,"lat":48.4298451,"elevation":[]},{"distance":96.622,"relativeDirection":"RIGHT","streetName":"Rue King","absoluteDirection":"EAST","stayOn":false,"area":false,"bogusName":false,"lon":-71.0325368,"lat":48.430404100000004,"elevation":[]}]}],"tooSloped":false}]},"debugOutput":{"precalculationTime":28,"pathCalculationTime":61,"pathTimes":[29,15,17],"renderingTime":0,"totalTime":89,"timedOut":false},"elevationMetadata":{"ellipsoidToGeoidDifference":-28.885904201182168,"geoidElevation":false}}