{"requestParameters":{"date":"2018/04/02","walkSpeed":"1.33","walkReluctance":"2.0","fromPlace":"48.393216,-70.986448","maxWalkDistance":"3000","waitReluctance":"1.0","carSpeed":"33","numItineraries":"3","waitAtBeginningFactor":"0.4","mode":"TRANSIT,WALK","ignoreRealtimeUpdates":"false","stairsReluctance":"2.0","toPlace":"48.428637,-71.06799","time":"7:30:00"},"plan":{"date":1522668600000,"from":{"name":"Origin","lon":-70.986448,"lat":48.393216,"orig":"","vertexType":"NORMAL"},"to":{"name":"Destination","lon":-71.06799,"lat":48.428637,"orig":"","vertexType":"NORMAL"},"itineraries":[{"duration":1616,"startTime":1522669313000,"endTime":1522670929000,"walkTime":132,"transitTime":868,"waitingTime":616,"walkDistance":174.731,"walkLimitExceeded":false,"elevationLost":0.0,"elevationGained":0.0,"transfers":1,"legs":[{"startTime":1522669313000,"endTime":1522669337000,"departureDelay":0,"arrivalDelay":0,"realTime":false,"distance":31.586,"pathway":false,"mode":"WALK","route":"","agencyTimeZoneOffset":-14400000,"interlineWithPreviousLeg":false,"from":{"name":"Origin","lon":-70.986448,"lat":48.393216,"departure":1522669313000,"orig":"","vertexType":"NORMAL"},"to":{"name":"boul. St-Jean-Baptiste (no. 2787)","stopId":"1:362","stopCode":"362","lon":-70.986929,"lat":48.393255,"arrival":1522669337000,"departure":1522669338000,"zoneId":"NA","stopIndex":28,"stopSequence":29,"vertexType":"TRANSIT"},"legGeometry":{"points":"ewjfHxqgpL_@dA","length":2},"rentedBike":false,"transitLeg":false,"duration":24.0,"steps":[{"distance":31.586,"relativeDirection":"DEPART","streetName":"Boulevard Saint-Jean-Baptiste","absoluteDirection":"NORTHWEST","stayOn":false,"area":false,"bogusName":false,"lon":-70.98668009812968,"lat":48.39299570488377,"elevation":[]}]},{"startTime":1522669338000,"endTime":1522669920000,"departureDelay":0,"arrivalDelay":0,"realTime":false,"distance":6756.4089702183155,"pathway":false,"mode":"BUS","route":"23S","agencyName":"Société de Transport du Saguenay","agencyUrl":"http://ville.saguenay.ca/fr/services-aux-citoyens/transport-sts","agencyTimeZoneOffset":-14400000,"routeColor":"8B0000","routeType":3,"routeId":"1:23S","routeTextColor":"FFFFFF","interlineWithPreviousLeg":false,"headsign":"Cégep de Chicoutimi","agencyId":"0","tripId":"1:218377","serviceDate":"20180402","from":{"name":"boul. St-Jean-Baptiste (no. 2787)","stopId":"1:362","stopCode":"362","lon":-70.986929,"lat":48.393255,"arrival":1522669337000,"departure":1522669338000,"zoneId":"NA","stopIndex":28,"stopSequence":29,"vertexType":"TRANSIT"},"to":{"name":"Cégep de Chicoutimi (voie réservée)","stopId":"1:65","stopCode":"65","lon":-71.054799,"lat":48.423007,"arrival":1522669920000,"departure":1522670534000,"zoneId":"NA","stopIndex":43,"stopSequence":44,"vertexType":"TRANSIT"},"legGeometry":{"points":"cxjfH`tgpLkEtLsAvDiArCm@bB{ExMeAlCaB|CMRqApBmErFeAtAs@jAu@`Bm@bBOh@]zAeCpNUlA_A`EkArDmCdHgG`PwIdUkP|b@uBrFu@hBw@bBg@z@i@z@m@~@WX]^yIjJeDdDy@j@yAn@@^h@bI`@jDdC~Nb@~DpExr@TlC`A`Ob@dIFlFE~BCv@Cn@OhBe@nD[bBeAtDcAzC[v@uAvDgBjFk@zAc@l@OPCBQN_@Pa@JYDmCHc@Be@L_@P_@Vy@t@wF~EKi@}@wAw@}@gFcFWSgEgEmCkCI@GHuCrIyA{AaBeBg@vAsClJAh@Bf@Hr@","length":90},"routeShortName":"23S","routeLongName":"Cgp/UQAC - Term. Baie","rentedBike":false,"transitLeg":true,"duration":582.0,"steps":[]},{"startTime":1522670534000,"endTime":1522670820000,"departureDelay":0,"arrivalDelay":0,"realTime":false,"distance":1378.4212952488278,"pathway":false,"mode":"BUS","route":"15","agencyName":"Société de Transport du Saguenay","agencyUrl":"http://ville.saguenay.ca/fr/services-aux-citoyens/transport-sts","agencyTimeZoneOffset":-14400000,"routeColor":"FF00FF","routeType":3,"routeId":"1:15","routeTextColor":"FFFFFF","interlineWithPreviousLeg":false,"tripBlockId":"32","headsign":"Terminus Chicoutimi","agencyId":"0","tripId":"1:218149","serviceDate":"20180402","from":{"name":"Cégep de Chicoutimi (voie réservée)","stopId":"1:65","stopCode":"65","lon":-71.054799,"lat":48.423007,"arrival":1522669920000,"departure":1522670534000,"zoneId":"NA","stopIndex":31,"stopSequence":32,"vertexType":"TRANSIT"},"to":{"name":"Sainte-Anne / Racine","stopId":"1:558","stopCode":"558","lon":-71.068444,"lat":48.427369,"arrival":1522670820000,"departure":1522670821000,"zoneId":"NA","stopIndex":38,"stopSequence":39,"vertexType":"TRANSIT"},"legGeometry":{"points":"arpfHf{tpLVvCIxBg@`Am@l@Sb@a@rAqDqDmEkE]a@kAqAU|@WnKG|DGxDOdPKvJU|F?XQlJC~@ChAIzEcCO","length":24},"routeShortName":"15","routeLongName":"Term. Chic / Costco","rentedBike":false,"transitLeg":true,"duration":286.0,"steps":[]},{"startTime":1522670821000,"endTime":1522670929000,"departureDelay":0,"arrivalDelay":0,"realTime":false,"distance":143.145,"pathway":false,"mode":"WALK","route":"","agencyTimeZoneOffset":-14400000,"interlineWithPreviousLeg":false,"from":{"name":"Sainte-Anne / Racine","stopId":"1:558","stopCode":"558","lon":-71.068444,"lat":48.427369,"arrival":1522670820000,"departure":1522670821000,"zoneId":"NA","stopIndex":38,"stopSequence":39,"vertexType":"TRANSIT"},"to":{"name":"Destination","lon":-71.06799,"lat":48.428637,"arrival":1522670929000,"orig":"","vertexType":"NORMAL"},"legGeometry":{"points":"anqfHhqwpLGAg@C}AKsAE[AA?","length":7},"rentedBike":false,"transitLeg":false,"duration":108.0,"steps":[{"distance":143.145,"relativeDirection":"DEPART","streetName":"Rue Sainte-Anne","absoluteDirection":"NORTH","stayOn":false,"area":false,"bogusName":false,"lon":-71.06852127104082,"lat":48.427371387668245,"elevation":[]}]}],"tooSloped":false},{"duration":1732,"startTime":1522669281000,"endTime":1522671013000,"walkTime":1213,"transitTime":517,"waitingTime":2,"walkDistance":1549.109744352908,"walkLimitExceeded":false,"elevationLost":0.0,"elevationGained":0.0,"transfers":0,"legs":[{"startTime":1522669281000,"endTime":1522669305000,"departureDelay":0,"arrivalDelay":0,"realTime":false,"distance":31.586,"pathway":false,"mode":"WALK","route":"","agencyTimeZoneOffset":-14400000,"interlineWithPreviousLeg":false,"from":{"name":"Origin","lon":-70.986448,"lat":48.393216,"departure":1522669281000,"orig":"","vertexType":"NORMAL"},"to":{"name":"boul. St-Jean-Baptiste (no. 2787)","stopId":"1:362","stopCode":"362","lon":-70.986929,"lat":48.393255,"arrival":1522669305000,"departure":1522669306000,"zoneId":"NA","stopIndex":28,"stopSequence":29,"vertexType":"TRANSIT"},"legGeometry":{"points":"ewjfHxqgpL_@dA","length":2},"rentedBike":false,"transitLeg":false,"duration":24.0,"steps":[{"distance":31.586,"relativeDirection":"DEPART","streetName":"Boulevard Saint-Jean-Baptiste","absoluteDirection":"NORTHWEST","stayOn":false,"area":false,"bogusName":false,"lon":-70.98668009812968,"lat":48.39299570488377,"elevation":[]}]},{"startTime":1522669306000,"endTime":1522669823000,"departureDelay":0,"arrivalDelay":0,"realTime":false,"distance":6882.916382077742,"pathway":false,"mode":"BUS","route":"5","agencyName":"Société de Transport du Saguenay","agencyUrl":"http://ville.saguenay.ca/fr/services-aux-citoyens/transport-sts","agencyTimeZoneOffset":-14400000,"routeColor":"FF0000","routeType":3,"routeId":"1:5","routeTextColor":"FFFFFF","interlineWithPreviousLeg":false,"tripBlockId":"24","headsign":"Terminus UQAC","agencyId":"0","tripId":"1:217901","serviceDate":"20180402","from":{"name":"boul. St-Jean-Baptiste (no. 2787)","stopId":"1:362","stopCode":"362","lon":-70.986929,"lat":48.393255,"arrival":1522669305000,"departure":1522669306000,"zoneId":"NA","stopIndex":28,"stopSequence":29,"vertexType":"TRANSIT"},"to":{"name":"Cégep de Chicoutimi (voie réservée)","stopId":"1:75","stopCode":"75","lon":-71.055283,"lat":48.422761,"arrival":1522669823000,"departure":1522669824000,"zoneId":"NA","stopIndex":42,"stopSequence":43,"vertexType":"TRANSIT"},"legGeometry":{"points":"_xjfHdtgpLmErLkEpL}EtMeAlCaB|CMRqApBmErFeAtAs@jAu@`Bm@bBOh@]zAeCpNUlA_A`EkArDmCdHgG`PwIdUkP|b@uBrFu@hBw@bBg@z@i@z@m@~@WXYZ}InJeDdDy@j@yAn@@^h@bI`@jDdC~Nb@~DpExr@TlC`A`Ob@dIFlFE~BCv@Cn@I|@uCdOwAbEoDdKM\\k@zAc@l@OPCBQN_@Pa@JYDmCHc@Be@L_@P_@Vy@t@oD|CmOtM{HfHeBzFiEgEeH_Hl@gBfAyAXkCIy@","length":77},"routeShortName":"5","routeLongName":"Term. Chic/Term. Baie via St-J.Batiste","rentedBike":false,"transitLeg":true,"duration":517.0,"steps":[]},{"startTime":1522669824000,"endTime":1522671013000,"departureDelay":0,"arrivalDelay":0,"realTime":false,"distance":1517.2759999999998,"pathway":false,"mode":"WALK","route":"","agencyTimeZoneOffset":-14400000,"interlineWithPreviousLeg":false,"from":{"name":"Cégep de Chicoutimi (voie réservée)","stopId":"1:75","stopCode":"75","lon":-71.055283,"lat":48.422761,"arrival":1522669823000,"departure":1522669824000,"zoneId":"NA","stopIndex":42,"stopSequence":43,"vertexType":"TRANSIT"},"to":{"name":"Destination","lon":-71.06799,"lat":48.428637,"arrival":1522671013000,"orig":"","vertexType":"NORMAL"},"legGeometry":{"points":"mqpfHr~tpLHt@Ab@QrAO^ORm@p@Sb@e@lAKIOl@EdACd@MLSICAOEk@CG?KACTM\\I\\Ax@Al@g@Zy@\\BdAGzCG~CARE~BIfEEbBAn@GfDS~H@n@Ah@EfBEdBK~FaCO{@GiAISAq@Cy@CA?GAg@C}AKsAE[AA?","length":55},"rentedBike":false,"transitLeg":false,"duration":1189.0,"steps":[{"distance":177.29,"relativeDirection":"DEPART","streetName":"Chemin Saint Thomas","absoluteDirection":"WEST","stayOn":false,"area":false,"bogusName":false,"lon":-71.05529730066766,"lat":48.42279572871795,"elevation":[]},{"distance":7.578,"relativeDirection":"RIGHT","streetName":"Rue Bégin","absoluteDirection":"NORTHEAST","stayOn":false,"area":false,"bogusName":false,"lon":-71.0572466,"lat":48.423523700000004,"elevation":[]},{"distance":127.559,"relativeDirection":"LEFT","streetName":"alley","absoluteDirection":"NORTHWEST","stayOn":false,"area":false,"bogusName":true,"lon":-71.05719760000001,"lat":48.4235836,"elevation":[]},{"distance":131.454,"relativeDirection":"LEFT","streetName":"path","absoluteDirection":"WEST","stayOn":true,"area":false,"bogusName":true,"lon":-71.0579166,"lat":48.424303900000005,"elevation":[]},{"distance":711.1870000000001,"relativeDirection":"LEFT","streetName":"Rue Price Est","absoluteDirection":"WEST","stayOn":false,"area":false,"bogusName":false,"lon":-71.0591387,"lat":48.424959400000006,"elevation":[]},{"distance":362.20799999999997,"relativeDirection":"RIGHT","streetName":"Rue Sainte-Anne","absoluteDirection":"NORTH","stayOn":false,"area":false,"bogusName":false,"lon":-71.06874640000001,"lat":48.4254073,"elevation":[]}]}],"tooSloped":false},{"duration":1092,"startTime":1522671637000,"endTime":1522672729000,"walkTime":132,"transitTime":958,"waitingTime":2,"walkDistance":174.731,"walkLimitExceeded":false,"elevationLost":0.0,"elevationGained":0.0,"transfers":1,"legs":[{"startTime":1522671637000,"endTime":1522671661000,"departureDelay":0,"arrivalDelay":0,"realTime":false,"distance":31.586,"pathway":false,"mode":"WALK","route":"","agencyTimeZoneOffset":-14400000,"interlineWithPreviousLeg":false,"from":{"name":"Origin","lon":-70.986448,"lat":48.393216,"departure":1522671637000,"orig":"","vertexType":"NORMAL"},"to":{"name":"boul. St-Jean-Baptiste (no. 2787)","stopId":"1:362","stopCode":"362","lon":-70.986929,"lat":48.393255,"arrival":1522671661000,"departure":1522671662000,"zoneId":"NA","stopIndex":42,"stopSequence":43,"vertexType":"TRANSIT"},"legGeometry":{"points":"ewjfHxqgpL_@dA","length":2},"rentedBike":false,"transitLeg":false,"duration":24.0,"steps":[{"distance":31.586,"relativeDirection":"DEPART","streetName":"Boulevard Saint-Jean-Baptiste","absoluteDirection":"NORTHWEST","stayOn":false,"area":false,"bogusName":false,"lon":-70.98668009812968,"lat":48.39299570488377,"elevation":[]}]},{"startTime":1522671662000,"endTime":1522672260000,"departureDelay":0,"arrivalDelay":0,"realTime":false,"distance":7207.891102929801,"pathway":false,"mode":"BUS","route":"6","agencyName":"Société de Transport du Saguenay","agencyUrl":"http://ville.saguenay.ca/fr/services-aux-citoyens/transport-sts","agencyTimeZoneOffset":-14400000,"routeColor":"FF0000","routeType":3,"routeId":"1:6","routeTextColor":"FFFFFF","interlineWithPreviousLeg":false,"tripBlockId":"25","headsign":"Terminus UQAC","agencyId":"0","tripId":"1:217930","serviceDate":"20180402","from":{"name":"boul. St-Jean-Baptiste (no. 2787)","stopId":"1:362","stopCode":"362","lon":-70.986929,"lat":48.393255,"arrival":1522671661000,"departure":1522671662000,"zoneId":"NA","stopIndex":42,"stopSequence":43,"vertexType":"TRANSIT"},"to":{"name":"Terminus UQAC","stopId":"1:1670","stopCode":"1670","lon":-71.053369,"lat":48.420903,"arrival":1522672260000,"departure":1522672260000,"zoneId":"NA","stopIndex":57,"stopSequence":58,"vertexType":"TRANSIT"},"legGeometry":{"points":"_xjfHdtgpLmErLkEpL}EtMeAlCaB|CMRqApBmErFeAtAs@jAu@`Bm@bBOh@]zAeCpNUlA_A`EkArDmCdHgG`PwIdUkP|b@uBrFu@hBw@bBg@z@i@z@m@~@WXYZ}InJeDdDy@j@yAn@@^h@bI`@jDdC~Nb@~DpExr@TlC`A`Ob@dIFlFE~BCv@Cn@Gl@_@fIgBpGwAvCeBlDuAxDyAxCyApAqANkABgAL{An@g@VYZy@x@aAr@qBnBqBxAsCdCqAfAqBtAgHfHoBzGwEmEu@s@wAqA}B{B]_@ZoAXc@z@{@XkADsAIs@e@gED{@nDqLdBfBxAzAQp@z@~@","length":89},"routeShortName":"6","routeLongName":"Term. Chic/Term. Baie via ch.Plateau","rentedBike":false,"transitLeg":true,"duration":598.0,"steps":[]},{"startTime":1522672260000,"endTime":1522672620000,"departureDelay":0,"arrivalDelay":0,"realTime":false,"distance":1731.414812325428,"pathway":false,"mode":"BUS","route":"15","agencyName":"Société de Transport du Saguenay","agencyUrl":"http://ville.saguenay.ca/fr/services-aux-citoyens/transport-sts","agencyTimeZoneOffset":-14400000,"routeColor":"FF00FF","routeType":3,"routeId":"1:15","routeTextColor":"FFFFFF","interlineWithPreviousLeg":false,"tripBlockId":"30","headsign":"Terminus Chicoutimi","agencyId":"0","tripId":"1:218090","serviceDate":"20180402","from":{"name":"Terminus UQAC","stopId":"1:1670","stopCode":"1670","lon":-71.053369,"lat":48.420903,"arrival":1522672260000,"departure":1522672260000,"zoneId":"NA","stopIndex":29,"stopSequence":30,"vertexType":"TRANSIT"},"to":{"name":"Sainte-Anne / Racine","stopId":"1:558","stopCode":"558","lon":-71.068444,"lat":48.427369,"arrival":1522672620000,"departure":1522672621000,"zoneId":"NA","stopIndex":38,"stopSequence":39,"vertexType":"TRANSIT"},"legGeometry":{"points":"sepfHprtpLy@w@L{@wAuA_B_B_EpLDh@NbBVvCIxBg@`Am@l@Sb@a@rAqDqDmEkE]a@kAqAU|@WnKG|DGxDOdPKvJU|F?XQlJC~@ChAIzEcCO","length":31},"routeShortName":"15","routeLongName":"Term. Chic / Costco","rentedBike":false,"transitLeg":true,"duration":360.0,"steps":[]},{"startTime":1522672621000,"endTime":1522672729000,"departureDelay":0,"arrivalDelay":0,"realTime":false,"distance":143.145,"pathway":false,"mode":"WALK","route":"","agencyTimeZoneOffset":-14400000,"interlineWithPreviousLeg":false,"from":{"name":"Sainte-Anne / Racine","stopId":"1:558","stopCode":"558","lon":-71.068444,"lat":48.427369,"arrival":1522672620000,"departure":1522672621000,"zoneId":"NA","stopIndex":38,"stopSequence":39,"vertexType":"TRANSIT"},"to":{"name":"Destination","lon":-71.06799,"lat":48.428637,"arrival":1522672729000,"orig":"","vertexType":"NORMAL"},"legGeometry":{"points":"anqfHhqwpLGAg@C}AKsAE[AA?","length":7},"rentedBike":false,"transitLeg":false,"duration":108.0,"steps":[{"distance":143.145,"relativeDirection":"DEPART","streetName":"Rue Sainte-Anne","absoluteDirection":"NORTH","stayOn":false,"area":false,"bogusName":false,"lon":-71.06852127104082,"lat":48.427371387668245,"elevation":[]}]}],"tooSloped":false}]},"debugOutput":{"precalculationTime":19,"pathCalculationTime":13,"pathTimes":[7,4,2],"renderingTime":1,"totalTime":33,"timedOut":false},"elevationMetadata":{"ellipsoidToGeoidDifference":-28.885904201182168,"geoidElevation":false}}