{"requestParameters":{"date":"2018/04/02","walkSpeed":"1.33","walkReluctance":"2.0","fromPlace":"48.387823,-70.975818","maxWalkDistance":"3000","waitReluctance":"1.0","carSpeed":"33","numItineraries":"3","waitAtBeginningFactor":"0.4","mode":"TRANSIT,WALK","ignoreRealtimeUpdates":"false","stairsReluctance":"2.0","toPlace":"48.39024,-70.979617","time":"14:45:00"},"plan":{"date":1522694700000,"from":{"name":"Origin","lon":-70.975818,"lat":48.387823,"orig":"","vertexType":"NORMAL"},"to":{"name":"Destination","lon":-70.979617,"lat":48.39024,"orig":"","vertexType":"NORMAL"},"itineraries":[{"duration":290,"startTime":1522694700000,"endTime":1522694990000,"walkTime":290,"transitTime":0,"waitingTime":0,"walkDistance":384.828,"walkLimitExceeded":false,"elevationLost":0.0,"elevationGained":0.0,"transfers":0,"legs":[{"startTime":1522694700000,"endTime":1522694990000,"departureDelay":0,"arrivalDelay":0,"realTime":false,"distance":384.828,"pathway":false,"mode":"WALK","route":"","agencyTimeZoneOffset":-14400000,"interlineWithPreviousLeg":false,"from":{"name":"Origin","lon":-70.975818,"lat":48.387823,"departure":1522694700000,"orig":"","vertexType":"NORMAL"},"to":{"name":"Destination","lon":-70.979617,"lat":48.39024,"arrival":1522694990000,"orig":"","vertexType":"NORMAL"},"legGeometry":{"points":"{vifHzmepLcJbV[x@Ul@","length":4},"rentedBike":false,"transitLeg":false,"duration":290.0,"steps":[{"distance":384.828,"relativeDirection":"DEPART","streetName":"Boulevard Saint-Jean-Baptiste","absoluteDirection":"NORTHWEST","stayOn":false,"area":false,"bogusName":false,"lon":-70.97581271069707,"lat":48.387827852606094,"elevation":[]}]}],"tooSloped":false},{"duration":69,"startTime":1522696761000,"endTime":1522696830000,"walkTime":37,"transitTime":30,"waitingTime":2,"walkDistance":48.158,"walkLimitExceeded":false,"elevationLost":0.0,"elevationGained":0.0,"transfers":0,"legs":[{"startTime":1522696761000,"endTime":1522696782000,"departureDelay":0,"arrivalDelay":0,"realTime":false,"distance":27.092,"pathway":false,"mode":"WALK","route":"","agencyTimeZoneOffset":-14400000,"interlineWithPreviousLeg":false,"from":{"name":"Origin","lon":-70.975818,"lat":48.387823,"departure":1522696761000,"orig":"","vertexType":"NORMAL"},"to":{"name":"boul. St-Jean-Baptiste (no. 3166)","stopId":"1:205","stopCode":"205","lon":-70.975461,"lat":48.387735,"arrival":1522696782000,"departure":1522696783000,"zoneId":"NA","stopIndex":38,"stopSequence":39,"vertexType":"TRANSIT"},"legGeometry":{"points":"{vifHzmepLZy@?A","length":3},"rentedBike":false,"transitLeg":false,"duration":21.0,"steps":[{"distance":27.092,"relativeDirection":"DEPART","streetName":"Boulevard Saint-Jean-Baptiste","absoluteDirection":"SOUTHEAST","stayOn":false,"area":false,"bogusName":false,"lon":-70.97581271069707,"lat":48.387827852606094,"elevation":[]}]},{"startTime":1522696783000,"endTime":1522696813000,"departureDelay":0,"arrivalDelay":0,"realTime":false,"distance":390.8771304167361,"pathway":false,"mode":"BUS","route":"6","agencyName":"Société de Transport du Saguenay","agencyUrl":"http://ville.saguenay.ca/fr/services-aux-citoyens/transport-sts","agencyTimeZoneOffset":-14400000,"routeColor":"FF0000","routeType":3,"routeId":"1:6","routeTextColor":"FFFFFF","interlineWithPreviousLeg":false,"tripBlockId":"25","headsign":"Terminus UQAC","agencyId":"0","tripId":"1:217944","serviceDate":"20180402","from":{"name":"boul. St-Jean-Baptiste (no. 3166)","stopId":"1:205","stopCode":"205","lon":-70.975461,"lat":48.387735,"arrival":1522696782000,"departure":1522696783000,"zoneId":"NA","stopIndex":38,"stopSequence":39,"vertexType":"TRANSIT"},"to":{"name":"boul. St-Jean-Baptiste (no. 3017)","stopId":"1:361","stopCode":"361","lon":-70.979715,"lat":48.389827,"arrival":1522696813000,"departure":1522696814000,"zoneId":"NA","stopIndex":39,"stopSequence":40,"vertexType":"TRANSIT"},"legGeometry":{"points":"}uifH`lepLwK|Y","length":2},"routeShortName":"6","routeLongName":"Term. Chic/Term. Baie via ch.Plateau","rentedBike":false,"transitLeg":true,"duration":30.0,"steps":[]},{"startTime":1522696814000,"endTime":1522696830000,"departureDelay":0,"arrivalDelay":0,"realTime":false,"distance":21.066,"pathway":false,"mode":"WALK","route":"","agencyTimeZoneOffset":-14400000,"interlineWithPreviousLeg":false,"from":{"name":"boul. St-Jean-Baptiste (no. 3017)","stopId":"1:361","stopCode":"361","lon":-70.979715,"lat":48.389827,"arrival":1522696813000,"departure":1522696814000,"zoneId":"NA","stopIndex":39,"stopSequence":40,"vertexType":"TRANSIT"},"to":{"name":"Destination","lon":-70.979617,"lat":48.39024,"arrival":1522696830000,"orig":"","vertexType":"NORMAL"},"legGeometry":{"points":"{bjfHxffpLUl@","length":2},"rentedBike":false,"transitLeg":false,"duration":16.0,"steps":[{"distance":21.066,"relativeDirection":"DEPART","streetName":"Boulevard Saint-Jean-Baptiste","absoluteDirection":"NORTHWEST","stayOn":false,"area":false,"bogusName":false,"lon":-70.97980321555607,"lat":48.38974607409395,"elevation":[]}]}],"tooSloped":false}]},"debugOutput":{"precalculationTime":1,"pathCalculationTime":2,"pathTimes":[0,1,1],"renderingTime":0,"totalTime":3,"timedOut":false},"elevationMetadata":{"ellipsoidToGeoidDifference":-28.885904201182168,"geoidElevation":false}}