{"requestParameters":{"date":"2018/04/02","walkSpeed":"1.33","walkReluctance":"2.0","fromPlace":"48.390044,-70.983555","maxWalkDistance":"3000","waitReluctance":"1.0","carSpeed":"33","numItineraries":"3","waitAtBeginningFactor":"0.4","mode":"TRANSIT,WALK","ignoreRealtimeUpdates":"false","stairsReluctance":"2.0","toPlace":"48.403952,-71.054642","time":"9:0:00"},"plan":{"date":1522674000000,"from":{"name":"Origin","lon":-70.983555,"lat":48.390044,"orig":"","vertexType":"NORMAL"},"to":{"name":"Destination","lon":-71.054642,"lat":48.403952,"orig":"","vertexType":"NORMAL"},"itineraries":[{"duration":1670,"startTime":1522675018000,"endTime":1522676688000,"walkTime":1206,"transitTime":462,"waitingTime":2,"walkDistance":1518.6137819431815,"walkLimitExceeded":false,"elevationLost":0.0,"elevationGained":0.0,"transfers":0,"legs":[{"startTime":1522675018000,"endTime":1522675222000,"departureDelay":0,"arrivalDelay":0,"realTime":false,"distance":255.497,"pathway":false,"mode":"WALK","route":"","agencyTimeZoneOffset":-14400000,"interlineWithPreviousLeg":false,"from":{"name":"Origin","lon":-70.983555,"lat":48.390044,"departure":1522675018000,"orig":"","vertexType":"NORMAL"},"to":{"name":"boul. St-Jean-Baptiste / Lavoie","stopId":"1:242","stopCode":"242","lon":-70.981278,"lat":48.390523,"arrival":1522675222000,"departure":1522675223000,"zoneId":"NA","stopIndex":40,"stopSequence":41,"vertexType":"TRANSIT"},"legGeometry":{"points":"kejfHr_gpLMKa@g@CQHi@x@uBiCmCv@sB","length":8},"rentedBike":false,"transitLeg":false,"duration":204.0,"steps":[{"distance":39.589,"relativeDirection":"DEPART","streetName":"Rue des Lilas","absoluteDirection":"NORTHEAST","stayOn":false,"area":false,"bogusName":false,"lon":-70.98377988785658,"lat":48.39014607029739,"elevation":[]},{"distance":70.479,"relativeDirection":"RIGHT","streetName":"Rue des Lys","absoluteDirection":"EAST","stayOn":false,"area":false,"bogusName":false,"lon":-70.9834276,"lat":48.39040120000001,"elevation":[]},{"distance":92.569,"relativeDirection":"LEFT","streetName":"Rue des Tulipes","absoluteDirection":"NORTHEAST","stayOn":false,"area":false,"bogusName":false,"lon":-70.98262670000001,"lat":48.3900677,"elevation":[]},{"distance":52.86,"relativeDirection":"RIGHT","streetName":"Boulevard Saint-Jean-Baptiste","absoluteDirection":"SOUTHEAST","stayOn":false,"area":false,"bogusName":false,"lon":-70.9819123,"lat":48.390751800000004,"elevation":[]}]},{"startTime":1522675223000,"endTime":1522675685000,"departureDelay":0,"arrivalDelay":0,"realTime":false,"distance":5792.007424242183,"pathway":false,"mode":"BUS","route":"6","agencyName":"Société de Transport du Saguenay","agencyUrl":"http://ville.saguenay.ca/fr/services-aux-citoyens/transport-sts","agencyTimeZoneOffset":-14400000,"routeColor":"FF0000","routeType":3,"routeId":"1:6","routeTextColor":"FFFFFF","interlineWithPreviousLeg":false,"tripBlockId":"25","headsign":"Terminus UQAC","agencyId":"0","tripId":"1:217932","serviceDate":"20180402","from":{"name":"boul. St-Jean-Baptiste / Lavoie","stopId":"1:242","stopCode":"242","lon":-70.981278,"lat":48.390523,"arrival":1522675222000,"departure":1522675223000,"zoneId":"NA","stopIndex":40,"stopSequence":41,"vertexType":"TRANSIT"},"to":{"name":"boul. Université / Murdock","stopId":"1:59","stopCode":"59","lon":-71.049971,"lat":48.411755,"arrival":1522675685000,"departure":1522675686000,"zoneId":"NA","stopIndex":52,"stopSequence":53,"vertexType":"TRANSIT"},"legGeometry":{"points":"egjfHrpfpL}FvO{GxQmErLkEpL}EtMeAlCaB|CMRqApBmErFeAtAs@jAu@`Bm@bBOh@]zAeCpNUlA_A`EkArDmCdHgG`PwIdUkP|b@uBrFu@hBw@bBg@z@i@z@m@~@WXYZ}InJeDdDy@j@yAn@@^h@bI`@jDdC~Nb@~DpExr@TlC`A`Ob@dIFlFE~BCv@Cn@Gl@_@fIgBpGwAvC","length":54},"routeShortName":"6","routeLongName":"Term. Chic/Term. Baie via ch.Plateau","rentedBike":false,"transitLeg":true,"duration":462.0,"steps":[]},{"startTime":1522675686000,"endTime":1522676688000,"departureDelay":0,"arrivalDelay":0,"realTime":false,"distance":1262.7540000000004,"pathway":false,"mode":"WALK","route":"","agencyTimeZoneOffset":-14400000,"interlineWithPreviousLeg":false,"from":{"name":"boul. Université / Murdock","stopId":"1:59","stopCode":"59","lon":-71.049971,"lat":48.411755,"arrival":1522675685000,"departure":1522675686000,"zoneId":"NA","stopIndex":52,"stopSequence":53,"vertexType":"TRANSIT"},"to":{"name":"Destination","lon":-71.054642,"lat":48.403952,"arrival":1522676688000,"orig":"","vertexType":"NORMAL"},"legGeometry":{"points":"_lnfHx}spLZ}@VPxBeHF_@`@o@XMd@KJD~Av@j@XFBpAp@pG|Cl@V@@lB|@V\\LXFT?hADT@J@FFn@z@pEt@]l@Qp@E|@B|@L?dBGRRRZXXXXVVTXVPROf@Wt@Xb@R\\T^R\\JL","length":47},"rentedBike":false,"transitLeg":false,"duration":1002.0,"steps":[{"distance":183.259,"relativeDirection":"DEPART","streetName":"Boulevard de l'Université","absoluteDirection":"SOUTHEAST","stayOn":false,"area":false,"bogusName":false,"lon":-71.05004245459075,"lat":48.41168714240219,"elevation":[]},{"distance":62.949,"relativeDirection":"SLIGHTLY_RIGHT","streetName":"link","absoluteDirection":"SOUTHEAST","stayOn":false,"area":false,"bogusName":true,"lon":-71.04819570000001,"lat":48.410774100000005,"elevation":[]},{"distance":400.404,"relativeDirection":"SLIGHTLY_RIGHT","streetName":"Rue Des Roitelets","absoluteDirection":"SOUTH","stayOn":false,"area":false,"bogusName":false,"lon":-71.0478246,"lat":48.4102837,"elevation":[]},{"distance":39.358,"relativeDirection":"SLIGHTLY_RIGHT","streetName":"link","absoluteDirection":"SOUTHWEST","stayOn":false,"area":false,"bogusName":true,"lon":-71.0497603,"lat":48.406919900000005,"elevation":[]},{"distance":146.364,"relativeDirection":"SLIGHTLY_RIGHT","streetName":"Rue Émile-Girardin","absoluteDirection":"WEST","stayOn":false,"area":false,"bogusName":false,"lon":-71.0501541,"lat":48.406688800000005,"elevation":[]},{"distance":155.611,"relativeDirection":"LEFT","streetName":"Rue des Champs-Élysées","absoluteDirection":"SOUTH","stayOn":false,"area":false,"bogusName":false,"lon":-71.05202630000001,"lat":48.4062974,"elevation":[]},{"distance":46.581,"relativeDirection":"RIGHT","streetName":"service road","absoluteDirection":"WEST","stayOn":false,"area":false,"bogusName":true,"lon":-71.05184220000001,"lat":48.4049276,"elevation":[]},{"distance":110.87500000000001,"relativeDirection":"LEFT","streetName":"service road","absoluteDirection":"SOUTHWEST","stayOn":true,"area":false,"bogusName":true,"lon":-71.05245930000001,"lat":48.4049623,"elevation":[]},{"distance":117.35300000000001,"relativeDirection":"RIGHT","streetName":"parking aisle","absoluteDirection":"NORTHWEST","stayOn":true,"area":false,"bogusName":true,"lon":-71.0532652,"lat":48.4041209,"elevation":[]}]}],"tooSloped":false},{"duration":1619,"startTime":1522676269000,"endTime":1522677888000,"walkTime":1206,"transitTime":411,"waitingTime":2,"walkDistance":1518.6137819431815,"walkLimitExceeded":false,"elevationLost":0.0,"elevationGained":0.0,"transfers":0,"legs":[{"startTime":1522676269000,"endTime":1522676473000,"departureDelay":0,"arrivalDelay":0,"realTime":false,"distance":255.497,"pathway":false,"mode":"WALK","route":"","agencyTimeZoneOffset":-14400000,"interlineWithPreviousLeg":false,"from":{"name":"Origin","lon":-70.983555,"lat":48.390044,"departure":1522676269000,"orig":"","vertexType":"NORMAL"},"to":{"name":"boul. St-Jean-Baptiste / Lavoie","stopId":"1:242","stopCode":"242","lon":-70.981278,"lat":48.390523,"arrival":1522676473000,"departure":1522676474000,"zoneId":"NA","stopIndex":26,"stopSequence":27,"vertexType":"TRANSIT"},"legGeometry":{"points":"kejfHr_gpLMKa@g@CQHi@x@uBiCmCv@sB","length":8},"rentedBike":false,"transitLeg":false,"duration":204.0,"steps":[{"distance":39.589,"relativeDirection":"DEPART","streetName":"Rue des Lilas","absoluteDirection":"NORTHEAST","stayOn":false,"area":false,"bogusName":false,"lon":-70.98377988785658,"lat":48.39014607029739,"elevation":[]},{"distance":70.479,"relativeDirection":"RIGHT","streetName":"Rue des Lys","absoluteDirection":"EAST","stayOn":false,"area":false,"bogusName":false,"lon":-70.9834276,"lat":48.39040120000001,"elevation":[]},{"distance":92.569,"relativeDirection":"LEFT","streetName":"Rue des Tulipes","absoluteDirection":"NORTHEAST","stayOn":false,"area":false,"bogusName":false,"lon":-70.98262670000001,"lat":48.3900677,"elevation":[]},{"distance":52.86,"relativeDirection":"RIGHT","streetName":"Boulevard Saint-Jean-Baptiste","absoluteDirection":"SOUTHEAST","stayOn":false,"area":false,"bogusName":false,"lon":-70.9819123,"lat":48.390751800000004,"elevation":[]}]},{"startTime":1522676474000,"endTime":1522676885000,"departureDelay":0,"arrivalDelay":0,"realTime":false,"distance":5792.007424242183,"pathway":false,"mode":"BUS","route":"5","agencyName":"Société de Transport du Saguenay","agencyUrl":"http://ville.saguenay.ca/fr/services-aux-citoyens/transport-sts","agencyTimeZoneOffset":-14400000,"routeColor":"FF0000","routeType":3,"routeId":"1:5","routeTextColor":"FFFFFF","interlineWithPreviousLeg":false,"tripBlockId":"24","headsign":"Terminus UQAC","agencyId":"0","tripId":"1:217905","serviceDate":"20180402","from":{"name":"boul. St-Jean-Baptiste / Lavoie","stopId":"1:242","stopCode":"242","lon":-70.981278,"lat":48.390523,"arrival":1522676473000,"departure":1522676474000,"zoneId":"NA","stopIndex":26,"stopSequence":27,"vertexType":"TRANSIT"},"to":{"name":"boul. Université / Murdock","stopId":"1:59","stopCode":"59","lon":-71.049971,"lat":48.411755,"arrival":1522676885000,"departure":1522676886000,"zoneId":"NA","stopIndex":38,"stopSequence":39,"vertexType":"TRANSIT"},"legGeometry":{"points":"egjfHrpfpL}FvO{GxQmErLkEpL}EtMeAlCaB|CMRqApBmErFeAtAs@jAu@`Bm@bBOh@]zAeCpNUlA_A`EkArDmCdHgG`PwIdUkP|b@uBrFu@hBw@bBg@z@i@z@m@~@WXYZ}InJeDdDy@j@yAn@@^h@bI`@jDdC~Nb@~DpExr@TlC`A`Ob@dIFlFE~BCv@Cn@I|@uCdOwAbE","length":53},"routeShortName":"5","routeLongName":"Term. Chic/Term. Baie via St-J.Batiste","rentedBike":false,"transitLeg":true,"duration":411.0,"steps":[]},{"startTime":1522676886000,"endTime":1522677888000,"departureDelay":0,"arrivalDelay":0,"realTime":false,"distance":1262.7540000000004,"pathway":false,"mode":"WALK","route":"","agencyTimeZoneOffset":-14400000,"interlineWithPreviousLeg":false,"from":{"name":"boul. Université / Murdock","stopId":"1:59","stopCode":"59","lon":-71.049971,"lat":48.411755,"arrival":1522676885000,"departure":1522676886000,"zoneId":"NA","stopIndex":38,"stopSequence":39,"vertexType":"TRANSIT"},"to":{"name":"Destination","lon":-71.054642,"lat":48.403952,"arrival":1522677888000,"orig":"","vertexType":"NORMAL"},"legGeometry":{"points":"_lnfHx}spLZ}@VPxBeHF_@`@o@XMd@KJD~Av@j@XFBpAp@pG|Cl@V@@lB|@V\\LXFT?hADT@J@FFn@z@pEt@]l@Qp@E|@B|@L?dBGRRRZXXXXVVTXVPROf@Wt@Xb@R\\T^R\\JL","length":47},"rentedBike":false,"transitLeg":false,"duration":1002.0,"steps":[{"distance":183.259,"relativeDirection":"DEPART","streetName":"Boulevard de l'Université","absoluteDirection":"SOUTHEAST","stayOn":false,"area":false,"bogusName":false,"lon":-71.05004245459075,"lat":48.41168714240219,"elevation":[]},{"distance":62.949,"relativeDirection":"SLIGHTLY_RIGHT","streetName":"link","absoluteDirection":"SOUTHEAST","stayOn":false,"area":false,"bogusName":true,"lon":-71.04819570000001,"lat":48.410774100000005,"elevation":[]},{"distance":400.404,"relativeDirection":"SLIGHTLY_RIGHT","streetName":"Rue Des Roitelets","absoluteDirection":"SOUTH","stayOn":false,"area":false,"bogusName":false,"lon":-71.0478246,"lat":48.4102837,"elevation":[]},{"distance":39.358,"relativeDirection":"SLIGHTLY_RIGHT","streetName":"link","absoluteDirection":"SOUTHWEST","stayOn":false,"area":false,"bogusName":true,"lon":-71.0497603,"lat":48.406919900000005,"elevation":[]},{"distance":146.364,"relativeDirection":"SLIGHTLY_RIGHT","streetName":"Rue Émile-Girardin","absoluteDirection":"WEST","stayOn":false,"area":false,"bogusName":false,"lon":-71.0501541,"lat":48.406688800000005,"elevation":[]},{"distance":155.611,"relativeDirection":"LEFT","streetName":"Rue des Champs-Élysées","absoluteDirection":"SOUTH","stayOn":false,"area":false,"bogusName":false,"lon":-71.05202630000001,"lat":48.4062974,"elevation":[]},{"distance":46.581,"relativeDirection":"RIGHT","streetName":"service road","absoluteDirection":"WEST","stayOn":false,"area":false,"bogusName":true,"lon":-71.05184220000001,"lat":48.4049276,"elevation":[]},{"distance":110.87500000000001,"relativeDirection":"LEFT","streetName":"service road","absoluteDirection":"SOUTHWEST","stayOn":true,"area":false,"bogusName":true,"lon":-71.05245930000001,"lat":48.4049623,"elevation":[]},{"distance":117.35300000000001,"relativeDirection":"RIGHT","streetName":"parking aisle","absoluteDirection":"NORTHWEST","stayOn":true,"area":false,"bogusName":true,"lon":-71.0532652,"lat":48.4041209,"elevation":[]}]}],"tooSloped":false},{"duration":1670,"startTime":1522678618000,"endTime":1522680288000,"walkTime":1206,"transitTime":462,"waitingTime":2,"walkDistance":1518.6137819431815,"walkLimitExceeded":false,"elevationLost":0.0,"elevationGained":0.0,"transfers":0,"legs":[{"startTime":1522678618000,"endTime":1522678822000,"departureDelay":0,"arrivalDelay":0,"realTime":false,"distance":255.497,"pathway":false,"mode":"WALK","route":"","agencyTimeZoneOffset":-14400000,"interlineWithPreviousLeg":false,"from":{"name":"Origin","lon":-70.983555,"lat":48.390044,"departure":1522678618000,"orig":"","vertexType":"NORMAL"},"to":{"name":"boul. St-Jean-Baptiste / Lavoie","stopId":"1:242","stopCode":"242","lon":-70.981278,"lat":48.390523,"arrival":1522678822000,"departure":1522678823000,"zoneId":"NA","stopIndex":40,"stopSequence":41,"vertexType":"TRANSIT"},"legGeometry":{"points":"kejfHr_gpLMKa@g@CQHi@x@uBiCmCv@sB","length":8},"rentedBike":false,"transitLeg":false,"duration":204.0,"steps":[{"distance":39.589,"relativeDirection":"DEPART","streetName":"Rue des Lilas","absoluteDirection":"NORTHEAST","stayOn":false,"area":false,"bogusName":false,"lon":-70.98377988785658,"lat":48.39014607029739,"elevation":[]},{"distance":70.479,"relativeDirection":"RIGHT","streetName":"Rue des Lys","absoluteDirection":"EAST","stayOn":false,"area":false,"bogusName":false,"lon":-70.9834276,"lat":48.39040120000001,"elevation":[]},{"distance":92.569,"relativeDirection":"LEFT","streetName":"Rue des Tulipes","absoluteDirection":"NORTHEAST","stayOn":false,"area":false,"bogusName":false,"lon":-70.98262670000001,"lat":48.3900677,"elevation":[]},{"distance":52.86,"relativeDirection":"RIGHT","streetName":"Boulevard Saint-Jean-Baptiste","absoluteDirection":"SOUTHEAST","stayOn":false,"area":false,"bogusName":false,"lon":-70.9819123,"lat":48.390751800000004,"elevation":[]}]},{"startTime":1522678823000,"endTime":1522679285000,"departureDelay":0,"arrivalDelay":0,"realTime":false,"distance":5792.007424242183,"pathway":false,"mode":"BUS","route":"6","agencyName":"Société de Transport du Saguenay","agencyUrl":"http://ville.saguenay.ca/fr/services-aux-citoyens/transport-sts","agencyTimeZoneOffset":-14400000,"routeColor":"FF0000","routeType":3,"routeId":"1:6","routeTextColor":"FFFFFF","interlineWithPreviousLeg":false,"tripBlockId":"25","headsign":"Terminus UQAC","agencyId":"0","tripId":"1:217934","serviceDate":"20180402","from":{"name":"boul. St-Jean-Baptiste / Lavoie","stopId":"1:242","stopCode":"242","lon":-70.981278,"lat":48.390523,"arrival":1522678822000,"departure":1522678823000,"zoneId":"NA","stopIndex":40,"stopSequence":41,"vertexType":"TRANSIT"},"to":{"name":"boul. Université / Murdock","stopId":"1:59","stopCode":"59","lon":-71.049971,"lat":48.411755,"arrival":1522679285000,"departure":1522679286000,"zoneId":"NA","stopIndex":52,"stopSequence":53,"vertexType":"TRANSIT"},"legGeometry":{"points":"egjfHrpfpL}FvO{GxQmErLkEpL}EtMeAlCaB|CMRqApBmErFeAtAs@jAu@`Bm@bBOh@]zAeCpNUlA_A`EkArDmCdHgG`PwIdUkP|b@uBrFu@hBw@bBg@z@i@z@m@~@WXYZ}InJeDdDy@j@yAn@@^h@bI`@jDdC~Nb@~DpExr@TlC`A`Ob@dIFlFE~BCv@Cn@Gl@_@fIgBpGwAvC","length":54},"routeShortName":"6","routeLongName":"Term. Chic/Term. Baie via ch.Plateau","rentedBike":false,"transitLeg":true,"duration":462.0,"steps":[]},{"startTime":1522679286000,"endTime":1522680288000,"departureDelay":0,"arrivalDelay":0,"realTime":false,"distance":1262.7540000000004,"pathway":false,"mode":"WALK","route":"","agencyTimeZoneOffset":-14400000,"interlineWithPreviousLeg":false,"from":{"name":"boul. Université / Murdock","stopId":"1:59","stopCode":"59","lon":-71.049971,"lat":48.411755,"arrival":1522679285000,"departure":1522679286000,"zoneId":"NA","stopIndex":52,"stopSequence":53,"vertexType":"TRANSIT"},"to":{"name":"Destination","lon":-71.054642,"lat":48.403952,"arrival":1522680288000,"orig":"","vertexType":"NORMAL"},"legGeometry":{"points":"_lnfHx}spLZ}@VPxBeHF_@`@o@XMd@KJD~Av@j@XFBpAp@pG|Cl@V@@lB|@V\\LXFT?hADT@J@FFn@z@pEt@]l@Qp@E|@B|@L?dBGRRRZXXXXVVTXVPROf@Wt@Xb@R\\T^R\\JL","length":47},"rentedBike":false,"transitLeg":false,"duration":1002.0,"steps":[{"distance":183.259,"relativeDirection":"DEPART","streetName":"Boulevard de l'Université","absoluteDirection":"SOUTHEAST","stayOn":false,"area":false,"bogusName":false,"lon":-71.05004245459075,"lat":48.41168714240219,"elevation":[]},{"distance":62.949,"relativeDirection":"SLIGHTLY_RIGHT","streetName":"link","absoluteDirection":"SOUTHEAST","stayOn":false,"area":false,"bogusName":true,"lon":-71.04819570000001,"lat":48.410774100000005,"elevation":[]},{"distance":400.404,"relativeDirection":"SLIGHTLY_RIGHT","streetName":"Rue Des Roitelets","absoluteDirection":"SOUTH","stayOn":false,"area":false,"bogusName":false,"lon":-71.0478246,"lat":48.4102837,"elevation":[]},{"distance":39.358,"relativeDirection":"SLIGHTLY_RIGHT","streetName":"link","absoluteDirection":"SOUTHWEST","stayOn":false,"area":false,"bogusName":true,"lon":-71.0497603,"lat":48.406919900000005,"elevation":[]},{"distance":146.364,"relativeDirection":"SLIGHTLY_RIGHT","streetName":"Rue Émile-Girardin","absoluteDirection":"WEST","stayOn":false,"area":false,"bogusName":false,"lon":-71.0501541,"lat":48.406688800000005,"elevation":[]},{"distance":155.611,"relativeDirection":"LEFT","streetName":"Rue des Champs-Élysées","absoluteDirection":"SOUTH","stayOn":false,"area":false,"bogusName":false,"lon":-71.05202630000001,"lat":48.4062974,"elevation":[]},{"distance":46.581,"relativeDirection":"RIGHT","streetName":"service road","absoluteDirection":"WEST","stayOn":false,"area":false,"bogusName":true,"lon":-71.05184220000001,"lat":48.4049276,"elevation":[]},{"distance":110.87500000000001,"relativeDirection":"LEFT","streetName":"service road","absoluteDirection":"SOUTHWEST","stayOn":true,"area":false,"bogusName":true,"lon":-71.05245930000001,"lat":48.4049623,"elevation":[]},{"distance":117.35300000000001,"relativeDirection":"RIGHT","streetName":"parking aisle","absoluteDirection":"NORTHWEST","stayOn":true,"area":false,"bogusName":true,"lon":-71.0532652,"lat":48.4041209,"elevation":[]}]}],"tooSloped":false}]},"debugOutput":{"precalculationTime":16,"pathCalculationTime":16,"pathTimes":[7,3,6],"renderingTime":0,"totalTime":32,"timedOut":false},"elevationMetadata":{"ellipsoidToGeoidDifference":-28.885904201182168,"geoidElevation":false}}