{"requestParameters":{"date":"2018/04/02","walkSpeed":"1.33","walkReluctance":"2.0","fromPlace":"48.390163,-70.98515","maxWalkDistance":"3000","waitReluctance":"1.0","carSpeed":"33","numItineraries":"3","waitAtBeginningFactor":"0.4","mode":"TRANSIT,WALK","ignoreRealtimeUpdates":"false","stairsReluctance":"2.0","toPlace":"48.403727,-71.056775","time":"7:0:00"},"plan":{"date":1522666800000,"from":{"name":"Origin","lon":-70.98515,"lat":48.390163,"orig":"","vertexType":"NORMAL"},"to":{"name":"Destination","lon":-71.056775,"lat":48.403727,"orig":"","vertexType":"NORMAL"},"itineraries":[{"duration":1611,"startTime":1522667210000,"endTime":1522668821000,"walkTime":1209,"transitTime":400,"waitingTime":2,"walkDistance":1552.6713007447706,"walkLimitExceeded":false,"elevationLost":0.0,"elevationGained":0.0,"transfers":0,"legs":[{"startTime":1522667210000,"endTime":1522667480000,"departureDelay":0,"arrivalDelay":0,"realTime":false,"distance":340.03700000000003,"pathway":false,"mode":"WALK","route":"","agencyTimeZoneOffset":-14400000,"interlineWithPreviousLeg":false,"from":{"name":"Origin","lon":-70.98515,"lat":48.390163,"departure":1522667210000,"orig":"","vertexType":"NORMAL"},"to":{"name":"boul. St-Jean-Baptiste / Girard","stopId":"1:257","stopCode":"257","lon":-70.983934,"lat":48.391812,"arrival":1522667480000,"departure":1522667481000,"zoneId":"NA","stopIndex":27,"stopSequence":28,"vertexType":"TRANSIT"},"legGeometry":{"points":"kfjfHfggpL}AfEaGeGdAuCKM","length":5},"rentedBike":false,"transitLeg":false,"duration":270.0,"steps":[{"distance":89.981,"relativeDirection":"DEPART","streetName":"Rue des Rosiers","absoluteDirection":"NORTHWEST","stayOn":false,"area":false,"bogusName":false,"lon":-70.98499661204818,"lat":48.390307701378575,"elevation":[]},{"distance":173.425,"relativeDirection":"RIGHT","streetName":"Rang Saint-Roch","absoluteDirection":"NORTHEAST","stayOn":false,"area":false,"bogusName":false,"lon":-70.9859931,"lat":48.3907735,"elevation":[]},{"distance":68.014,"relativeDirection":"RIGHT","streetName":"Boulevard Saint-Jean-Baptiste","absoluteDirection":"SOUTHEAST","stayOn":false,"area":false,"bogusName":false,"lon":-70.9846837,"lat":48.392068300000005,"elevation":[]},{"distance":8.617,"relativeDirection":"LEFT","streetName":"Rue Girard","absoluteDirection":"NORTHEAST","stayOn":false,"area":false,"bogusName":false,"lon":-70.9839326,"lat":48.3917142,"elevation":[]}]},{"startTime":1522667481000,"endTime":1522667881000,"departureDelay":0,"arrivalDelay":0,"realTime":false,"distance":5549.099234069484,"pathway":false,"mode":"BUS","route":"70S","agencyName":"Société de Transport du Saguenay","agencyUrl":"http://ville.saguenay.ca/fr/services-aux-citoyens/transport-sts","agencyTimeZoneOffset":-14400000,"routeColor":"8B0000","routeType":3,"routeId":"1:70S","routeTextColor":"FFFFFF","interlineWithPreviousLeg":false,"tripBlockId":"46","headsign":"École Lafontaine","agencyId":"0","tripId":"1:218384","serviceDate":"20180402","from":{"name":"boul. St-Jean-Baptiste / Girard","stopId":"1:257","stopCode":"257","lon":-70.983934,"lat":48.391812,"arrival":1522667480000,"departure":1522667481000,"zoneId":"NA","stopIndex":27,"stopSequence":28,"vertexType":"TRANSIT"},"to":{"name":"boul. Université / Murdock","stopId":"1:59","stopCode":"59","lon":-71.049971,"lat":48.411755,"arrival":1522667881000,"departure":1522667882000,"zoneId":"NA","stopIndex":38,"stopSequence":39,"vertexType":"TRANSIT"},"legGeometry":{"points":"cojfHjagpL{GxQmErLkEpL}EtMeAlCaB|CMRqApBmErFeAtAs@jAu@`Bm@bBOh@]zAeCpNUlA_A`EkArDmCdHgG`PwIdUkP|b@uBrFu@hBw@bBg@z@i@z@m@~@WXYZ}InJeDdDy@j@yAn@@^h@bI`@jDdC~Nb@~DpExr@TlC`A`Ob@dIFlFE~BCv@Cn@OhBe@nD[bBeAtDcAzC[v@","length":55},"routeShortName":"70S","routeLongName":"Term.Baie vers Cégep/D.racine/Lafontaine","rentedBike":false,"transitLeg":true,"duration":400.0,"steps":[]},{"startTime":1522667882000,"endTime":1522668821000,"departureDelay":0,"arrivalDelay":0,"realTime":false,"distance":1212.414,"pathway":false,"mode":"WALK","route":"","agencyTimeZoneOffset":-14400000,"interlineWithPreviousLeg":false,"from":{"name":"boul. Université / Murdock","stopId":"1:59","stopCode":"59","lon":-71.049971,"lat":48.411755,"arrival":1522667881000,"departure":1522667882000,"zoneId":"NA","stopIndex":38,"stopSequence":39,"vertexType":"TRANSIT"},"to":{"name":"Destination","lon":-71.056775,"lat":48.403727,"arrival":1522668821000,"orig":"","vertexType":"NORMAL"},"legGeometry":{"points":"_lnfHx}spLoAhDELTXLJx@|@bDfDjDlDPRp@p@lAhApF`FJJzFjF|DpDDKn@}Br@qBXTXVZX\\XXTBBTBFFXVZZRPVVDD","length":31},"rentedBike":false,"transitLeg":false,"duration":939.0,"steps":[{"distance":83.417,"relativeDirection":"DEPART","streetName":"Boulevard de l'Université","absoluteDirection":"NORTHWEST","stayOn":false,"area":false,"bogusName":false,"lon":-71.05004245459075,"lat":48.41168714240219,"elevation":[]},{"distance":842.7369999999999,"relativeDirection":"LEFT","streetName":"Boulevard Talbot","absoluteDirection":"SOUTHWEST","stayOn":false,"area":false,"bogusName":false,"lon":-71.05096660000001,"lat":48.4121189,"elevation":[]},{"distance":286.26,"relativeDirection":"LEFT","streetName":"service road","absoluteDirection":"SOUTHEAST","stayOn":false,"area":false,"bogusName":true,"lon":-71.0571583,"lat":48.4057532,"elevation":[]}]}],"tooSloped":false},{"duration":1655,"startTime":1522667770000,"endTime":1522669425000,"walkTime":1209,"transitTime":444,"waitingTime":2,"walkDistance":1552.6713007447706,"walkLimitExceeded":false,"elevationLost":0.0,"elevationGained":0.0,"transfers":0,"legs":[{"startTime":1522667770000,"endTime":1522668040000,"departureDelay":0,"arrivalDelay":0,"realTime":false,"distance":340.03700000000003,"pathway":false,"mode":"WALK","route":"","agencyTimeZoneOffset":-14400000,"interlineWithPreviousLeg":false,"from":{"name":"Origin","lon":-70.98515,"lat":48.390163,"departure":1522667770000,"orig":"","vertexType":"NORMAL"},"to":{"name":"boul. St-Jean-Baptiste / Girard","stopId":"1:257","stopCode":"257","lon":-70.983934,"lat":48.391812,"arrival":1522668040000,"departure":1522668041000,"zoneId":"NA","stopIndex":41,"stopSequence":42,"vertexType":"TRANSIT"},"legGeometry":{"points":"kfjfHfggpL}AfEaGeGdAuCKM","length":5},"rentedBike":false,"transitLeg":false,"duration":270.0,"steps":[{"distance":89.981,"relativeDirection":"DEPART","streetName":"Rue des Rosiers","absoluteDirection":"NORTHWEST","stayOn":false,"area":false,"bogusName":false,"lon":-70.98499661204818,"lat":48.390307701378575,"elevation":[]},{"distance":173.425,"relativeDirection":"RIGHT","streetName":"Rang Saint-Roch","absoluteDirection":"NORTHEAST","stayOn":false,"area":false,"bogusName":false,"lon":-70.9859931,"lat":48.3907735,"elevation":[]},{"distance":68.014,"relativeDirection":"RIGHT","streetName":"Boulevard Saint-Jean-Baptiste","absoluteDirection":"SOUTHEAST","stayOn":false,"area":false,"bogusName":false,"lon":-70.9846837,"lat":48.392068300000005,"elevation":[]},{"distance":8.617,"relativeDirection":"LEFT","streetName":"Rue Girard","absoluteDirection":"NORTHEAST","stayOn":false,"area":false,"bogusName":false,"lon":-70.9839326,"lat":48.3917142,"elevation":[]}]},{"startTime":1522668041000,"endTime":1522668485000,"departureDelay":0,"arrivalDelay":0,"realTime":false,"distance":5549.099234069484,"pathway":false,"mode":"BUS","route":"6","agencyName":"Société de Transport du Saguenay","agencyUrl":"http://ville.saguenay.ca/fr/services-aux-citoyens/transport-sts","agencyTimeZoneOffset":-14400000,"routeColor":"FF0000","routeType":3,"routeId":"1:6","routeTextColor":"FFFFFF","interlineWithPreviousLeg":false,"tripBlockId":"25","headsign":"Terminus UQAC","agencyId":"0","tripId":"1:217928","serviceDate":"20180402","from":{"name":"boul. St-Jean-Baptiste / Girard","stopId":"1:257","stopCode":"257","lon":-70.983934,"lat":48.391812,"arrival":1522668040000,"departure":1522668041000,"zoneId":"NA","stopIndex":41,"stopSequence":42,"vertexType":"TRANSIT"},"to":{"name":"boul. Université / Murdock","stopId":"1:59","stopCode":"59","lon":-71.049971,"lat":48.411755,"arrival":1522668485000,"departure":1522668486000,"zoneId":"NA","stopIndex":52,"stopSequence":53,"vertexType":"TRANSIT"},"legGeometry":{"points":"cojfHjagpL{GxQmErLkEpL}EtMeAlCaB|CMRqApBmErFeAtAs@jAu@`Bm@bBOh@]zAeCpNUlA_A`EkArDmCdHgG`PwIdUkP|b@uBrFu@hBw@bBg@z@i@z@m@~@WXYZ}InJeDdDy@j@yAn@@^h@bI`@jDdC~Nb@~DpExr@TlC`A`Ob@dIFlFE~BCv@Cn@Gl@_@fIgBpGwAvC","length":53},"routeShortName":"6","routeLongName":"Term. Chic/Term. Baie via ch.Plateau","rentedBike":false,"transitLeg":true,"duration":444.0,"steps":[]},{"startTime":1522668486000,"endTime":1522669425000,"departureDelay":0,"arrivalDelay":0,"realTime":false,"distance":1212.414,"pathway":false,"mode":"WALK","route":"","agencyTimeZoneOffset":-14400000,"interlineWithPreviousLeg":false,"from":{"name":"boul. Université / Murdock","stopId":"1:59","stopCode":"59","lon":-71.049971,"lat":48.411755,"arrival":1522668485000,"departure":1522668486000,"zoneId":"NA","stopIndex":52,"stopSequence":53,"vertexType":"TRANSIT"},"to":{"name":"Destination","lon":-71.056775,"lat":48.403727,"arrival":1522669425000,"orig":"","vertexType":"NORMAL"},"legGeometry":{"points":"_lnfHx}spLoAhDELTXLJx@|@bDfDjDlDPRp@p@lAhApF`FJJzFjF|DpDDKn@}Br@qBXTXVZX\\XXTBBTBFFXVZZRPVVDD","length":31},"rentedBike":false,"transitLeg":false,"duration":939.0,"steps":[{"distance":83.417,"relativeDirection":"DEPART","streetName":"Boulevard de l'Université","absoluteDirection":"NORTHWEST","stayOn":false,"area":false,"bogusName":false,"lon":-71.05004245459075,"lat":48.41168714240219,"elevation":[]},{"distance":842.7369999999999,"relativeDirection":"LEFT","streetName":"Boulevard Talbot","absoluteDirection":"SOUTHWEST","stayOn":false,"area":false,"bogusName":false,"lon":-71.05096660000001,"lat":48.4121189,"elevation":[]},{"distance":286.26,"relativeDirection":"LEFT","streetName":"service road","absoluteDirection":"SOUTHEAST","stayOn":false,"area":false,"bogusName":true,"lon":-71.0571583,"lat":48.4057532,"elevation":[]}]}],"tooSloped":false},{"duration":1607,"startTime":1522669018000,"endTime":1522670625000,"walkTime":1209,"transitTime":396,"waitingTime":2,"walkDistance":1552.6713007447706,"walkLimitExceeded":false,"elevationLost":0.0,"elevationGained":0.0,"transfers":0,"legs":[{"startTime":1522669018000,"endTime":1522669288000,"departureDelay":0,"arrivalDelay":0,"realTime":false,"distance":340.03700000000003,"pathway":false,"mode":"WALK","route":"","agencyTimeZoneOffset":-14400000,"interlineWithPreviousLeg":false,"from":{"name":"Origin","lon":-70.98515,"lat":48.390163,"departure":1522669018000,"orig":"","vertexType":"NORMAL"},"to":{"name":"boul. St-Jean-Baptiste / Girard","stopId":"1:257","stopCode":"257","lon":-70.983934,"lat":48.391812,"arrival":1522669288000,"departure":1522669289000,"zoneId":"NA","stopIndex":27,"stopSequence":28,"vertexType":"TRANSIT"},"legGeometry":{"points":"kfjfHfggpL}AfEaGeGdAuCKM","length":5},"rentedBike":false,"transitLeg":false,"duration":270.0,"steps":[{"distance":89.981,"relativeDirection":"DEPART","streetName":"Rue des Rosiers","absoluteDirection":"NORTHWEST","stayOn":false,"area":false,"bogusName":false,"lon":-70.98499661204818,"lat":48.390307701378575,"elevation":[]},{"distance":173.425,"relativeDirection":"RIGHT","streetName":"Rang Saint-Roch","absoluteDirection":"NORTHEAST","stayOn":false,"area":false,"bogusName":false,"lon":-70.9859931,"lat":48.3907735,"elevation":[]},{"distance":68.014,"relativeDirection":"RIGHT","streetName":"Boulevard Saint-Jean-Baptiste","absoluteDirection":"SOUTHEAST","stayOn":false,"area":false,"bogusName":false,"lon":-70.9846837,"lat":48.392068300000005,"elevation":[]},{"distance":8.617,"relativeDirection":"LEFT","streetName":"Rue Girard","absoluteDirection":"NORTHEAST","stayOn":false,"area":false,"bogusName":false,"lon":-70.9839326,"lat":48.3917142,"elevation":[]}]},{"startTime":1522669289000,"endTime":1522669685000,"departureDelay":0,"arrivalDelay":0,"realTime":false,"distance":5549.099234069484,"pathway":false,"mode":"BUS","route":"5","agencyName":"Société de Transport du Saguenay","agencyUrl":"http://ville.saguenay.ca/fr/services-aux-citoyens/transport-sts","agencyTimeZoneOffset":-14400000,"routeColor":"FF0000","routeType":3,"routeId":"1:5","routeTextColor":"FFFFFF","interlineWithPreviousLeg":false,"tripBlockId":"24","headsign":"Terminus UQAC","agencyId":"0","tripId":"1:217901","serviceDate":"20180402","from":{"name":"boul. St-Jean-Baptiste / Girard","stopId":"1:257","stopCode":"257","lon":-70.983934,"lat":48.391812,"arrival":1522669288000,"departure":1522669289000,"zoneId":"NA","stopIndex":27,"stopSequence":28,"vertexType":"TRANSIT"},"to":{"name":"boul. Université / Murdock","stopId":"1:59","stopCode":"59","lon":-71.049971,"lat":48.411755,"arrival":1522669685000,"departure":1522669686000,"zoneId":"NA","stopIndex":38,"stopSequence":39,"vertexType":"TRANSIT"},"legGeometry":{"points":"cojfHjagpL{GxQmErLkEpL}EtMeAlCaB|CMRqApBmErFeAtAs@jAu@`Bm@bBOh@]zAeCpNUlA_A`EkArDmCdHgG`PwIdUkP|b@uBrFu@hBw@bBg@z@i@z@m@~@WXYZ}InJeDdDy@j@yAn@@^h@bI`@jDdC~Nb@~DpExr@TlC`A`Ob@dIFlFE~BCv@Cn@I|@uCdOwAbE","length":52},"routeShortName":"5","routeLongName":"Term. Chic/Term. Baie via St-J.Batiste","rentedBike":false,"transitLeg":true,"duration":396.0,"steps":[]},{"startTime":1522669686000,"endTime":1522670625000,"departureDelay":0,"arrivalDelay":0,"realTime":false,"distance":1212.414,"pathway":false,"mode":"WALK","route":"","agencyTimeZoneOffset":-14400000,"interlineWithPreviousLeg":false,"from":{"name":"boul. Université / Murdock","stopId":"1:59","stopCode":"59","lon":-71.049971,"lat":48.411755,"arrival":1522669685000,"departure":1522669686000,"zoneId":"NA","stopIndex":38,"stopSequence":39,"vertexType":"TRANSIT"},"to":{"name":"Destination","lon":-71.056775,"lat":48.403727,"arrival":1522670625000,"orig":"","vertexType":"NORMAL"},"legGeometry":{"points":"_lnfHx}spLoAhDELTXLJx@|@bDfDjDlDPRp@p@lAhApF`FJJzFjF|DpDDKn@}Br@qBXTXVZX\\XXTBBTBFFXVZZRPVVDD","length":31},"rentedBike":false,"transitLeg":false,"duration":939.0,"steps":[{"distance":83.417,"relativeDirection":"DEPART","streetName":"Boulevard de l'Université","absoluteDirection":"NORTHWEST","stayOn":false,"area":false,"bogusName":false,"lon":-71.05004245459075,"lat":48.41168714240219,"elevation":[]},{"distance":842.7369999999999,"relativeDirection":"LEFT","streetName":"Boulevard Talbot","absoluteDirection":"SOUTHWEST","stayOn":false,"area":false,"bogusName":false,"lon":-71.05096660000001,"lat":48.4121189,"elevation":[]},{"distance":286.26,"relativeDirection":"LEFT","streetName":"service road","absoluteDirection":"SOUTHEAST","stayOn":false,"area":false,"bogusName":true,"lon":-71.0571583,"lat":48.4057532,"elevation":[]}]}],"tooSloped":false}]},"debugOutput":{"precalculationTime":16,"pathCalculationTime":13,"pathTimes":[6,3,4],"renderingTime":0,"totalTime":29,"timedOut":false},"elevationMetadata":{"ellipsoidToGeoidDifference":-28.885904201182168,"geoidElevation":false}}