{"requestParameters":{"date":"2018/04/02","walkSpeed":"1.33","walkReluctance":"2.0","fromPlace":"48.401153,-71.006271","maxWalkDistance":"3000","waitReluctance":"1.0","carSpeed":"33","numItineraries":"3","waitAtBeginningFactor":"0.4","mode":"TRANSIT,WALK","ignoreRealtimeUpdates":"false","stairsReluctance":"2.0","toPlace":"48.403727,-71.056775","time":"14:0:00"},"plan":{"date":1522692000000,"from":{"name":"Origin","lon":-71.006271,"lat":48.401153,"orig":"","vertexType":"NORMAL"},"to":{"name":"Destination","lon":-71.056775,"lat":48.403727,"orig":"","vertexType":"NORMAL"},"itineraries":[{"duration":1330,"startTime":1522693295000,"endTime":1522694625000,"walkTime":1035,"transitTime":293,"waitingTime":2,"walkDistance":1335.6357368374347,"walkLimitExceeded":false,"elevationLost":0.0,"elevationGained":0.0,"transfers":0,"legs":[{"startTime":1522693295000,"endTime":1522693391000,"departureDelay":0,"arrivalDelay":0,"realTime":false,"distance":123.077,"pathway":false,"mode":"WALK","route":"","agencyTimeZoneOffset":-14400000,"interlineWithPreviousLeg":false,"from":{"name":"Origin","lon":-71.006271,"lat":48.401153,"departure":1522693295000,"orig":"","vertexType":"NORMAL"},"to":{"name":"boul. St-Jean-Baptiste / Ste-Famille","stopId":"1:247","stopCode":"247","lon":-71.005753,"lat":48.402249,"arrival":1522693391000,"departure":1522693392000,"zoneId":"NA","stopIndex":47,"stopSequence":48,"vertexType":"TRANSIT"},"legGeometry":{"points":"_klfH~mkpLcDiDMX","length":3},"rentedBike":false,"transitLeg":false,"duration":96.0,"steps":[{"distance":111.222,"relativeDirection":"DEPART","streetName":"Rang Sainte-Famille","absoluteDirection":"NORTHEAST","stayOn":false,"area":false,"bogusName":false,"lon":-71.00655552874055,"lat":48.401281441988516,"elevation":[]},{"distance":11.855,"relativeDirection":"LEFT","streetName":"Boulevard Saint-Jean-Baptiste","absoluteDirection":"NORTHWEST","stayOn":false,"area":false,"bogusName":false,"lon":-71.0057084,"lat":48.402108600000005,"elevation":[]}]},{"startTime":1522693392000,"endTime":1522693685000,"departureDelay":0,"arrivalDelay":0,"realTime":false,"distance":3562.725907838339,"pathway":false,"mode":"BUS","route":"6","agencyName":"Société de Transport du Saguenay","agencyUrl":"http://ville.saguenay.ca/fr/services-aux-citoyens/transport-sts","agencyTimeZoneOffset":-14400000,"routeColor":"FF0000","routeType":3,"routeId":"1:6","routeTextColor":"FFFFFF","interlineWithPreviousLeg":false,"tripBlockId":"25","headsign":"Terminus UQAC","agencyId":"0","tripId":"1:217942","serviceDate":"20180402","from":{"name":"boul. St-Jean-Baptiste / Ste-Famille","stopId":"1:247","stopCode":"247","lon":-71.005753,"lat":48.402249,"arrival":1522693391000,"departure":1522693392000,"zoneId":"NA","stopIndex":47,"stopSequence":48,"vertexType":"TRANSIT"},"to":{"name":"boul. Université / Murdock","stopId":"1:59","stopCode":"59","lon":-71.049971,"lat":48.411755,"arrival":1522693685000,"departure":1522693686000,"zoneId":"NA","stopIndex":52,"stopSequence":53,"vertexType":"TRANSIT"},"legGeometry":{"points":"oplfHpikpLgG`PwIdUkP|b@uBrFu@hBw@bBg@z@i@z@m@~@WXYZ}InJeDdDy@j@yAn@@^h@bI`@jDdC~Nb@~DpExr@TlC`A`Ob@dIFlFE~BCv@Cn@Gl@_@fIgBpGwAvC","length":33},"routeShortName":"6","routeLongName":"Term. Chic/Term. Baie via ch.Plateau","rentedBike":false,"transitLeg":true,"duration":293.0,"steps":[]},{"startTime":1522693686000,"endTime":1522694625000,"departureDelay":0,"arrivalDelay":0,"realTime":false,"distance":1212.414,"pathway":false,"mode":"WALK","route":"","agencyTimeZoneOffset":-14400000,"interlineWithPreviousLeg":false,"from":{"name":"boul. Université / Murdock","stopId":"1:59","stopCode":"59","lon":-71.049971,"lat":48.411755,"arrival":1522693685000,"departure":1522693686000,"zoneId":"NA","stopIndex":52,"stopSequence":53,"vertexType":"TRANSIT"},"to":{"name":"Destination","lon":-71.056775,"lat":48.403727,"arrival":1522694625000,"orig":"","vertexType":"NORMAL"},"legGeometry":{"points":"_lnfHx}spLoAhDELTXLJx@|@bDfDjDlDPRp@p@lAhApF`FJJzFjF|DpDDKn@}Br@qBXTXVZX\\XXTBBTBFFXVZZRPVVDD","length":31},"rentedBike":false,"transitLeg":false,"duration":939.0,"steps":[{"distance":83.417,"relativeDirection":"DEPART","streetName":"Boulevard de l'Université","absoluteDirection":"NORTHWEST","stayOn":false,"area":false,"bogusName":false,"lon":-71.05004245459075,"lat":48.41168714240219,"elevation":[]},{"distance":842.7369999999999,"relativeDirection":"LEFT","streetName":"Boulevard Talbot","absoluteDirection":"SOUTHWEST","stayOn":false,"area":false,"bogusName":false,"lon":-71.05096660000001,"lat":48.4121189,"elevation":[]},{"distance":286.26,"relativeDirection":"LEFT","streetName":"service road","absoluteDirection":"SOUTHEAST","stayOn":false,"area":false,"bogusName":true,"lon":-71.0571583,"lat":48.4057532,"elevation":[]}]}],"tooSloped":false},{"duration":1310,"startTime":1522694515000,"endTime":1522695825000,"walkTime":1035,"transitTime":273,"waitingTime":2,"walkDistance":1335.6357368374347,"walkLimitExceeded":false,"elevationLost":0.0,"elevationGained":0.0,"transfers":0,"legs":[{"startTime":1522694515000,"endTime":1522694611000,"departureDelay":0,"arrivalDelay":0,"realTime":false,"distance":123.077,"pathway":false,"mode":"WALK","route":"","agencyTimeZoneOffset":-14400000,"interlineWithPreviousLeg":false,"from":{"name":"Origin","lon":-71.006271,"lat":48.401153,"departure":1522694515000,"orig":"","vertexType":"NORMAL"},"to":{"name":"boul. St-Jean-Baptiste / Ste-Famille","stopId":"1:247","stopCode":"247","lon":-71.005753,"lat":48.402249,"arrival":1522694611000,"departure":1522694612000,"zoneId":"NA","stopIndex":33,"stopSequence":34,"vertexType":"TRANSIT"},"legGeometry":{"points":"_klfH~mkpLcDiDMX","length":3},"rentedBike":false,"transitLeg":false,"duration":96.0,"steps":[{"distance":111.222,"relativeDirection":"DEPART","streetName":"Rang Sainte-Famille","absoluteDirection":"NORTHEAST","stayOn":false,"area":false,"bogusName":false,"lon":-71.00655552874055,"lat":48.401281441988516,"elevation":[]},{"distance":11.855,"relativeDirection":"LEFT","streetName":"Boulevard Saint-Jean-Baptiste","absoluteDirection":"NORTHWEST","stayOn":false,"area":false,"bogusName":false,"lon":-71.0057084,"lat":48.402108600000005,"elevation":[]}]},{"startTime":1522694612000,"endTime":1522694885000,"departureDelay":0,"arrivalDelay":0,"realTime":false,"distance":3562.725907838339,"pathway":false,"mode":"BUS","route":"5","agencyName":"Société de Transport du Saguenay","agencyUrl":"http://ville.saguenay.ca/fr/services-aux-citoyens/transport-sts","agencyTimeZoneOffset":-14400000,"routeColor":"FF0000","routeType":3,"routeId":"1:5","routeTextColor":"FFFFFF","interlineWithPreviousLeg":false,"tripBlockId":"24","headsign":"Terminus UQAC","agencyId":"0","tripId":"1:217915","serviceDate":"20180402","from":{"name":"boul. St-Jean-Baptiste / Ste-Famille","stopId":"1:247","stopCode":"247","lon":-71.005753,"lat":48.402249,"arrival":1522694611000,"departure":1522694612000,"zoneId":"NA","stopIndex":33,"stopSequence":34,"vertexType":"TRANSIT"},"to":{"name":"boul. Université / Murdock","stopId":"1:59","stopCode":"59","lon":-71.049971,"lat":48.411755,"arrival":1522694885000,"departure":1522694886000,"zoneId":"NA","stopIndex":38,"stopSequence":39,"vertexType":"TRANSIT"},"legGeometry":{"points":"oplfHpikpLgG`PwIdUkP|b@uBrFu@hBw@bBg@z@i@z@m@~@WXYZ}InJeDdDy@j@yAn@@^h@bI`@jDdC~Nb@~DpExr@TlC`A`Ob@dIFlFE~BCv@Cn@I|@uCdOwAbE","length":32},"routeShortName":"5","routeLongName":"Term. Chic/Term. Baie via St-J.Batiste","rentedBike":false,"transitLeg":true,"duration":273.0,"steps":[]},{"startTime":1522694886000,"endTime":1522695825000,"departureDelay":0,"arrivalDelay":0,"realTime":false,"distance":1212.414,"pathway":false,"mode":"WALK","route":"","agencyTimeZoneOffset":-14400000,"interlineWithPreviousLeg":false,"from":{"name":"boul. Université / Murdock","stopId":"1:59","stopCode":"59","lon":-71.049971,"lat":48.411755,"arrival":1522694885000,"departure":1522694886000,"zoneId":"NA","stopIndex":38,"stopSequence":39,"vertexType":"TRANSIT"},"to":{"name":"Destination","lon":-71.056775,"lat":48.403727,"arrival":1522695825000,"orig":"","vertexType":"NORMAL"},"legGeometry":{"points":"_lnfHx}spLoAhDELTXLJx@|@bDfDjDlDPRp@p@lAhApF`FJJzFjF|DpDDKn@}Br@qBXTXVZX\\XXTBBTBFFXVZZRPVVDD","length":31},"rentedBike":false,"transitLeg":false,"duration":939.0,"steps":[{"distance":83.417,"relativeDirection":"DEPART","streetName":"Boulevard de l'Université","absoluteDirection":"NORTHWEST","stayOn":false,"area":false,"bogusName":false,"lon":-71.05004245459075,"lat":48.41168714240219,"elevation":[]},{"distance":842.7369999999999,"relativeDirection":"LEFT","streetName":"Boulevard Talbot","absoluteDirection":"SOUTHWEST","stayOn":false,"area":false,"bogusName":false,"lon":-71.05096660000001,"lat":48.4121189,"elevation":[]},{"distance":286.26,"relativeDirection":"LEFT","streetName":"service road","absoluteDirection":"SOUTHEAST","stayOn":false,"area":false,"bogusName":true,"lon":-71.0571583,"lat":48.4057532,"elevation":[]}]}],"tooSloped":false},{"duration":987,"startTime":1522696895000,"endTime":1522697882000,"walkTime":437,"transitTime":530,"waitingTime":20,"walkDistance":551.0446842065353,"walkLimitExceeded":false,"elevationLost":0.0,"elevationGained":0.0,"transfers":1,"legs":[{"startTime":1522696895000,"endTime":1522696991000,"departureDelay":0,"arrivalDelay":0,"realTime":false,"distance":123.077,"pathway":false,"mode":"WALK","route":"","agencyTimeZoneOffset":-14400000,"interlineWithPreviousLeg":false,"from":{"name":"Origin","lon":-71.006271,"lat":48.401153,"departure":1522696895000,"orig":"","vertexType":"NORMAL"},"to":{"name":"boul. St-Jean-Baptiste / Ste-Famille","stopId":"1:247","stopCode":"247","lon":-71.005753,"lat":48.402249,"arrival":1522696991000,"departure":1522696992000,"zoneId":"NA","stopIndex":47,"stopSequence":48,"vertexType":"TRANSIT"},"legGeometry":{"points":"_klfH~mkpLcDiDMX","length":3},"rentedBike":false,"transitLeg":false,"duration":96.0,"steps":[{"distance":111.222,"relativeDirection":"DEPART","streetName":"Rang Sainte-Famille","absoluteDirection":"NORTHEAST","stayOn":false,"area":false,"bogusName":false,"lon":-71.00655552874055,"lat":48.401281441988516,"elevation":[]},{"distance":11.855,"relativeDirection":"LEFT","streetName":"Boulevard Saint-Jean-Baptiste","absoluteDirection":"NORTHWEST","stayOn":false,"area":false,"bogusName":false,"lon":-71.0057084,"lat":48.402108600000005,"elevation":[]}]},{"startTime":1522696992000,"endTime":1522697285000,"departureDelay":0,"arrivalDelay":0,"realTime":false,"distance":3562.725907838339,"pathway":false,"mode":"BUS","route":"6","agencyName":"Société de Transport du Saguenay","agencyUrl":"http://ville.saguenay.ca/fr/services-aux-citoyens/transport-sts","agencyTimeZoneOffset":-14400000,"routeColor":"FF0000","routeType":3,"routeId":"1:6","routeTextColor":"FFFFFF","interlineWithPreviousLeg":false,"tripBlockId":"25","headsign":"Terminus UQAC","agencyId":"0","tripId":"1:217944","serviceDate":"20180402","from":{"name":"boul. St-Jean-Baptiste / Ste-Famille","stopId":"1:247","stopCode":"247","lon":-71.005753,"lat":48.402249,"arrival":1522696991000,"departure":1522696992000,"zoneId":"NA","stopIndex":47,"stopSequence":48,"vertexType":"TRANSIT"},"to":{"name":"boul. Université / Murdock","stopId":"1:59","stopCode":"59","lon":-71.049971,"lat":48.411755,"arrival":1522697285000,"departure":1522697285000,"zoneId":"NA","stopIndex":52,"stopSequence":53,"vertexType":"TRANSIT"},"legGeometry":{"points":"oplfHpikpLgG`PwIdUkP|b@uBrFu@hBw@bBg@z@i@z@m@~@WXYZ}InJeDdDy@j@yAn@@^h@bI`@jDdC~Nb@~DpExr@TlC`A`Ob@dIFlFE~BCv@Cn@Gl@_@fIgBpGwAvC","length":33},"routeShortName":"6","routeLongName":"Term. Chic/Term. Baie via ch.Plateau","rentedBike":false,"transitLeg":true,"duration":293.0,"steps":[]},{"startTime":1522697285000,"endTime":1522697336000,"departureDelay":0,"arrivalDelay":0,"realTime":false,"distance":63.953,"pathway":false,"mode":"WALK","route":"","agencyTimeZoneOffset":-14400000,"interlineWithPreviousLeg":false,"from":{"name":"boul. Université / Murdock","stopId":"1:59","stopCode":"59","lon":-71.049971,"lat":48.411755,"arrival":1522697285000,"departure":1522697285000,"zoneId":"NA","stopIndex":52,"stopSequence":53,"vertexType":"TRANSIT"},"to":{"name":"boul. Université / Murdock","stopId":"1:80","stopCode":"80","lon":-71.050111,"lat":48.411498,"arrival":1522697336000,"departure":1522697354000,"zoneId":"NA","stopIndex":5,"stopSequence":6,"vertexType":"TRANSIT"},"legGeometry":{"points":"_lnfHx}spLZ}@VPUn@","length":4},"rentedBike":false,"transitLeg":false,"duration":51.0,"steps":[{"distance":27.938,"relativeDirection":"DEPART","streetName":"Boulevard de l'Université","absoluteDirection":"SOUTHEAST","stayOn":false,"area":false,"bogusName":false,"lon":-71.05004245459075,"lat":48.41168714240219,"elevation":[]},{"distance":36.015,"relativeDirection":"UTURN_RIGHT","streetName":"Boulevard de l'Université","absoluteDirection":"NORTHWEST","stayOn":true,"area":false,"bogusName":false,"lon":-71.0498268,"lat":48.4114298,"elevation":[]}]},{"startTime":1522697354000,"endTime":1522697591000,"departureDelay":0,"arrivalDelay":0,"realTime":false,"distance":1632.4355228695758,"pathway":false,"mode":"BUS","route":"200S","agencyName":"Société de Transport du Saguenay","agencyUrl":"http://ville.saguenay.ca/fr/services-aux-citoyens/transport-sts","agencyTimeZoneOffset":-14400000,"routeColor":"8B0000","routeType":3,"routeId":"1:200S","routeTextColor":"FFFFFF","interlineWithPreviousLeg":false,"tripBlockId":"53","headsign":"Roitelets / Talbot","agencyId":"0","tripId":"1:218472","serviceDate":"20180402","from":{"name":"boul. Université / Murdock","stopId":"1:80","stopCode":"80","lon":-71.050111,"lat":48.411498,"arrival":1522697336000,"departure":1522697354000,"zoneId":"NA","stopIndex":5,"stopSequence":6,"vertexType":"TRANSIT"},"to":{"name":"Grands-Ducs / Pinsons","stopId":"1:381","stopCode":"381","lon":-71.057399,"lat":48.401355,"arrival":1522697591000,"departure":1522697592000,"zoneId":"NA","stopIndex":9,"stopSequence":10,"vertexType":"TRANSIT"},"legGeometry":{"points":"cknfH|}spLdB_Fh@qBb@aATOVGj@CvAv@j@ZxKhFt@^j@T`@Jb@B\\CXEzRiF|B}@zAfKDXXtCZ|DJpII~Fa@rFUzBRDd@Jd@Vb@\\LN","length":31},"routeShortName":"200S","routeLongName":"Séminaire - Quartier des Oiseaux","rentedBike":false,"transitLeg":true,"duration":237.0,"steps":[]},{"startTime":1522697592000,"endTime":1522697882000,"departureDelay":0,"arrivalDelay":0,"realTime":false,"distance":363.89099999999996,"pathway":false,"mode":"WALK","route":"","agencyTimeZoneOffset":-14400000,"interlineWithPreviousLeg":false,"from":{"name":"Grands-Ducs / Pinsons","stopId":"1:381","stopCode":"381","lon":-71.057399,"lat":48.401355,"arrival":1522697591000,"departure":1522697592000,"zoneId":"NA","stopIndex":9,"stopSequence":10,"vertexType":"TRANSIT"},"to":{"name":"Destination","lon":-71.056775,"lat":48.403727,"arrival":1522697882000,"orig":"","vertexType":"NORMAL"},"legGeometry":{"points":"gklfHnkupLEG]_@c@Yu@]WMSi@CME[KKUU[[[Y}DnGYYSS","length":16},"rentedBike":false,"transitLeg":false,"duration":290.0,"steps":[{"distance":92.535,"relativeDirection":"DEPART","streetName":"Rue des Grands-Ducs","absoluteDirection":"NORTHEAST","stayOn":false,"area":false,"bogusName":false,"lon":-71.05735099393301,"lat":48.40132676914249,"elevation":[]},{"distance":95.016,"relativeDirection":"SLIGHTLY_RIGHT","streetName":"service road","absoluteDirection":"NORTHEAST","stayOn":false,"area":false,"bogusName":true,"lon":-71.0568056,"lat":48.4020704,"elevation":[]},{"distance":145.585,"relativeDirection":"LEFT","streetName":"path","absoluteDirection":"NORTHWEST","stayOn":true,"area":false,"bogusName":true,"lon":-71.05594760000001,"lat":48.402671700000006,"elevation":[]},{"distance":30.755,"relativeDirection":"RIGHT","streetName":"service road","absoluteDirection":"NORTHEAST","stayOn":true,"area":false,"bogusName":true,"lon":-71.05730150000001,"lat":48.403623700000004,"elevation":[]}]}],"tooSloped":false}]},"debugOutput":{"precalculationTime":17,"pathCalculationTime":13,"pathTimes":[6,3,4],"renderingTime":1,"totalTime":31,"timedOut":false},"elevationMetadata":{"ellipsoidToGeoidDifference":-28.885904201182168,"geoidElevation":false}}