{"requestParameters":{"date":"2018/04/02","walkSpeed":"1.33","walkReluctance":"2.0","fromPlace":"48.408968,-71.020438","maxWalkDistance":"3000","waitReluctance":"1.0","carSpeed":"33","numItineraries":"3","waitAtBeginningFactor":"0.4","mode":"TRANSIT,WALK","ignoreRealtimeUpdates":"false","stairsReluctance":"2.0","toPlace":"48.407764,-71.05336099","time":"12:0:00"},"plan":{"date":1522684800000,"from":{"name":"Origin","lon":-71.020438,"lat":48.408968,"orig":"","vertexType":"NORMAL"},"to":{"name":"Destination","lon":-71.05336099,"lat":48.407764,"orig":"","vertexType":"NORMAL"},"itineraries":[{"duration":846,"startTime":1522686218000,"endTime":1522687064000,"walkTime":659,"transitTime":185,"waitingTime":2,"walkDistance":856.2817969902613,"walkLimitExceeded":false,"elevationLost":0.0,"elevationGained":0.0,"transfers":0,"legs":[{"startTime":1522686218000,"endTime":1522686299000,"departureDelay":0,"arrivalDelay":0,"realTime":false,"distance":107.056,"pathway":false,"mode":"WALK","route":"","agencyTimeZoneOffset":-14400000,"interlineWithPreviousLeg":false,"from":{"name":"Origin","lon":-71.020438,"lat":48.408968,"departure":1522686218000,"orig":"","vertexType":"NORMAL"},"to":{"name":"boul. St-Jean-Baptiste (no. 1635)","stopId":"1:250","stopCode":"250","lon":-71.021029,"lat":48.40996,"arrival":1522686299000,"departure":1522686300000,"zoneId":"NA","stopIndex":51,"stopSequence":52,"vertexType":"TRANSIT"},"legGeometry":{"points":"m|mfH~bnpL[t@oBnC","length":3},"rentedBike":false,"transitLeg":false,"duration":81.0,"steps":[{"distance":107.056,"relativeDirection":"DEPART","streetName":"Boulevard Saint-Jean-Baptiste","absoluteDirection":"NORTHWEST","stayOn":false,"area":false,"bogusName":false,"lon":-71.02015949211922,"lat":48.409190360154355,"elevation":[]}]},{"startTime":1522686300000,"endTime":1522686485000,"departureDelay":0,"arrivalDelay":0,"realTime":false,"distance":2145.501274727439,"pathway":false,"mode":"BUS","route":"6","agencyName":"Société de Transport du Saguenay","agencyUrl":"http://ville.saguenay.ca/fr/services-aux-citoyens/transport-sts","agencyTimeZoneOffset":-14400000,"routeColor":"FF0000","routeType":3,"routeId":"1:6","routeTextColor":"FFFFFF","interlineWithPreviousLeg":false,"tripBlockId":"25","headsign":"Terminus UQAC","agencyId":"0","tripId":"1:217938","serviceDate":"20180402","from":{"name":"boul. St-Jean-Baptiste (no. 1635)","stopId":"1:250","stopCode":"250","lon":-71.021029,"lat":48.40996,"arrival":1522686299000,"departure":1522686300000,"zoneId":"NA","stopIndex":51,"stopSequence":52,"vertexType":"TRANSIT"},"to":{"name":"boul. Université / Murdock","stopId":"1:59","stopCode":"59","lon":-71.049971,"lat":48.411755,"arrival":1522686485000,"departure":1522686486000,"zoneId":"NA","stopIndex":52,"stopSequence":53,"vertexType":"TRANSIT"},"legGeometry":{"points":"w`nfHjinpLYZ}InJeDdDy@j@yAn@@^h@bI`@jDdC~Nb@~DpExr@TlC`A`Ob@dIFlFE~BCv@Cn@Gl@_@fIgBpGwAvC","length":23},"routeShortName":"6","routeLongName":"Term. Chic/Term. Baie via ch.Plateau","rentedBike":false,"transitLeg":true,"duration":185.0,"steps":[]},{"startTime":1522686486000,"endTime":1522687064000,"departureDelay":0,"arrivalDelay":0,"realTime":false,"distance":749.157,"pathway":false,"mode":"WALK","route":"","agencyTimeZoneOffset":-14400000,"interlineWithPreviousLeg":false,"from":{"name":"boul. Université / Murdock","stopId":"1:59","stopCode":"59","lon":-71.049971,"lat":48.411755,"arrival":1522686485000,"departure":1522686486000,"zoneId":"NA","stopIndex":52,"stopSequence":53,"vertexType":"TRANSIT"},"to":{"name":"Destination","lon":-71.05336099,"lat":48.407764,"arrival":1522687064000,"orig":"","vertexType":"NORMAL"},"legGeometry":{"points":"_lnfHx}spLoAhDELTXLJx@|@bDfDjDlDPRp@p@lAhApF`FHSj@_Br@qBNe@","length":16},"rentedBike":false,"transitLeg":false,"duration":578.0,"steps":[{"distance":83.417,"relativeDirection":"DEPART","streetName":"Boulevard de l'Université","absoluteDirection":"NORTHWEST","stayOn":false,"area":false,"bogusName":false,"lon":-71.05004245459075,"lat":48.41168714240219,"elevation":[]},{"distance":545.3019999999999,"relativeDirection":"LEFT","streetName":"Boulevard Talbot","absoluteDirection":"SOUTHWEST","stayOn":false,"area":false,"bogusName":false,"lon":-71.05096660000001,"lat":48.4121189,"elevation":[]},{"distance":120.438,"relativeDirection":"LEFT","streetName":"Rue des Champs-Élysées","absoluteDirection":"SOUTHEAST","stayOn":false,"area":false,"bogusName":false,"lon":-71.05502820000001,"lat":48.4080238,"elevation":[]}]}],"tooSloped":false},{"duration":851,"startTime":1522686233000,"endTime":1522687084000,"walkTime":512,"transitTime":337,"waitingTime":2,"walkDistance":674.1277819544748,"walkLimitExceeded":false,"elevationLost":0.0,"elevationGained":0.0,"transfers":0,"legs":[{"startTime":1522686233000,"endTime":1522686682000,"departureDelay":0,"arrivalDelay":0,"realTime":false,"distance":592.98,"pathway":false,"mode":"WALK","route":"","agencyTimeZoneOffset":-14400000,"interlineWithPreviousLeg":false,"from":{"name":"Origin","lon":-71.020438,"lat":48.408968,"departure":1522686233000,"orig":"","vertexType":"NORMAL"},"to":{"name":"nouveau","stopId":"1:2297","stopCode":"2297","lon":-71.02468,"lat":48.413593,"arrival":1522686682000,"departure":1522686683000,"zoneId":"NA","stopIndex":25,"stopSequence":26,"vertexType":"TRANSIT"},"legGeometry":{"points":"m|mfH~bnpL[t@oBnCSZwO`PKFgBdAq@JUD","length":9},"rentedBike":false,"transitLeg":false,"duration":449.0,"steps":[{"distance":552.7570000000001,"relativeDirection":"DEPART","streetName":"Boulevard Saint-Jean-Baptiste","absoluteDirection":"NORTHWEST","stayOn":false,"area":false,"bogusName":false,"lon":-71.02015949211922,"lat":48.409190360154355,"elevation":[]},{"distance":40.223,"relativeDirection":"CONTINUE","streetName":"Boulevard du Saguenay Est","absoluteDirection":"NORTH","stayOn":false,"area":false,"bogusName":false,"lon":-71.0244078,"lat":48.413254800000004,"elevation":[]}]},{"startTime":1522686683000,"endTime":1522687020000,"departureDelay":0,"arrivalDelay":0,"realTime":false,"distance":2328.631682324608,"pathway":false,"mode":"BUS","route":"12","agencyName":"Société de Transport du Saguenay","agencyUrl":"http://ville.saguenay.ca/fr/services-aux-citoyens/transport-sts","agencyTimeZoneOffset":-14400000,"routeColor":"556B2F","routeType":3,"routeId":"1:12","routeTextColor":"FFFFFF","interlineWithPreviousLeg":false,"tripBlockId":"28","headsign":"Terminus UQAC","agencyId":"0","tripId":"1:218037","serviceDate":"20180402","from":{"name":"nouveau","stopId":"1:2297","stopCode":"2297","lon":-71.02468,"lat":48.413593,"arrival":1522686682000,"departure":1522686683000,"zoneId":"NA","stopIndex":25,"stopSequence":26,"vertexType":"TRANSIT"},"to":{"name":"Place du Royaume (Champs-Élysées)","stopId":"1:193","stopCode":"193","lon":-71.052659,"lat":48.407065,"arrival":1522687020000,"departure":1522687021000,"zoneId":"NA","stopIndex":28,"stopSequence":29,"vertexType":"TRANSIT"},"legGeometry":{"points":"}wnfHf_opLvVvrCdRvMcAjK","length":4},"routeShortName":"12","routeLongName":"Rivière du Moulin","rentedBike":false,"transitLeg":true,"duration":337.0,"steps":[]},{"startTime":1522687021000,"endTime":1522687084000,"departureDelay":0,"arrivalDelay":0,"realTime":false,"distance":81.135,"pathway":false,"mode":"WALK","route":"","agencyTimeZoneOffset":-14400000,"interlineWithPreviousLeg":false,"from":{"name":"Place du Royaume (Champs-Élysées)","stopId":"1:193","stopCode":"193","lon":-71.052659,"lat":48.407065,"arrival":1522687020000,"departure":1522687021000,"zoneId":"NA","stopIndex":28,"stopSequence":29,"vertexType":"TRANSIT"},"to":{"name":"Destination","lon":-71.05336099,"lat":48.407764,"arrival":1522687084000,"orig":"","vertexType":"NORMAL"},"legGeometry":{"points":"unmfH|ntpLQTOb@q@xB","length":4},"rentedBike":false,"transitLeg":false,"duration":63.0,"steps":[{"distance":81.135,"relativeDirection":"DEPART","streetName":"Rue des Champs-Élysées","absoluteDirection":"NORTHWEST","stayOn":false,"area":false,"bogusName":false,"lon":-71.0527883359973,"lat":48.40699779220329,"elevation":[]}]}],"tooSloped":false},{"duration":846,"startTime":1522687418000,"endTime":1522688264000,"walkTime":659,"transitTime":185,"waitingTime":2,"walkDistance":856.2817969902613,"walkLimitExceeded":false,"elevationLost":0.0,"elevationGained":0.0,"transfers":0,"legs":[{"startTime":1522687418000,"endTime":1522687499000,"departureDelay":0,"arrivalDelay":0,"realTime":false,"distance":107.056,"pathway":false,"mode":"WALK","route":"","agencyTimeZoneOffset":-14400000,"interlineWithPreviousLeg":false,"from":{"name":"Origin","lon":-71.020438,"lat":48.408968,"departure":1522687418000,"orig":"","vertexType":"NORMAL"},"to":{"name":"boul. St-Jean-Baptiste (no. 1635)","stopId":"1:250","stopCode":"250","lon":-71.021029,"lat":48.40996,"arrival":1522687499000,"departure":1522687500000,"zoneId":"NA","stopIndex":37,"stopSequence":38,"vertexType":"TRANSIT"},"legGeometry":{"points":"m|mfH~bnpL[t@oBnC","length":3},"rentedBike":false,"transitLeg":false,"duration":81.0,"steps":[{"distance":107.056,"relativeDirection":"DEPART","streetName":"Boulevard Saint-Jean-Baptiste","absoluteDirection":"NORTHWEST","stayOn":false,"area":false,"bogusName":false,"lon":-71.02015949211922,"lat":48.409190360154355,"elevation":[]}]},{"startTime":1522687500000,"endTime":1522687685000,"departureDelay":0,"arrivalDelay":0,"realTime":false,"distance":2145.501274727439,"pathway":false,"mode":"BUS","route":"5","agencyName":"Société de Transport du Saguenay","agencyUrl":"http://ville.saguenay.ca/fr/services-aux-citoyens/transport-sts","agencyTimeZoneOffset":-14400000,"routeColor":"FF0000","routeType":3,"routeId":"1:5","routeTextColor":"FFFFFF","interlineWithPreviousLeg":false,"tripBlockId":"24","headsign":"Terminus UQAC","agencyId":"0","tripId":"1:217911","serviceDate":"20180402","from":{"name":"boul. St-Jean-Baptiste (no. 1635)","stopId":"1:250","stopCode":"250","lon":-71.021029,"lat":48.40996,"arrival":1522687499000,"departure":1522687500000,"zoneId":"NA","stopIndex":37,"stopSequence":38,"vertexType":"TRANSIT"},"to":{"name":"boul. Université / Murdock","stopId":"1:59","stopCode":"59","lon":-71.049971,"lat":48.411755,"arrival":1522687685000,"departure":1522687686000,"zoneId":"NA","stopIndex":38,"stopSequence":39,"vertexType":"TRANSIT"},"legGeometry":{"points":"w`nfHjinpLYZ}InJeDdDy@j@yAn@@^h@bI`@jDdC~Nb@~DpExr@TlC`A`Ob@dIFlFE~BCv@Cn@I|@uCdOwAbE","length":22},"routeShortName":"5","routeLongName":"Term. Chic/Term. Baie via St-J.Batiste","rentedBike":false,"transitLeg":true,"duration":185.0,"steps":[]},{"startTime":1522687686000,"endTime":1522688264000,"departureDelay":0,"arrivalDelay":0,"realTime":false,"distance":749.157,"pathway":false,"mode":"WALK","route":"","agencyTimeZoneOffset":-14400000,"interlineWithPreviousLeg":false,"from":{"name":"boul. Université / Murdock","stopId":"1:59","stopCode":"59","lon":-71.049971,"lat":48.411755,"arrival":1522687685000,"departure":1522687686000,"zoneId":"NA","stopIndex":38,"stopSequence":39,"vertexType":"TRANSIT"},"to":{"name":"Destination","lon":-71.05336099,"lat":48.407764,"arrival":1522688264000,"orig":"","vertexType":"NORMAL"},"legGeometry":{"points":"_lnfHx}spLoAhDELTXLJx@|@bDfDjDlDPRp@p@lAhApF`FHSj@_Br@qBNe@","length":16},"rentedBike":false,"transitLeg":false,"duration":578.0,"steps":[{"distance":83.417,"relativeDirection":"DEPART","streetName":"Boulevard de l'Université","absoluteDirection":"NORTHWEST","stayOn":false,"area":false,"bogusName":false,"lon":-71.05004245459075,"lat":48.41168714240219,"elevation":[]},{"distance":545.3019999999999,"relativeDirection":"LEFT","streetName":"Boulevard Talbot","absoluteDirection":"SOUTHWEST","stayOn":false,"area":false,"bogusName":false,"lon":-71.05096660000001,"lat":48.4121189,"elevation":[]},{"distance":120.438,"relativeDirection":"LEFT","streetName":"Rue des Champs-Élysées","absoluteDirection":"SOUTHEAST","stayOn":false,"area":false,"bogusName":false,"lon":-71.05502820000001,"lat":48.4080238,"elevation":[]}]}],"tooSloped":false}]},"debugOutput":{"precalculationTime":22,"pathCalculationTime":8,"pathTimes":[3,2,3],"renderingTime":0,"totalTime":30,"timedOut":false},"elevationMetadata":{"ellipsoidToGeoidDifference":-28.885904201182168,"geoidElevation":false}}