{"requestParameters":{"date":"2018/04/02","walkSpeed":"1.33","walkReluctance":"2.0","fromPlace":"48.405679,-71.013318","maxWalkDistance":"3000","waitReluctance":"1.0","carSpeed":"33","numItineraries":"3","waitAtBeginningFactor":"0.4","mode":"TRANSIT,WALK","ignoreRealtimeUpdates":"false","stairsReluctance":"2.0","toPlace":"48.428081,-71.062242","time":"8:15:00"},"plan":{"date":1522671300000,"from":{"name":"Origin","lon":-71.013318,"lat":48.405679,"orig":"","vertexType":"NORMAL"},"to":{"name":"Destination","lon":-71.062242,"lat":48.428081,"orig":"","vertexType":"NORMAL"},"itineraries":[{"duration":1445,"startTime":1522671327000,"endTime":1522672772000,"walkTime":146,"transitTime":1083,"waitingTime":216,"walkDistance":190.71589473658736,"walkLimitExceeded":false,"elevationLost":0.0,"elevationGained":0.0,"transfers":1,"legs":[{"startTime":1522671327000,"endTime":1522671404000,"departureDelay":0,"arrivalDelay":0,"realTime":false,"distance":102.402,"pathway":false,"mode":"WALK","route":"","agencyTimeZoneOffset":-14400000,"interlineWithPreviousLeg":false,"from":{"name":"Origin","lon":-71.013318,"lat":48.405679,"departure":1522671327000,"orig":"","vertexType":"NORMAL"},"to":{"name":"boul. St-Jean-Baptiste (no. 1860)","stopId":"1:248","stopCode":"248","lon":-71.012034,"lat":48.405285,"arrival":1522671404000,"departure":1522671405000,"zoneId":"NA","stopIndex":35,"stopSequence":36,"vertexType":"TRANSIT"},"legGeometry":{"points":"}fmfHvwlpLlB_F","length":2},"rentedBike":false,"transitLeg":false,"duration":77.0,"steps":[{"distance":102.402,"relativeDirection":"DEPART","streetName":"Boulevard Saint-Jean-Baptiste","absoluteDirection":"SOUTHEAST","stayOn":false,"area":false,"bogusName":false,"lon":-71.01323852281777,"lat":48.40575140217079,"elevation":[]}]},{"startTime":1522671405000,"endTime":1522671703000,"departureDelay":0,"arrivalDelay":0,"realTime":false,"distance":2972.7919808383467,"pathway":false,"mode":"BUS","route":"206S","agencyName":"Société de Transport du Saguenay","agencyUrl":"http://ville.saguenay.ca/fr/services-aux-citoyens/transport-sts","agencyTimeZoneOffset":-14400000,"routeColor":"8B0000","routeType":3,"routeId":"1:206S","routeTextColor":"FFFFFF","interlineWithPreviousLeg":false,"tripBlockId":"39","headsign":"Séminaire","agencyId":"0","tripId":"1:218337","serviceDate":"20180402","from":{"name":"boul. St-Jean-Baptiste (no. 1860)","stopId":"1:248","stopCode":"248","lon":-71.012034,"lat":48.405285,"arrival":1522671404000,"departure":1522671405000,"zoneId":"NA","stopIndex":35,"stopSequence":36,"vertexType":"TRANSIT"},"to":{"name":"Murdock / Chabanel","stopId":"1:355","stopCode":"355","lon":-71.045842,"lat":48.414882,"arrival":1522671703000,"departure":1522671917000,"zoneId":"NA","stopIndex":39,"stopSequence":40,"vertexType":"TRANSIT"},"legGeometry":{"points":"ocmfHxplpLkP|b@uBrFu@hBw@bBg@z@i@z@m@~@WX]^yIjJeDdDy@j@yAn@@^h@bI`@jDdC~Nb@~DpExr@TlC`A`Ob@dIFlFE~BCv@Cn@OhBe@nD[bBeAtDcAzCwMoNs@w@c@_@u@mAKYc@w@MQ","length":39},"routeShortName":"206S","routeLongName":"Séminaire - Term. Baie","rentedBike":false,"transitLeg":true,"duration":298.0,"steps":[]},{"startTime":1522671917000,"endTime":1522672702000,"departureDelay":0,"arrivalDelay":0,"realTime":false,"distance":3867.8362801408634,"pathway":false,"mode":"BUS","route":"10","agencyName":"Société de Transport du Saguenay","agencyUrl":"http://ville.saguenay.ca/fr/services-aux-citoyens/transport-sts","agencyTimeZoneOffset":-14400000,"routeColor":"0000FF","routeType":3,"routeId":"1:10","routeTextColor":"FFFFFF","interlineWithPreviousLeg":false,"tripBlockId":"27","headsign":"Terminus Chicoutimi","agencyId":"0","tripId":"1:218003","serviceDate":"20180402","from":{"name":"Murdock / Chabanel","stopId":"1:355","stopCode":"355","lon":-71.045842,"lat":48.414882,"arrival":1522671703000,"departure":1522671917000,"zoneId":"NA","stopIndex":2,"stopSequence":3,"vertexType":"TRANSIT"},"to":{"name":"Palais de Justice de Chicoutimi","stopId":"1:454","stopCode":"454","lon":-71.061218,"lat":48.427706,"arrival":1522672702000,"departure":1522672703000,"zoneId":"NA","stopIndex":19,"stopSequence":20,"vertexType":"TRANSIT"},"legGeometry":{"points":"g`ofH|cspLu@oAXu@hAoDP_BP{AQmCg@mB_BiBeBaBqFeFmCgC{A_BmBoBk@iAw@}CU[o@y@k@Io@MqC@}@k@_@[aAw@_BoCMOKcAQUu@s@AAu@[k@xGg@pFc@~EO`@KHCVDP?hAa@nEKdAi@pGAr@GXMRG^Bb@`CV~IxB~ElAhChAsBtFaEvK_BhE}AfD{BdByBh@iC]oDq@YbF_Ea@AAuEg@MDENF|GAjJDzBDdDLdHFbCo@RUFRbFG|FApAMvF","length":77},"routeShortName":"10","routeLongName":"Notre-Dame du Saguenay","rentedBike":false,"transitLeg":true,"duration":785.0,"steps":[]},{"startTime":1522672703000,"endTime":1522672772000,"departureDelay":0,"arrivalDelay":0,"realTime":false,"distance":88.306,"pathway":false,"mode":"WALK","route":"","agencyTimeZoneOffset":-14400000,"interlineWithPreviousLeg":false,"from":{"name":"Palais de Justice de Chicoutimi","stopId":"1:454","stopCode":"454","lon":-71.061218,"lat":48.427706,"arrival":1522672702000,"departure":1522672703000,"zoneId":"NA","stopIndex":19,"stopSequence":20,"vertexType":"TRANSIT"},"to":{"name":"Destination","lon":-71.062242,"lat":48.428081,"arrival":1522672772000,"orig":"","vertexType":"NORMAL"},"legGeometry":{"points":"apqfHrcvpLAl@?Rq@|C","length":4},"rentedBike":false,"transitLeg":false,"duration":69.0,"steps":[{"distance":23.924999999999997,"relativeDirection":"DEPART","streetName":"Rue Racine Est","absoluteDirection":"WEST","stayOn":false,"area":false,"bogusName":false,"lon":-71.06121960116612,"lat":48.42769155356611,"elevation":[]},{"distance":64.381,"relativeDirection":"SLIGHTLY_RIGHT","streetName":"path","absoluteDirection":"NORTHWEST","stayOn":false,"area":false,"bogusName":false,"lon":-71.061543,"lat":48.4277073,"elevation":[]}]}],"tooSloped":false},{"duration":1017,"startTime":1522671758000,"endTime":1522672775000,"walkTime":146,"transitTime":869,"waitingTime":2,"walkDistance":190.71589473658736,"walkLimitExceeded":false,"elevationLost":0.0,"elevationGained":0.0,"transfers":1,"legs":[{"startTime":1522671758000,"endTime":1522671835000,"departureDelay":0,"arrivalDelay":0,"realTime":false,"distance":102.402,"pathway":false,"mode":"WALK","route":"","agencyTimeZoneOffset":-14400000,"interlineWithPreviousLeg":false,"from":{"name":"Origin","lon":-71.013318,"lat":48.405679,"departure":1522671758000,"orig":"","vertexType":"NORMAL"},"to":{"name":"boul. St-Jean-Baptiste (no. 1860)","stopId":"1:248","stopCode":"248","lon":-71.012034,"lat":48.405285,"arrival":1522671835000,"departure":1522671836000,"zoneId":"NA","stopIndex":49,"stopSequence":50,"vertexType":"TRANSIT"},"legGeometry":{"points":"}fmfHvwlpLlB_F","length":2},"rentedBike":false,"transitLeg":false,"duration":77.0,"steps":[{"distance":102.402,"relativeDirection":"DEPART","streetName":"Boulevard Saint-Jean-Baptiste","absoluteDirection":"SOUTHEAST","stayOn":false,"area":false,"bogusName":false,"lon":-71.01323852281777,"lat":48.40575140217079,"elevation":[]}]},{"startTime":1522671836000,"endTime":1522672260000,"departureDelay":0,"arrivalDelay":0,"realTime":false,"distance":4921.166151596117,"pathway":false,"mode":"BUS","route":"6","agencyName":"Société de Transport du Saguenay","agencyUrl":"http://ville.saguenay.ca/fr/services-aux-citoyens/transport-sts","agencyTimeZoneOffset":-14400000,"routeColor":"FF0000","routeType":3,"routeId":"1:6","routeTextColor":"FFFFFF","interlineWithPreviousLeg":false,"tripBlockId":"25","headsign":"Terminus UQAC","agencyId":"0","tripId":"1:217930","serviceDate":"20180402","from":{"name":"boul. St-Jean-Baptiste (no. 1860)","stopId":"1:248","stopCode":"248","lon":-71.012034,"lat":48.405285,"arrival":1522671835000,"departure":1522671836000,"zoneId":"NA","stopIndex":49,"stopSequence":50,"vertexType":"TRANSIT"},"to":{"name":"Terminus UQAC","stopId":"1:1670","stopCode":"1670","lon":-71.053369,"lat":48.420903,"arrival":1522672260000,"departure":1522672260000,"zoneId":"NA","stopIndex":57,"stopSequence":58,"vertexType":"TRANSIT"},"legGeometry":{"points":"ocmfHxplpLkP|b@uBrFu@hBw@bBg@z@i@z@m@~@WXYZ}InJeDdDy@j@yAn@@^h@bI`@jDdC~Nb@~DpExr@TlC`A`Ob@dIFlFE~BCv@Cn@Gl@_@fIgBpGwAvCeBlDuAxDyAxCyApAqANkABgAL{An@g@VYZy@x@aAr@qBnBqBxAsCdCqAfAqBtAgHfHoBzGwEmEu@s@wAqA}B{B]_@ZoAXc@z@{@XkADsAIs@e@gED{@nDqLdBfBxAzAQp@z@~@","length":68},"routeShortName":"6","routeLongName":"Term. Chic/Term. Baie via ch.Plateau","rentedBike":false,"transitLeg":true,"duration":424.0,"steps":[]},{"startTime":1522672260000,"endTime":1522672705000,"departureDelay":0,"arrivalDelay":0,"realTime":false,"distance":1934.9616820348042,"pathway":false,"mode":"BUS","route":"175","agencyName":"Société de Transport du Saguenay","agencyUrl":"http://ville.saguenay.ca/fr/services-aux-citoyens/transport-sts","agencyTimeZoneOffset":-14400000,"routeColor":"FF00FF","routeType":3,"routeId":"1:175","routeTextColor":"FFFFFF","interlineWithPreviousLeg":false,"tripBlockId":"10","headsign":"Terminus Chicoutimi","agencyId":"0","tripId":"1:217430","serviceDate":"20180402","from":{"name":"Terminus UQAC","stopId":"1:1670","stopCode":"1670","lon":-71.053369,"lat":48.420903,"arrival":1522672260000,"departure":1522672260000,"zoneId":"NA","stopIndex":14,"stopSequence":15,"vertexType":"TRANSIT"},"to":{"name":"Palais de Justice de Chicoutimi","stopId":"1:454","stopCode":"454","lon":-71.061218,"lat":48.427706,"arrival":1522672705000,"departure":1522672706000,"zoneId":"NA","stopIndex":25,"stopSequence":26,"vertexType":"TRANSIT"},"legGeometry":{"points":"sepfHprtpL_A_ATm@yAwAgBeBqDnL@nBF`@f@|C[dCuAfB]xAs@OmCmCmEkE]a@g@i@ZiGTmEl@oLaEe@cFk@?pH?tJDvBPjMB~Bo@PQDRbFKdGMhI","length":32},"routeShortName":"175","routeLongName":"Term. Chic / Costco","rentedBike":false,"transitLeg":true,"duration":445.0,"steps":[]},{"startTime":1522672706000,"endTime":1522672775000,"departureDelay":0,"arrivalDelay":0,"realTime":false,"distance":88.306,"pathway":false,"mode":"WALK","route":"","agencyTimeZoneOffset":-14400000,"interlineWithPreviousLeg":false,"from":{"name":"Palais de Justice de Chicoutimi","stopId":"1:454","stopCode":"454","lon":-71.061218,"lat":48.427706,"arrival":1522672705000,"departure":1522672706000,"zoneId":"NA","stopIndex":25,"stopSequence":26,"vertexType":"TRANSIT"},"to":{"name":"Destination","lon":-71.062242,"lat":48.428081,"arrival":1522672775000,"orig":"","vertexType":"NORMAL"},"legGeometry":{"points":"apqfHrcvpLAl@?Rq@|C","length":4},"rentedBike":false,"transitLeg":false,"duration":69.0,"steps":[{"distance":23.924999999999997,"relativeDirection":"DEPART","streetName":"Rue Racine Est","absoluteDirection":"WEST","stayOn":false,"area":false,"bogusName":false,"lon":-71.06121960116612,"lat":48.42769155356611,"elevation":[]},{"distance":64.381,"relativeDirection":"SLIGHTLY_RIGHT","streetName":"path","absoluteDirection":"NORTHWEST","stayOn":false,"area":false,"bogusName":false,"lon":-71.061543,"lat":48.4277073,"elevation":[]}]}],"tooSloped":false},{"duration":1283,"startTime":1522672969000,"endTime":1522674252000,"walkTime":905,"transitTime":376,"waitingTime":2,"walkDistance":1140.2136165317825,"walkLimitExceeded":false,"elevationLost":0.0,"elevationGained":0.0,"transfers":0,"legs":[{"startTime":1522672969000,"endTime":1522673046000,"departureDelay":0,"arrivalDelay":0,"realTime":false,"distance":102.402,"pathway":false,"mode":"WALK","route":"","agencyTimeZoneOffset":-14400000,"interlineWithPreviousLeg":false,"from":{"name":"Origin","lon":-71.013318,"lat":48.405679,"departure":1522672969000,"orig":"","vertexType":"NORMAL"},"to":{"name":"boul. St-Jean-Baptiste (no. 1860)","stopId":"1:248","stopCode":"248","lon":-71.012034,"lat":48.405285,"arrival":1522673046000,"departure":1522673047000,"zoneId":"NA","stopIndex":35,"stopSequence":36,"vertexType":"TRANSIT"},"legGeometry":{"points":"}fmfHvwlpLlB_F","length":2},"rentedBike":false,"transitLeg":false,"duration":77.0,"steps":[{"distance":102.402,"relativeDirection":"DEPART","streetName":"Boulevard Saint-Jean-Baptiste","absoluteDirection":"SOUTHEAST","stayOn":false,"area":false,"bogusName":false,"lon":-71.01323852281777,"lat":48.40575140217079,"elevation":[]}]},{"startTime":1522673047000,"endTime":1522673423000,"departureDelay":0,"arrivalDelay":0,"realTime":false,"distance":4596.191430744058,"pathway":false,"mode":"BUS","route":"5","agencyName":"Société de Transport du Saguenay","agencyUrl":"http://ville.saguenay.ca/fr/services-aux-citoyens/transport-sts","agencyTimeZoneOffset":-14400000,"routeColor":"FF0000","routeType":3,"routeId":"1:5","routeTextColor":"FFFFFF","interlineWithPreviousLeg":false,"tripBlockId":"24","headsign":"Terminus UQAC","agencyId":"0","tripId":"1:217903","serviceDate":"20180402","from":{"name":"boul. St-Jean-Baptiste (no. 1860)","stopId":"1:248","stopCode":"248","lon":-71.012034,"lat":48.405285,"arrival":1522673046000,"departure":1522673047000,"zoneId":"NA","stopIndex":35,"stopSequence":36,"vertexType":"TRANSIT"},"to":{"name":"Cégep de Chicoutimi (voie réservée)","stopId":"1:75","stopCode":"75","lon":-71.055283,"lat":48.422761,"arrival":1522673423000,"departure":1522673424000,"zoneId":"NA","stopIndex":42,"stopSequence":43,"vertexType":"TRANSIT"},"legGeometry":{"points":"ocmfHxplpLkP|b@uBrFu@hBw@bBg@z@i@z@m@~@WXYZ}InJeDdDy@j@yAn@@^h@bI`@jDdC~Nb@~DpExr@TlC`A`Ob@dIFlFE~BCv@Cn@I|@uCdOwAbEoDdKM\\k@zAc@l@OPCBQN_@Pa@JYDmCHc@Be@L_@P_@Vy@t@oD|CmOtM{HfHeBzFiEgEeH_Hl@gBfAyAXkCIy@","length":56},"routeShortName":"5","routeLongName":"Term. Chic/Term. Baie via St-J.Batiste","rentedBike":false,"transitLeg":true,"duration":376.0,"steps":[]},{"startTime":1522673424000,"endTime":1522674252000,"departureDelay":0,"arrivalDelay":0,"realTime":false,"distance":1037.515,"pathway":false,"mode":"WALK","route":"","agencyTimeZoneOffset":-14400000,"interlineWithPreviousLeg":false,"from":{"name":"Cégep de Chicoutimi (voie réservée)","stopId":"1:75","stopCode":"75","lon":-71.055283,"lat":48.422761,"arrival":1522673423000,"departure":1522673424000,"zoneId":"NA","stopIndex":42,"stopSequence":43,"vertexType":"TRANSIT"},"to":{"name":"Destination","lon":-71.062242,"lat":48.428081,"arrival":1522674252000,"orig":"","vertexType":"NORMAL"},"legGeometry":{"points":"mqpfHr~tpLHt@Ab@QrAO^ORm@p@Sb@e@lAKIOl@EdACd@MLSICAOEk@CG?KACTM\\I\\Ax@Al@g@Zy@\\iG_@IpEy@DSNgAQ_@AmAEKpFAl@?Rq@|C","length":38},"rentedBike":false,"transitLeg":false,"duration":828.0,"steps":[{"distance":177.29,"relativeDirection":"DEPART","streetName":"Chemin Saint Thomas","absoluteDirection":"WEST","stayOn":false,"area":false,"bogusName":false,"lon":-71.05529730066766,"lat":48.42279572871795,"elevation":[]},{"distance":7.578,"relativeDirection":"RIGHT","streetName":"Rue Bégin","absoluteDirection":"NORTHEAST","stayOn":false,"area":false,"bogusName":false,"lon":-71.0572466,"lat":48.423523700000004,"elevation":[]},{"distance":127.559,"relativeDirection":"LEFT","streetName":"alley","absoluteDirection":"NORTHWEST","stayOn":false,"area":false,"bogusName":true,"lon":-71.05719760000001,"lat":48.4235836,"elevation":[]},{"distance":131.454,"relativeDirection":"LEFT","streetName":"path","absoluteDirection":"WEST","stayOn":true,"area":false,"bogusName":true,"lon":-71.0579166,"lat":48.424303900000005,"elevation":[]},{"distance":147.775,"relativeDirection":"SLIGHTLY_RIGHT","streetName":"Rue Maltais","absoluteDirection":"NORTH","stayOn":false,"area":false,"bogusName":false,"lon":-71.0591387,"lat":48.424959400000006,"elevation":[]},{"distance":77.273,"relativeDirection":"LEFT","streetName":"Rue Jacques-Cartier Est","absoluteDirection":"WEST","stayOn":false,"area":false,"bogusName":false,"lon":-71.0589782,"lat":48.426284100000004,"elevation":[]},{"distance":89.104,"relativeDirection":"RIGHT","streetName":"steps","absoluteDirection":"NORTH","stayOn":false,"area":false,"bogusName":true,"lon":-71.0600222,"lat":48.4263388,"elevation":[]},{"distance":101.499,"relativeDirection":"SLIGHTLY_RIGHT","streetName":"Rue La Fontaine","absoluteDirection":"NORTH","stayOn":false,"area":false,"bogusName":false,"lon":-71.0601336,"lat":48.4267252,"elevation":[]},{"distance":113.60200000000002,"relativeDirection":"LEFT","streetName":"Rue Racine Est","absoluteDirection":"WEST","stayOn":false,"area":false,"bogusName":false,"lon":-71.0600075,"lat":48.4276324,"elevation":[]},{"distance":64.381,"relativeDirection":"SLIGHTLY_RIGHT","streetName":"path","absoluteDirection":"NORTHWEST","stayOn":false,"area":false,"bogusName":false,"lon":-71.061543,"lat":48.4277073,"elevation":[]}]}],"tooSloped":false}]},"debugOutput":{"precalculationTime":17,"pathCalculationTime":8,"pathTimes":[3,3,2],"renderingTime":0,"totalTime":25,"timedOut":false},"elevationMetadata":{"ellipsoidToGeoidDifference":-28.885904201182168,"geoidElevation":false}}