{"requestParameters":{"date":"2018/04/02","walkSpeed":"1.33","walkReluctance":"2.0","fromPlace":"48.414095,-71.086272","maxWalkDistance":"3000","waitReluctance":"1.0","carSpeed":"33","numItineraries":"3","waitAtBeginningFactor":"0.4","mode":"TRANSIT,WALK","ignoreRealtimeUpdates":"false","stairsReluctance":"2.0","toPlace":"48.405882,-71.01272","time":"21:0:00"},"plan":{"date":1522717200000,"from":{"name":"Origin","lon":-71.086272,"lat":48.414095,"orig":"","vertexType":"NORMAL"},"to":{"name":"Destination","lon":-71.01272,"lat":48.405882,"orig":"","vertexType":"NORMAL"},"itineraries":[{"duration":3249,"startTime":1522718226000,"endTime":1522721475000,"walkTime":2662,"transitTime":585,"waitingTime":2,"walkDistance":3472.9237293155074,"walkLimitExceeded":false,"elevationLost":0.0,"elevationGained":0.0,"transfers":0,"legs":[{"startTime":1522718226000,"endTime":1522719899000,"departureDelay":0,"arrivalDelay":0,"realTime":false,"distance":2163.899,"pathway":false,"mode":"WALK","route":"","agencyTimeZoneOffset":-14400000,"interlineWithPreviousLeg":false,"from":{"name":"Origin","lon":-71.086272,"lat":48.414095,"departure":1522718226000,"orig":"","vertexType":"NORMAL"},"to":{"name":"Champs-Élysées / Bégin","stopId":"1:566","stopCode":"566","lon":-71.064237,"lat":48.415762,"arrival":1522719899000,"departure":1522719900000,"zoneId":"NA","stopIndex":7,"stopSequence":8,"vertexType":"TRANSIT"},"legGeometry":{"points":"_}nfHr}zpLlCiFHWd@WRKZQHCnAi@f@YnAoBz@gDXaDV{Bz@wDfA{DlCmIeCyBi@g@kBkBQyBa@sF_@kFASkEoIuBeE{BuEb@kAh@yA|AiEHQ_BwBsCqCw@w@CCGGsCqCMOo@m@j@kB","length":39},"rentedBike":false,"transitLeg":false,"duration":1673.0,"steps":[{"distance":184.583,"relativeDirection":"DEPART","streetName":"Rue Saint-Augustin","absoluteDirection":"SOUTHEAST","stayOn":false,"area":false,"bogusName":false,"lon":-71.08585352197912,"lat":48.414402021891306,"elevation":[]},{"distance":613.328,"relativeDirection":"CONTINUE","streetName":"Rue Garnier","absoluteDirection":"SOUTH","stayOn":false,"area":false,"bogusName":false,"lon":-71.0842714,"lat":48.413164,"elevation":[]},{"distance":792.597,"relativeDirection":"LEFT","streetName":"Rue Jolliet","absoluteDirection":"NORTHEAST","stayOn":false,"area":false,"bogusName":false,"lon":-71.0775766,"lat":48.4102442,"elevation":[]},{"distance":174.902,"relativeDirection":"RIGHT","streetName":"Rue Des Oblats Est","absoluteDirection":"SOUTHEAST","stayOn":false,"area":false,"bogusName":false,"lon":-71.0693767,"lat":48.414325600000005,"elevation":[]},{"distance":352.20399999999995,"relativeDirection":"LEFT","streetName":"Rue Bégin","absoluteDirection":"NORTHEAST","stayOn":false,"area":false,"bogusName":false,"lon":-71.06744280000001,"lat":48.413416500000004,"elevation":[]},{"distance":46.285,"relativeDirection":"RIGHT","streetName":"Rue des Champs-Élysées","absoluteDirection":"SOUTHEAST","stayOn":false,"area":false,"bogusName":false,"lon":-71.0647342,"lat":48.416021,"elevation":[]}]},{"startTime":1522719900000,"endTime":1522720485000,"departureDelay":0,"arrivalDelay":0,"realTime":false,"distance":3747.390214297627,"pathway":false,"mode":"BUS","route":"12","agencyName":"Société de Transport du Saguenay","agencyUrl":"http://ville.saguenay.ca/fr/services-aux-citoyens/transport-sts","agencyTimeZoneOffset":-14400000,"routeColor":"556B2F","routeType":3,"routeId":"1:12","routeTextColor":"FFFFFF","interlineWithPreviousLeg":false,"tripBlockId":"29","headsign":"Terminus Chicoutimi","agencyId":"0","tripId":"1:218082","serviceDate":"20180402","from":{"name":"Champs-Élysées / Bégin","stopId":"1:566","stopCode":"566","lon":-71.064237,"lat":48.415762,"arrival":1522719899000,"departure":1522719900000,"zoneId":"NA","stopIndex":7,"stopSequence":8,"vertexType":"TRANSIT"},"to":{"name":"nouveau","stopId":"1:2298","stopCode":"2298","lon":-71.024294,"lat":48.414134,"arrival":1522720485000,"departure":1522720486000,"zoneId":"NA","stopIndex":17,"stopSequence":18,"vertexType":"TRANSIT"},"legGeometry":{"points":"oeofHnvvpLlAgIdCmFbAqDtBeCjFm@`Gs@hFo@xAmBrGcPxFoNlCyGa@yFYkD}CyA}KmFgD_BgAgBn@kFD_NoIgrAmD_WcAaLaDH","length":24},"routeShortName":"12","routeLongName":"Rivière du Moulin","rentedBike":false,"transitLeg":true,"duration":585.0,"steps":[]},{"startTime":1522720486000,"endTime":1522721475000,"departureDelay":0,"arrivalDelay":0,"realTime":false,"distance":1308.783,"pathway":false,"mode":"WALK","route":"","agencyTimeZoneOffset":-14400000,"interlineWithPreviousLeg":false,"from":{"name":"nouveau","stopId":"1:2298","stopCode":"2298","lon":-71.024294,"lat":48.414134,"arrival":1522720485000,"departure":1522720486000,"zoneId":"NA","stopIndex":17,"stopSequence":18,"vertexType":"TRANSIT"},"to":{"name":"Destination","lon":-71.01272,"lat":48.405882,"arrival":1522721475000,"orig":"","vertexType":"NORMAL"},"legGeometry":{"points":"c{nfHx~npL`BUTEp@KfBeAJGvOaPR[nBoCj@oAbBuDtAoDb@iAzHeS|CgI","length":15},"rentedBike":false,"transitLeg":false,"duration":989.0,"steps":[{"distance":95.356,"relativeDirection":"DEPART","streetName":"Boulevard du Saguenay Est","absoluteDirection":"SOUTH","stayOn":false,"area":false,"bogusName":false,"lon":-71.02460439463383,"lat":48.414102334788105,"elevation":[]},{"distance":1213.4270000000001,"relativeDirection":"CONTINUE","streetName":"Boulevard Saint-Jean-Baptiste","absoluteDirection":"SOUTHEAST","stayOn":false,"area":false,"bogusName":false,"lon":-71.0244078,"lat":48.413254800000004,"elevation":[]}]}],"tooSloped":false},{"duration":4339,"startTime":1522718936000,"endTime":1522723275000,"walkTime":1172,"transitTime":2925,"waitingTime":242,"walkDistance":1543.5440977430994,"walkLimitExceeded":false,"elevationLost":0.0,"elevationGained":0.0,"transfers":1,"legs":[{"startTime":1522718936000,"endTime":1522719119000,"departureDelay":0,"arrivalDelay":0,"realTime":false,"distance":234.72199999999998,"pathway":false,"mode":"WALK","route":"","agencyTimeZoneOffset":-14400000,"interlineWithPreviousLeg":false,"from":{"name":"Origin","lon":-71.086272,"lat":48.414095,"departure":1522718936000,"orig":"","vertexType":"NORMAL"},"to":{"name":"Saint-Paul / Sainte-Thérèse","stopId":"1:1890","stopCode":"1890","lon":-71.083492,"lat":48.414412,"arrival":1522719119000,"departure":1522719120000,"zoneId":"NA","stopIndex":18,"stopSequence":19,"vertexType":"TRANSIT"},"legGeometry":{"points":"_}nfHr}zpLlCiFQUgAgBg@y@Yc@","length":6},"rentedBike":false,"transitLeg":false,"duration":183.0,"steps":[{"distance":116.687,"relativeDirection":"DEPART","streetName":"Rue Saint-Augustin","absoluteDirection":"SOUTHEAST","stayOn":false,"area":false,"bogusName":false,"lon":-71.08585352197912,"lat":48.414402021891306,"elevation":[]},{"distance":118.035,"relativeDirection":"LEFT","streetName":"Rue Saint-Paul","absoluteDirection":"NORTHEAST","stayOn":false,"area":false,"bogusName":false,"lon":-71.0846811,"lat":48.413698000000004,"elevation":[]}]},{"startTime":1522719120000,"endTime":1522719660000,"departureDelay":0,"arrivalDelay":0,"realTime":false,"distance":2548.6254838142936,"pathway":false,"mode":"BUS","route":"11","agencyName":"Société de Transport du Saguenay","agencyUrl":"http://ville.saguenay.ca/fr/services-aux-citoyens/transport-sts","agencyTimeZoneOffset":-14400000,"routeColor":"FF0000","routeType":3,"routeId":"1:11","routeTextColor":"FFFFFF","interlineWithPreviousLeg":false,"tripBlockId":"34","headsign":"Terminus Chicoutimi","agencyId":"0","tripId":"1:218236","serviceDate":"20180402","from":{"name":"Saint-Paul / Sainte-Thérèse","stopId":"1:1890","stopCode":"1890","lon":-71.083492,"lat":48.414412,"arrival":1522719119000,"departure":1522719120000,"zoneId":"NA","stopIndex":18,"stopSequence":19,"vertexType":"TRANSIT"},"to":{"name":"Terminus Chicoutimi","stopId":"1:1289","stopCode":"1289","lon":-71.066163,"lat":48.428677,"arrival":1522719660000,"departure":1522719900000,"zoneId":"NA","stopIndex":30,"stopSequence":31,"vertexType":"TRANSIT"},"legGeometry":{"points":"k}nfHlozpLkHgL{C{E}AcCc@o@q@gAOWwCyCyGyG_IaIs@rBEHwAtDmBvEOd@[bBK~AIf@YHE@Q@O?OCI_@GMEKI_AB_A?Yo@IKCIEIIKOEKCKe@}BKs@CQAUE_A@yCFcDVsLDaCD_@kBKW?e@Q_BQNuEDuBXmNLgHmKm@}BW{AMCn@o@G??","length":60},"routeShortName":"11","routeLongName":"Chic/Faubourg via St-Paul","rentedBike":false,"transitLeg":true,"duration":540.0,"steps":[]},{"startTime":1522719900000,"endTime":1522721220000,"departureDelay":0,"arrivalDelay":0,"realTime":false,"distance":6130.349121969727,"pathway":false,"mode":"BUS","route":"10","agencyName":"Société de Transport du Saguenay","agencyUrl":"http://ville.saguenay.ca/fr/services-aux-citoyens/transport-sts","agencyTimeZoneOffset":-14400000,"routeColor":"0000FF","routeType":3,"routeId":"1:10","routeTextColor":"FFFFFF","interlineWithPreviousLeg":false,"tripBlockId":"26","headsign":"Terminus UQAC","agencyId":"0","tripId":"1:217994","serviceDate":"20180402","from":{"name":"Terminus Chicoutimi","stopId":"1:1289","stopCode":"1289","lon":-71.066163,"lat":48.428677,"arrival":1522719660000,"departure":1522719900000,"zoneId":"NA","stopIndex":0,"stopSequence":1,"vertexType":"TRANSIT"},"to":{"name":"Terminus UQAC","stopId":"1:1670","stopCode":"1670","lon":-71.053369,"lat":48.420903,"arrival":1522721220000,"departure":1522721400000,"zoneId":"NA","stopIndex":24,"stopSequence":25,"vertexType":"TRANSIT"},"legGeometry":{"points":"svqfHnbwpLDmCdDZ\\kO`@mQBuCD}DQ_ECk@^Cd@QWkL?m@IuF@gA?eH?cAEuEDO^AjD`@B@rEf@T_FjBXpDd@hCObDaCfCaHbFqN`CwG_J_CwMiDGe@T}C\\yELaCJeAJcAXw@Fk@M_@xBwVr@^LJ|@z@HdAlBbD`Av@b@\\v@d@`@BpBAzAXl@t@XZt@lCl@tAnBpB~@~@lDjDr@r@zDrDnAlAjBrBl@pBPlBCj@KrAAHSpAe@jB_A|Bz@xAvA~BvB|BdN|Nc@bAuA~C}VeWaEpLeIrU|D~EfDdEwLpKeBgGAsE]gAoD}CUt@a@_@USMM","length":93},"routeShortName":"10","routeLongName":"Notre-Dame du Saguenay","rentedBike":false,"transitLeg":true,"duration":1320.0,"steps":[]},{"startTime":1522721400000,"endTime":1522722285000,"departureDelay":0,"arrivalDelay":0,"realTime":false,"distance":5253.884692611127,"pathway":false,"mode":"BUS","route":"12","agencyName":"Société de Transport du Saguenay","agencyUrl":"http://ville.saguenay.ca/fr/services-aux-citoyens/transport-sts","agencyTimeZoneOffset":-14400000,"routeColor":"556B2F","routeType":3,"routeId":"1:12","routeTextColor":"FFFFFF","interlineWithPreviousLeg":true,"tripBlockId":"26","headsign":"Terminus Chicoutimi","agencyId":"0","tripId":"1:217995","serviceDate":"20180402","from":{"name":"Terminus UQAC","stopId":"1:1670","stopCode":"1670","lon":-71.053369,"lat":48.420903,"arrival":1522721220000,"departure":1522721400000,"zoneId":"NA","stopIndex":0,"stopSequence":1,"vertexType":"TRANSIT"},"to":{"name":"nouveau","stopId":"1:2298","stopCode":"2298","lon":-71.024294,"lat":48.414134,"arrival":1522722285000,"departure":1522722286000,"zoneId":"NA","stopIndex":17,"stopSequence":18,"vertexType":"TRANSIT"},"legGeometry":{"points":"sepfHprtpL}@y@Pw@wAsAaB{A}DrL?jCv@fCa@nDaC`D~E`F~MfNjJnJ~GbHnCpCv@iBlAgIdCmFbAqDtBeCjFm@`Gs@hFo@xAmBrGcPxFoNlCyGa@yFYkD}CyA}KmFgD_BgAgBn@kFD_NoIgrAmD_WcAaLaDH","length":39},"routeShortName":"12","routeLongName":"Rivière du Moulin","rentedBike":false,"transitLeg":true,"duration":885.0,"steps":[]},{"startTime":1522722286000,"endTime":1522723275000,"departureDelay":0,"arrivalDelay":0,"realTime":false,"distance":1308.783,"pathway":false,"mode":"WALK","route":"","agencyTimeZoneOffset":-14400000,"interlineWithPreviousLeg":false,"from":{"name":"nouveau","stopId":"1:2298","stopCode":"2298","lon":-71.024294,"lat":48.414134,"arrival":1522722285000,"departure":1522722286000,"zoneId":"NA","stopIndex":17,"stopSequence":18,"vertexType":"TRANSIT"},"to":{"name":"Destination","lon":-71.01272,"lat":48.405882,"arrival":1522723275000,"orig":"","vertexType":"NORMAL"},"legGeometry":{"points":"c{nfHx~npL`BUTEp@KfBeAJGvOaPR[nBoCj@oAbBuDtAoDb@iAzHeS|CgI","length":15},"rentedBike":false,"transitLeg":false,"duration":989.0,"steps":[{"distance":95.356,"relativeDirection":"DEPART","streetName":"Boulevard du Saguenay Est","absoluteDirection":"SOUTH","stayOn":false,"area":false,"bogusName":false,"lon":-71.02460439463383,"lat":48.414102334788105,"elevation":[]},{"distance":1213.4270000000001,"relativeDirection":"CONTINUE","streetName":"Boulevard Saint-Jean-Baptiste","absoluteDirection":"SOUTHEAST","stayOn":false,"area":false,"bogusName":false,"lon":-71.0244078,"lat":48.413254800000004,"elevation":[]}]}],"tooSloped":false},{"duration":3607,"startTime":1522719789000,"endTime":1522723396000,"walkTime":550,"transitTime":1015,"waitingTime":2042,"walkDistance":704.8544586439234,"walkLimitExceeded":false,"elevationLost":0.0,"elevationGained":0.0,"transfers":1,"legs":[{"startTime":1522719789000,"endTime":1522720276000,"departureDelay":0,"arrivalDelay":0,"realTime":false,"distance":622.7479999999999,"pathway":false,"mode":"WALK","route":"","agencyTimeZoneOffset":-14400000,"interlineWithPreviousLeg":false,"from":{"name":"Origin","lon":-71.086272,"lat":48.414095,"departure":1522719789000,"orig":"","vertexType":"NORMAL"},"to":{"name":"Boily / Garnier","stopId":"1:1561","stopCode":"1561","lon":-71.0798,"lat":48.4117,"arrival":1522720276000,"departure":1522720277000,"zoneId":"NA","stopIndex":21,"stopSequence":22,"vertexType":"TRANSIT"},"legGeometry":{"points":"_}nfHr}zpLlCiFHWd@WRKZQHCnAi@f@YnAoBz@gDXaDV{Bz@wDoAs@CA","length":16},"rentedBike":false,"transitLeg":false,"duration":487.0,"steps":[{"distance":184.583,"relativeDirection":"DEPART","streetName":"Rue Saint-Augustin","absoluteDirection":"SOUTHEAST","stayOn":false,"area":false,"bogusName":false,"lon":-71.08585352197912,"lat":48.414402021891306,"elevation":[]},{"distance":387.072,"relativeDirection":"CONTINUE","streetName":"Rue Garnier","absoluteDirection":"SOUTH","stayOn":false,"area":false,"bogusName":false,"lon":-71.0842714,"lat":48.413164,"elevation":[]},{"distance":51.092999999999996,"relativeDirection":"LEFT","streetName":"Rue Boily","absoluteDirection":"NORTHEAST","stayOn":false,"area":false,"bogusName":false,"lon":-71.0801867,"lat":48.41131,"elevation":[]}]},{"startTime":1522720277000,"endTime":1522720860000,"departureDelay":0,"arrivalDelay":0,"realTime":false,"distance":2663.3020265785344,"pathway":false,"mode":"BUS","route":"14","agencyName":"Société de Transport du Saguenay","agencyUrl":"http://ville.saguenay.ca/fr/services-aux-citoyens/transport-sts","agencyTimeZoneOffset":-14400000,"routeColor":"C0C000","routeType":3,"routeId":"1:14","routeTextColor":"000000","interlineWithPreviousLeg":false,"tripBlockId":"33","headsign":"Terminus Chicoutimi","agencyId":"0","tripId":"1:218202","serviceDate":"20180402","from":{"name":"Boily / Garnier","stopId":"1:1561","stopCode":"1561","lon":-71.0798,"lat":48.4117,"arrival":1522720276000,"departure":1522720277000,"zoneId":"NA","stopIndex":21,"stopSequence":22,"vertexType":"TRANSIT"},"to":{"name":"Terminus UQAC","stopId":"1:1670","stopCode":"1670","lon":-71.053369,"lat":48.420903,"arrival":1522720860000,"departure":1522722900000,"zoneId":"NA","stopIndex":29,"stopSequence":30,"vertexType":"TRANSIT"},"legGeometry":{"points":"glnfHdxypL_@Um@U{AWgB_Au@s@EEsBkCqFgF{IiI][aBhE}@}@oBmBwE{EwE{Ej@mBZeAa@SyEQg@CPcALuCx@{b@t@{[XoDd@sBl@iB~@gA`G{F{A{D_@sBFqDOq@iG{F","length":35},"routeShortName":"14","routeLongName":"Coopérative","rentedBike":false,"transitLeg":true,"duration":583.0,"steps":[]},{"startTime":1522722900000,"endTime":1522723332000,"departureDelay":0,"arrivalDelay":0,"realTime":false,"distance":4307.781699842114,"pathway":false,"mode":"BUS","route":"5","agencyName":"Société de Transport du Saguenay","agencyUrl":"http://ville.saguenay.ca/fr/services-aux-citoyens/transport-sts","agencyTimeZoneOffset":-14400000,"routeColor":"FF0000","routeType":3,"routeId":"1:5","routeTextColor":"FFFFFF","interlineWithPreviousLeg":false,"tripBlockId":"25","headsign":"Terminus La Baie","agencyId":"0","tripId":"1:217959","serviceDate":"20180402","from":{"name":"Terminus UQAC","stopId":"1:1670","stopCode":"1670","lon":-71.053369,"lat":48.420903,"arrival":1522720860000,"departure":1522722900000,"zoneId":"NA","stopIndex":0,"stopSequence":1,"vertexType":"TRANSIT"},"to":{"name":"boul. St-Jean-Baptiste (no. 1890)","stopId":"1:272","stopCode":"272","lon":-71.012164,"lat":48.405136,"arrival":1522723332000,"departure":1522723333000,"zoneId":"NA","stopIndex":7,"stopSequence":8,"vertexType":"TRANSIT"},"legGeometry":{"points":"sepfHtrtpLbA`ATs@bB~A~A|ALb@E`EnBvHtNsL~FeFROHI\\Q^Mb@I~CIJCJAXKXMXQRQPQT[\\s@^aAn@mBnCgItD{Kv@iHB_@FyAFsA@q@CeBKkDc@cIsFa{@QoBe@cHc@aEeC_Oa@iDk@iIMWxAo@\\UZUdDeD|IoJp@u@l@_Ah@{@f@{@DMp@uAt@iBnAgDrQme@","length":59},"routeShortName":"5","routeLongName":"Term. Chic/Term. Baie via St-J.Batiste","rentedBike":false,"transitLeg":true,"duration":432.0,"steps":[]},{"startTime":1522723333000,"endTime":1522723396000,"departureDelay":0,"arrivalDelay":0,"realTime":false,"distance":82.023,"pathway":false,"mode":"WALK","route":"","agencyTimeZoneOffset":-14400000,"interlineWithPreviousLeg":false,"from":{"name":"boul. St-Jean-Baptiste (no. 1890)","stopId":"1:272","stopCode":"272","lon":-71.012164,"lat":48.405136,"arrival":1522723332000,"departure":1522723333000,"zoneId":"NA","stopIndex":7,"stopSequence":8,"vertexType":"TRANSIT"},"to":{"name":"Destination","lon":-71.01272,"lat":48.405882,"arrival":1522723396000,"orig":"","vertexType":"NORMAL"},"legGeometry":{"points":"mcmfHrplpLABuAnD","length":3},"rentedBike":false,"transitLeg":false,"duration":63.0,"steps":[{"distance":82.023,"relativeDirection":"DEPART","streetName":"Boulevard Saint-Jean-Baptiste","absoluteDirection":"NORTHWEST","stayOn":false,"area":false,"bogusName":false,"lon":-71.01209546744825,"lat":48.40519843315791,"elevation":[]}]}],"tooSloped":false}]},"debugOutput":{"precalculationTime":15,"pathCalculationTime":68,"pathTimes":[31,19,18],"renderingTime":1,"totalTime":84,"timedOut":false},"elevationMetadata":{"ellipsoidToGeoidDifference":-28.885904201182168,"geoidElevation":false}}