{"requestParameters":{"date":"2018/04/02","walkSpeed":"1.33","walkReluctance":"2.0","fromPlace":"48.403952,-71.054642","maxWalkDistance":"3000","waitReluctance":"1.0","carSpeed":"33","numItineraries":"3","waitAtBeginningFactor":"0.4","mode":"TRANSIT,WALK","ignoreRealtimeUpdates":"false","stairsReluctance":"2.0","toPlace":"48.426833,-71.060541","time":"16:0:00"},"plan":{"date":1522699200000,"from":{"name":"Origin","lon":-71.054642,"lat":48.403952,"orig":"","vertexType":"NORMAL"},"to":{"name":"Destination","lon":-71.060541,"lat":48.426833,"orig":"","vertexType":"NORMAL"},"itineraries":[{"duration":1257,"startTime":1522699439000,"endTime":1522700696000,"walkTime":476,"transitTime":779,"waitingTime":2,"walkDistance":587.0376691659088,"walkLimitExceeded":false,"elevationLost":0.0,"elevationGained":0.0,"transfers":0,"legs":[{"startTime":1522699439000,"endTime":1522699799000,"departureDelay":0,"arrivalDelay":0,"realTime":false,"distance":446.63599999999997,"pathway":false,"mode":"WALK","route":"","agencyTimeZoneOffset":-14400000,"interlineWithPreviousLeg":false,"from":{"name":"Origin","lon":-71.054642,"lat":48.403952,"departure":1522699439000,"orig":"","vertexType":"NORMAL"},"to":{"name":"Place Royaume","stopId":"1:1801","stopCode":"1801","lon":-71.057017,"lat":48.405588,"arrival":1522699799000,"departure":1522699800000,"zoneId":"NA","stopIndex":10,"stopSequence":11,"vertexType":"TRANSIT"},"legGeometry":{"points":"{zlfHhytpLJPNVVq@PCk@vDmBtGYWGGUCCCYU]Y[YYWq@tBa@zA","length":17},"rentedBike":false,"transitLeg":false,"duration":360.0,"steps":[{"distance":55.269,"relativeDirection":"DEPART","streetName":"parking aisle","absoluteDirection":"SOUTHWEST","stayOn":false,"area":false,"bogusName":false,"lon":-71.05444515294332,"lat":48.40382759190054,"elevation":[]},{"distance":191.916,"relativeDirection":"HARD_RIGHT","streetName":"path","absoluteDirection":"WEST","stayOn":false,"area":false,"bogusName":true,"lon":-71.0543818,"lat":48.403475,"elevation":[]},{"distance":109.13299999999998,"relativeDirection":"RIGHT","streetName":"service road","absoluteDirection":"NORTHEAST","stayOn":true,"area":false,"bogusName":true,"lon":-71.0566984,"lat":48.4042426,"elevation":[]},{"distance":90.318,"relativeDirection":"LEFT","streetName":"parking aisle","absoluteDirection":"NORTHWEST","stayOn":true,"area":false,"bogusName":true,"lon":-71.05600720000001,"lat":48.4050992,"elevation":[]}]},{"startTime":1522699800000,"endTime":1522700579000,"departureDelay":0,"arrivalDelay":0,"realTime":false,"distance":3676.7494393757684,"pathway":false,"mode":"BUS","route":"175","agencyName":"Société de Transport du Saguenay","agencyUrl":"http://ville.saguenay.ca/fr/services-aux-citoyens/transport-sts","agencyTimeZoneOffset":-14400000,"routeColor":"FF00FF","routeType":3,"routeId":"1:175","routeTextColor":"FFFFFF","interlineWithPreviousLeg":false,"tripBlockId":"77","headsign":"Terminus Chicoutimi","agencyId":"0","tripId":"1:218636","serviceDate":"20180402","from":{"name":"Place Royaume","stopId":"1:1801","stopCode":"1801","lon":-71.057017,"lat":48.405588,"arrival":1522699799000,"departure":1522699800000,"zoneId":"NA","stopIndex":10,"stopSequence":11,"vertexType":"TRANSIT"},"to":{"name":"Racine / Lafontaine","stopId":"1:335","stopCode":"335","lon":-71.059566,"lat":48.427682,"arrival":1522700579000,"departure":1522700580000,"zoneId":"NA","stopIndex":24,"stopSequence":25,"vertexType":"TRANSIT"},"legGeometry":{"points":"sfmfH`kupL_U_TcNgNcBcB{E`Jc@x@qG~@{BlAk@XgSrQqB_GAeFiEeEOt@gAeA_A_ATm@yAwAgBeBqDnL@nBF`@f@|C[dCuAfB]xAs@OmCmCmEkE]a@g@i@ZiGTmEl@oLaEe@cFk@?pH?tJDvBPjMB~Bo@PQDRbFKdG","length":45},"routeShortName":"175","routeLongName":"Term. Chic / Costco","rentedBike":false,"transitLeg":true,"duration":779.0,"steps":[]},{"startTime":1522700580000,"endTime":1522700696000,"departureDelay":0,"arrivalDelay":0,"realTime":false,"distance":140.184,"pathway":false,"mode":"WALK","route":"","agencyTimeZoneOffset":-14400000,"interlineWithPreviousLeg":false,"from":{"name":"Racine / Lafontaine","stopId":"1:335","stopCode":"335","lon":-71.059566,"lat":48.427682,"arrival":1522700579000,"departure":1522700580000,"zoneId":"NA","stopIndex":24,"stopSequence":25,"vertexType":"TRANSIT"},"to":{"name":"Destination","lon":-71.060541,"lat":48.426833,"arrival":1522700696000,"orig":"","vertexType":"NORMAL"},"legGeometry":{"points":"ooqfHjyupLEtAlAD^@An@VfA","length":6},"rentedBike":false,"transitLeg":false,"duration":116.0,"steps":[{"distance":31.98,"relativeDirection":"DEPART","streetName":"Rue Racine Est","absoluteDirection":"WEST","stayOn":false,"area":false,"bogusName":false,"lon":-71.05957567651686,"lat":48.42760765274167,"elevation":[]},{"distance":61.031000000000006,"relativeDirection":"LEFT","streetName":"Rue La Fontaine","absoluteDirection":"SOUTH","stayOn":false,"area":false,"bogusName":false,"lon":-71.0600075,"lat":48.4276324,"elevation":[]},{"distance":47.173,"relativeDirection":"RIGHT","streetName":"service road","absoluteDirection":"WEST","stayOn":false,"area":false,"bogusName":false,"lon":-71.0600417,"lat":48.427084,"elevation":[]}]}],"tooSloped":false},{"duration":1530,"startTime":1522699969000,"endTime":1522701499000,"walkTime":549,"transitTime":979,"waitingTime":2,"walkDistance":666.5311503675454,"walkLimitExceeded":false,"elevationLost":0.0,"elevationGained":0.0,"transfers":0,"legs":[{"startTime":1522699969000,"endTime":1522700339000,"departureDelay":0,"arrivalDelay":0,"realTime":false,"distance":443.3719999999999,"pathway":false,"mode":"WALK","route":"","agencyTimeZoneOffset":-14400000,"interlineWithPreviousLeg":false,"from":{"name":"Origin","lon":-71.054642,"lat":48.403952,"departure":1522699969000,"orig":"","vertexType":"NORMAL"},"to":{"name":"Place du Royaume (Saguenéens)","stopId":"1:1294","stopCode":"1294","lon":-71.057691,"lat":48.402355,"arrival":1522700339000,"departure":1522700340000,"zoneId":"NA","stopIndex":11,"stopSequence":12,"vertexType":"TRANSIT"},"legGeometry":{"points":"{zlfHhytpLJPNVVq@PCb@TTYFH@DTRVXJJPFXFDBXFFBVFHB\\HFr@BLo@dEJJDZBLRh@k@vD","length":28},"rentedBike":false,"transitLeg":false,"duration":370.0,"steps":[{"distance":55.269,"relativeDirection":"DEPART","streetName":"parking aisle","absoluteDirection":"SOUTHWEST","stayOn":false,"area":false,"bogusName":false,"lon":-71.05444515294332,"lat":48.40382759190054,"elevation":[]},{"distance":37.529,"relativeDirection":"RIGHT","streetName":"parking aisle","absoluteDirection":"SOUTHWEST","stayOn":true,"area":false,"bogusName":true,"lon":-71.0543818,"lat":48.403475,"elevation":[]},{"distance":131.32600000000002,"relativeDirection":"RIGHT","streetName":"service road","absoluteDirection":"SOUTHWEST","stayOn":true,"area":false,"bogusName":true,"lon":-71.0543643,"lat":48.403182300000005,"elevation":[]},{"distance":102.75299999999999,"relativeDirection":"RIGHT","streetName":"parking aisle","absoluteDirection":"WEST","stayOn":true,"area":false,"bogusName":true,"lon":-71.0550072,"lat":48.402104300000005,"elevation":[]},{"distance":44.199,"relativeDirection":"LEFT","streetName":"service road","absoluteDirection":"SOUTHWEST","stayOn":true,"area":false,"bogusName":true,"lon":-71.0563248,"lat":48.4022894,"elevation":[]},{"distance":72.296,"relativeDirection":"RIGHT","streetName":"Rue des Saguenéens","absoluteDirection":"WEST","stayOn":false,"area":false,"bogusName":false,"lon":-71.0568056,"lat":48.4020704,"elevation":[]}]},{"startTime":1522700340000,"endTime":1522701319000,"departureDelay":0,"arrivalDelay":0,"realTime":false,"distance":5279.594661072602,"pathway":false,"mode":"BUS","route":"15","agencyName":"Société de Transport du Saguenay","agencyUrl":"http://ville.saguenay.ca/fr/services-aux-citoyens/transport-sts","agencyTimeZoneOffset":-14400000,"routeColor":"FF00FF","routeType":3,"routeId":"1:15","routeTextColor":"FFFFFF","interlineWithPreviousLeg":false,"tripBlockId":"30","headsign":"Terminus Chicoutimi","agencyId":"0","tripId":"1:218106","serviceDate":"20180402","from":{"name":"Place du Royaume (Saguenéens)","stopId":"1:1294","stopCode":"1294","lon":-71.057691,"lat":48.402355,"arrival":1522700339000,"departure":1522700340000,"zoneId":"NA","stopIndex":11,"stopSequence":12,"vertexType":"TRANSIT"},"to":{"name":"Conservatoire (Jacques-Cartier)","stopId":"1:69","stopCode":"69","lon":-71.06173,"lat":48.42643,"arrival":1522701319000,"departure":1522701320000,"zoneId":"NA","stopIndex":35,"stopSequence":36,"vertexType":"TRANSIT"},"legGeometry":{"points":"eqlfHzmupLUxAm@nCcAlDeCvGmA|CUr@}@~A_@\\_DvCEZcA|@UP_@d@Yl@oBdFeCxG_CfGYVQXS\\dK|HlFZbC\\p@zA\\rB@hBiArG{BNw@FiG}@iDwAECcCcBo@y@sEeGe@o@qAa@m@MoB?C@}BZwAc@oA_Bs@gDCKZ{Di@QECc@_@sAkAoBwB_EcE{A_BoAmAk@o@cCaCkIkIaJaJUUwBaCj@wCjAsCzGoG_CoHL{D_@kAqD{CQr@iAcAy@w@L{@wAuA_B_B_EpLDh@NbBVvCIxBg@`Am@l@Sb@a@rAqDqDmEkE]a@kAqAU|@WnKG|DGxDOdP","length":92},"routeShortName":"15","routeLongName":"Term. Chic / Costco","rentedBike":false,"transitLeg":true,"duration":979.0,"steps":[]},{"startTime":1522701320000,"endTime":1522701499000,"departureDelay":0,"arrivalDelay":0,"realTime":false,"distance":222.899,"pathway":false,"mode":"WALK","route":"","agencyTimeZoneOffset":-14400000,"interlineWithPreviousLeg":false,"from":{"name":"Conservatoire (Jacques-Cartier)","stopId":"1:69","stopCode":"69","lon":-71.06173,"lat":48.42643,"arrival":1522701319000,"departure":1522701320000,"zoneId":"NA","stopIndex":35,"stopSequence":36,"vertexType":"TRANSIT"},"to":{"name":"Destination","lon":-71.060541,"lat":48.426833,"arrival":1522701499000,"orig":"","vertexType":"NORMAL"},"legGeometry":{"points":"ygqfHzfvpL?o@B_DQ[UWa@{@gAQAn@VfA","length":9},"rentedBike":false,"transitLeg":false,"duration":179.0,"steps":[{"distance":76.72,"relativeDirection":"DEPART","streetName":"Rue Jacques-Cartier Est","absoluteDirection":"EAST","stayOn":false,"area":false,"bogusName":false,"lon":-71.06173262650398,"lat":48.42637987728782,"elevation":[]},{"distance":99.006,"relativeDirection":"LEFT","streetName":"Rue La Fontaine","absoluteDirection":"NORTHEAST","stayOn":false,"area":false,"bogusName":false,"lon":-71.0606935,"lat":48.426355900000004,"elevation":[]},{"distance":47.173,"relativeDirection":"LEFT","streetName":"service road","absoluteDirection":"WEST","stayOn":false,"area":false,"bogusName":false,"lon":-71.0600417,"lat":48.427084,"elevation":[]}]}],"tooSloped":false},{"duration":1257,"startTime":1522700339000,"endTime":1522701596000,"walkTime":476,"transitTime":779,"waitingTime":2,"walkDistance":587.0376691659088,"walkLimitExceeded":false,"elevationLost":0.0,"elevationGained":0.0,"transfers":0,"legs":[{"startTime":1522700339000,"endTime":1522700699000,"departureDelay":0,"arrivalDelay":0,"realTime":false,"distance":446.63599999999997,"pathway":false,"mode":"WALK","route":"","agencyTimeZoneOffset":-14400000,"interlineWithPreviousLeg":false,"from":{"name":"Origin","lon":-71.054642,"lat":48.403952,"departure":1522700339000,"orig":"","vertexType":"NORMAL"},"to":{"name":"Place Royaume","stopId":"1:1801","stopCode":"1801","lon":-71.057017,"lat":48.405588,"arrival":1522700699000,"departure":1522700700000,"zoneId":"NA","stopIndex":10,"stopSequence":11,"vertexType":"TRANSIT"},"legGeometry":{"points":"{zlfHhytpLJPNVVq@PCk@vDmBtGYWGGUCCCYU]Y[YYWq@tBa@zA","length":17},"rentedBike":false,"transitLeg":false,"duration":360.0,"steps":[{"distance":55.269,"relativeDirection":"DEPART","streetName":"parking aisle","absoluteDirection":"SOUTHWEST","stayOn":false,"area":false,"bogusName":false,"lon":-71.05444515294332,"lat":48.40382759190054,"elevation":[]},{"distance":191.916,"relativeDirection":"HARD_RIGHT","streetName":"path","absoluteDirection":"WEST","stayOn":false,"area":false,"bogusName":true,"lon":-71.0543818,"lat":48.403475,"elevation":[]},{"distance":109.13299999999998,"relativeDirection":"RIGHT","streetName":"service road","absoluteDirection":"NORTHEAST","stayOn":true,"area":false,"bogusName":true,"lon":-71.0566984,"lat":48.4042426,"elevation":[]},{"distance":90.318,"relativeDirection":"LEFT","streetName":"parking aisle","absoluteDirection":"NORTHWEST","stayOn":true,"area":false,"bogusName":true,"lon":-71.05600720000001,"lat":48.4050992,"elevation":[]}]},{"startTime":1522700700000,"endTime":1522701479000,"departureDelay":0,"arrivalDelay":0,"realTime":false,"distance":3676.7494393757684,"pathway":false,"mode":"BUS","route":"175","agencyName":"Société de Transport du Saguenay","agencyUrl":"http://ville.saguenay.ca/fr/services-aux-citoyens/transport-sts","agencyTimeZoneOffset":-14400000,"routeColor":"FF00FF","routeType":3,"routeId":"1:175","routeTextColor":"FFFFFF","interlineWithPreviousLeg":false,"tripBlockId":"9","headsign":"Terminus Chicoutimi","agencyId":"0","tripId":"1:217411","serviceDate":"20180402","from":{"name":"Place Royaume","stopId":"1:1801","stopCode":"1801","lon":-71.057017,"lat":48.405588,"arrival":1522700699000,"departure":1522700700000,"zoneId":"NA","stopIndex":10,"stopSequence":11,"vertexType":"TRANSIT"},"to":{"name":"Racine / Lafontaine","stopId":"1:335","stopCode":"335","lon":-71.059566,"lat":48.427682,"arrival":1522701479000,"departure":1522701480000,"zoneId":"NA","stopIndex":24,"stopSequence":25,"vertexType":"TRANSIT"},"legGeometry":{"points":"sfmfH`kupL_U_TcNgNcBcB{E`Jc@x@qG~@{BlAk@XgSrQqB_GAeFiEeEOt@gAeA_A_ATm@yAwAgBeBqDnL@nBF`@f@|C[dCuAfB]xAs@OmCmCmEkE]a@g@i@ZiGTmEl@oLaEe@cFk@?pH?tJDvBPjMB~Bo@PQDRbFKdG","length":45},"routeShortName":"175","routeLongName":"Term. Chic / Costco","rentedBike":false,"transitLeg":true,"duration":779.0,"steps":[]},{"startTime":1522701480000,"endTime":1522701596000,"departureDelay":0,"arrivalDelay":0,"realTime":false,"distance":140.184,"pathway":false,"mode":"WALK","route":"","agencyTimeZoneOffset":-14400000,"interlineWithPreviousLeg":false,"from":{"name":"Racine / Lafontaine","stopId":"1:335","stopCode":"335","lon":-71.059566,"lat":48.427682,"arrival":1522701479000,"departure":1522701480000,"zoneId":"NA","stopIndex":24,"stopSequence":25,"vertexType":"TRANSIT"},"to":{"name":"Destination","lon":-71.060541,"lat":48.426833,"arrival":1522701596000,"orig":"","vertexType":"NORMAL"},"legGeometry":{"points":"ooqfHjyupLEtAlAD^@An@VfA","length":6},"rentedBike":false,"transitLeg":false,"duration":116.0,"steps":[{"distance":31.98,"relativeDirection":"DEPART","streetName":"Rue Racine Est","absoluteDirection":"WEST","stayOn":false,"area":false,"bogusName":false,"lon":-71.05957567651686,"lat":48.42760765274167,"elevation":[]},{"distance":61.031000000000006,"relativeDirection":"LEFT","streetName":"Rue La Fontaine","absoluteDirection":"SOUTH","stayOn":false,"area":false,"bogusName":false,"lon":-71.0600075,"lat":48.4276324,"elevation":[]},{"distance":47.173,"relativeDirection":"RIGHT","streetName":"service road","absoluteDirection":"WEST","stayOn":false,"area":false,"bogusName":false,"lon":-71.0600417,"lat":48.427084,"elevation":[]}]}],"tooSloped":false}]},"debugOutput":{"precalculationTime":38,"pathCalculationTime":29,"pathTimes":[17,5,7],"renderingTime":1,"totalTime":68,"timedOut":false},"elevationMetadata":{"ellipsoidToGeoidDifference":-28.885904201182168,"geoidElevation":false}}