{"requestParameters":{"date":"2018/04/02","walkSpeed":"1.33","walkReluctance":"2.0","fromPlace":"48.413295,-71.049231","maxWalkDistance":"3000","waitReluctance":"1.0","carSpeed":"33","numItineraries":"3","waitAtBeginningFactor":"0.4","mode":"TRANSIT,WALK","ignoreRealtimeUpdates":"false","stairsReluctance":"2.0","toPlace":"48.426833,-71.060541","time":"13:30:00"},"plan":{"date":1522690200000,"from":{"name":"Origin","lon":-71.049231,"lat":48.413295,"orig":"","vertexType":"NORMAL"},"to":{"name":"Destination","lon":-71.060541,"lat":48.426833,"orig":"","vertexType":"NORMAL"},"itineraries":[{"duration":1022,"startTime":1522691081000,"endTime":1522692103000,"walkTime":882,"transitTime":138,"waitingTime":2,"walkDistance":1109.7713082602447,"walkLimitExceeded":false,"elevationLost":0.0,"elevationGained":0.0,"transfers":0,"legs":[{"startTime":1522691081000,"endTime":1522691284000,"departureDelay":0,"arrivalDelay":0,"realTime":false,"distance":263.774,"pathway":false,"mode":"WALK","route":"","agencyTimeZoneOffset":-14400000,"interlineWithPreviousLeg":false,"from":{"name":"Origin","lon":-71.049231,"lat":48.413295,"departure":1522691081000,"orig":"","vertexType":"NORMAL"},"to":{"name":"boul. Université / Murdock","stopId":"1:59","stopCode":"59","lon":-71.049971,"lat":48.411755,"arrival":1522691284000,"departure":1522691285000,"zoneId":"NA","stopIndex":38,"stopSequence":39,"vertexType":"TRANSIT"},"legGeometry":{"points":"awnfH|zspLjGrGDMnAiD","length":4},"rentedBike":false,"transitLeg":false,"duration":203.0,"steps":[{"distance":180.357,"relativeDirection":"DEPART","streetName":"Boulevard Talbot","absoluteDirection":"SOUTHWEST","stayOn":false,"area":false,"bogusName":false,"lon":-71.04958085233693,"lat":48.41345487585925,"elevation":[]},{"distance":83.417,"relativeDirection":"LEFT","streetName":"Boulevard de l'Université","absoluteDirection":"SOUTHEAST","stayOn":false,"area":false,"bogusName":false,"lon":-71.05096660000001,"lat":48.4121189,"elevation":[]}]},{"startTime":1522691285000,"endTime":1522691423000,"departureDelay":0,"arrivalDelay":0,"realTime":false,"distance":1607.0355030464125,"pathway":false,"mode":"BUS","route":"5","agencyName":"Société de Transport du Saguenay","agencyUrl":"http://ville.saguenay.ca/fr/services-aux-citoyens/transport-sts","agencyTimeZoneOffset":-14400000,"routeColor":"FF0000","routeType":3,"routeId":"1:5","routeTextColor":"FFFFFF","interlineWithPreviousLeg":false,"tripBlockId":"24","headsign":"Terminus UQAC","agencyId":"0","tripId":"1:217913","serviceDate":"20180402","from":{"name":"boul. Université / Murdock","stopId":"1:59","stopCode":"59","lon":-71.049971,"lat":48.411755,"arrival":1522691284000,"departure":1522691285000,"zoneId":"NA","stopIndex":38,"stopSequence":39,"vertexType":"TRANSIT"},"to":{"name":"Cégep de Chicoutimi (voie réservée)","stopId":"1:75","stopCode":"75","lon":-71.055283,"lat":48.422761,"arrival":1522691423000,"departure":1522691424000,"zoneId":"NA","stopIndex":42,"stopSequence":43,"vertexType":"TRANSIT"},"legGeometry":{"points":"alnfHv}spLoDdKM\\k@zAc@l@OPCBQN_@Pa@JYDmCHc@Be@L_@P_@Vy@t@oD|CmOtM{HfHeBzFiEgEeH_Hl@gBfAyAXkCIy@","length":27},"routeShortName":"5","routeLongName":"Term. Chic/Term. Baie via St-J.Batiste","rentedBike":false,"transitLeg":true,"duration":138.0,"steps":[]},{"startTime":1522691424000,"endTime":1522692103000,"departureDelay":0,"arrivalDelay":0,"realTime":false,"distance":845.674,"pathway":false,"mode":"WALK","route":"","agencyTimeZoneOffset":-14400000,"interlineWithPreviousLeg":false,"from":{"name":"Cégep de Chicoutimi (voie réservée)","stopId":"1:75","stopCode":"75","lon":-71.055283,"lat":48.422761,"arrival":1522691423000,"departure":1522691424000,"zoneId":"NA","stopIndex":42,"stopSequence":43,"vertexType":"TRANSIT"},"to":{"name":"Destination","lon":-71.060541,"lat":48.426833,"arrival":1522692103000,"orig":"","vertexType":"NORMAL"},"legGeometry":{"points":"mqpfHr~tpLHt@Ab@QrAO^ORm@p@Sb@e@lAKIOl@EdACd@MLSICAOEk@CG?KACTM\\I\\Ax@Al@g@Zy@\\iG_@IpEy@DSNgAQAn@VfA","length":34},"rentedBike":false,"transitLeg":false,"duration":679.0,"steps":[{"distance":177.29,"relativeDirection":"DEPART","streetName":"Chemin Saint Thomas","absoluteDirection":"WEST","stayOn":false,"area":false,"bogusName":false,"lon":-71.05529730066766,"lat":48.42279572871795,"elevation":[]},{"distance":7.578,"relativeDirection":"RIGHT","streetName":"Rue Bégin","absoluteDirection":"NORTHEAST","stayOn":false,"area":false,"bogusName":false,"lon":-71.0572466,"lat":48.423523700000004,"elevation":[]},{"distance":127.559,"relativeDirection":"LEFT","streetName":"alley","absoluteDirection":"NORTHWEST","stayOn":false,"area":false,"bogusName":true,"lon":-71.05719760000001,"lat":48.4235836,"elevation":[]},{"distance":131.454,"relativeDirection":"LEFT","streetName":"path","absoluteDirection":"WEST","stayOn":true,"area":false,"bogusName":true,"lon":-71.0579166,"lat":48.424303900000005,"elevation":[]},{"distance":147.775,"relativeDirection":"SLIGHTLY_RIGHT","streetName":"Rue Maltais","absoluteDirection":"NORTH","stayOn":false,"area":false,"bogusName":false,"lon":-71.0591387,"lat":48.424959400000006,"elevation":[]},{"distance":77.273,"relativeDirection":"LEFT","streetName":"Rue Jacques-Cartier Est","absoluteDirection":"WEST","stayOn":false,"area":false,"bogusName":false,"lon":-71.0589782,"lat":48.426284100000004,"elevation":[]},{"distance":89.104,"relativeDirection":"RIGHT","streetName":"steps","absoluteDirection":"NORTH","stayOn":false,"area":false,"bogusName":true,"lon":-71.0600222,"lat":48.4263388,"elevation":[]},{"distance":40.468,"relativeDirection":"SLIGHTLY_RIGHT","streetName":"Rue La Fontaine","absoluteDirection":"NORTH","stayOn":false,"area":false,"bogusName":false,"lon":-71.0601336,"lat":48.4267252,"elevation":[]},{"distance":47.173,"relativeDirection":"LEFT","streetName":"service road","absoluteDirection":"WEST","stayOn":false,"area":false,"bogusName":false,"lon":-71.0600417,"lat":48.427084,"elevation":[]}]}],"tooSloped":false},{"duration":1099,"startTime":1522691495000,"endTime":1522692594000,"walkTime":312,"transitTime":785,"waitingTime":2,"walkDistance":384.0783458601977,"walkLimitExceeded":false,"elevationLost":0.0,"elevationGained":0.0,"transfers":0,"legs":[{"startTime":1522691495000,"endTime":1522691691000,"departureDelay":0,"arrivalDelay":0,"realTime":false,"distance":243.75600000000006,"pathway":false,"mode":"WALK","route":"","agencyTimeZoneOffset":-14400000,"interlineWithPreviousLeg":false,"from":{"name":"Origin","lon":-71.049231,"lat":48.413295,"departure":1522691495000,"orig":"","vertexType":"NORMAL"},"to":{"name":"Murdock / Baillargeon","stopId":"1:356","stopCode":"356","lon":-71.047188,"lat":48.413871,"arrival":1522691691000,"departure":1522691692000,"zoneId":"NA","stopIndex":1,"stopSequence":2,"vertexType":"TRANSIT"},"legGeometry":{"points":"awnfH|zspLgAkAoAsAHe@JYDOL[Ro@Rm@Tq@i@k@AC","length":12},"rentedBike":false,"transitLeg":false,"duration":196.0,"steps":[{"distance":103.087,"relativeDirection":"DEPART","streetName":"Boulevard Talbot","absoluteDirection":"NORTHEAST","stayOn":false,"area":false,"bogusName":false,"lon":-71.04958085233693,"lat":48.41345487585925,"elevation":[]},{"distance":110.24600000000001,"relativeDirection":"RIGHT","streetName":"service road","absoluteDirection":"SOUTHEAST","stayOn":false,"area":false,"bogusName":true,"lon":-71.04878880000001,"lat":48.414218500000004,"elevation":[]},{"distance":30.423000000000002,"relativeDirection":"LEFT","streetName":"Rue Murdock","absoluteDirection":"NORTHEAST","stayOn":false,"area":false,"bogusName":false,"lon":-71.0475249,"lat":48.413693200000004,"elevation":[]}]},{"startTime":1522691692000,"endTime":1522692477000,"departureDelay":0,"arrivalDelay":0,"realTime":false,"distance":3895.9355524889193,"pathway":false,"mode":"BUS","route":"10","agencyName":"Société de Transport du Saguenay","agencyUrl":"http://ville.saguenay.ca/fr/services-aux-citoyens/transport-sts","agencyTimeZoneOffset":-14400000,"routeColor":"0000FF","routeType":3,"routeId":"1:10","routeTextColor":"FFFFFF","interlineWithPreviousLeg":false,"tripBlockId":"28","headsign":"Terminus Chicoutimi","agencyId":"0","tripId":"1:218040","serviceDate":"20180402","from":{"name":"Murdock / Baillargeon","stopId":"1:356","stopCode":"356","lon":-71.047188,"lat":48.413871,"arrival":1522691691000,"departure":1522691692000,"zoneId":"NA","stopIndex":1,"stopSequence":2,"vertexType":"TRANSIT"},"to":{"name":"Racine / Lafontaine","stopId":"1:335","stopCode":"335","lon":-71.059566,"lat":48.427682,"arrival":1522692477000,"departure":1522692478000,"zoneId":"NA","stopIndex":18,"stopSequence":19,"vertexType":"TRANSIT"},"legGeometry":{"points":"uynfH~kspLsB{B}AeCu@oAXu@hAoDP_BP{AQmCg@mB_BiBeBaBqFeFmCgC{A_BmBoBk@iAw@}CU[o@y@k@Io@MqC@}@k@_@[aAw@_BoCMOKcAQUu@s@AAu@[k@xGg@pFc@~EO`@KHCVDP?hAa@nEKdAi@pGAr@GXMRG^Bb@`CV~IxB~ElAhChAsBtFaEvK_BhE}AfD{BdByBh@iC]oDq@YbF_Ea@AAuEg@MDENF|GAjJDzBDdDLdHFbCo@RUFRbFG|F","length":77},"routeShortName":"10","routeLongName":"Notre-Dame du Saguenay","rentedBike":false,"transitLeg":true,"duration":785.0,"steps":[]},{"startTime":1522692478000,"endTime":1522692594000,"departureDelay":0,"arrivalDelay":0,"realTime":false,"distance":140.184,"pathway":false,"mode":"WALK","route":"","agencyTimeZoneOffset":-14400000,"interlineWithPreviousLeg":false,"from":{"name":"Racine / Lafontaine","stopId":"1:335","stopCode":"335","lon":-71.059566,"lat":48.427682,"arrival":1522692477000,"departure":1522692478000,"zoneId":"NA","stopIndex":18,"stopSequence":19,"vertexType":"TRANSIT"},"to":{"name":"Destination","lon":-71.060541,"lat":48.426833,"arrival":1522692594000,"orig":"","vertexType":"NORMAL"},"legGeometry":{"points":"ooqfHjyupLEtAlAD^@An@VfA","length":6},"rentedBike":false,"transitLeg":false,"duration":116.0,"steps":[{"distance":31.98,"relativeDirection":"DEPART","streetName":"Rue Racine Est","absoluteDirection":"WEST","stayOn":false,"area":false,"bogusName":false,"lon":-71.05957567651686,"lat":48.42760765274167,"elevation":[]},{"distance":61.031000000000006,"relativeDirection":"LEFT","streetName":"Rue La Fontaine","absoluteDirection":"SOUTH","stayOn":false,"area":false,"bogusName":false,"lon":-71.0600075,"lat":48.4276324,"elevation":[]},{"distance":47.173,"relativeDirection":"RIGHT","streetName":"service road","absoluteDirection":"WEST","stayOn":false,"area":false,"bogusName":false,"lon":-71.0600417,"lat":48.427084,"elevation":[]}]}],"tooSloped":false},{"duration":963,"startTime":1522691633000,"endTime":1522692596000,"walkTime":302,"transitTime":659,"waitingTime":2,"walkDistance":385.0541729300989,"walkLimitExceeded":false,"elevationLost":0.0,"elevationGained":0.0,"transfers":0,"legs":[{"startTime":1522691633000,"endTime":1522691819000,"departureDelay":0,"arrivalDelay":0,"realTime":false,"distance":244.801,"pathway":false,"mode":"WALK","route":"","agencyTimeZoneOffset":-14400000,"interlineWithPreviousLeg":false,"from":{"name":"Origin","lon":-71.049231,"lat":48.413295,"departure":1522691633000,"orig":"","vertexType":"NORMAL"},"to":{"name":"missingStopName","stopId":"1:1812","stopCode":"1812","lon":-71.051352,"lat":48.411592,"arrival":1522691819000,"departure":1522691820000,"zoneId":"NA","stopIndex":11,"stopSequence":12,"vertexType":"TRANSIT"},"legGeometry":{"points":"awnfH|zspLjGrGTXLJx@|@","length":5},"rentedBike":false,"transitLeg":false,"duration":186.0,"steps":[{"distance":244.801,"relativeDirection":"DEPART","streetName":"Boulevard Talbot","absoluteDirection":"SOUTHWEST","stayOn":false,"area":false,"bogusName":false,"lon":-71.04958085233693,"lat":48.41345487585925,"elevation":[]}]},{"startTime":1522691820000,"endTime":1522692479000,"departureDelay":0,"arrivalDelay":0,"realTime":false,"distance":2888.9933379850754,"pathway":false,"mode":"BUS","route":"175","agencyName":"Société de Transport du Saguenay","agencyUrl":"http://ville.saguenay.ca/fr/services-aux-citoyens/transport-sts","agencyTimeZoneOffset":-14400000,"routeColor":"FF00FF","routeType":3,"routeId":"1:175","routeTextColor":"FFFFFF","interlineWithPreviousLeg":false,"tripBlockId":"11","headsign":"Terminus Chicoutimi","agencyId":"0","tripId":"1:217476","serviceDate":"20180402","from":{"name":"missingStopName","stopId":"1:1812","stopCode":"1812","lon":-71.051352,"lat":48.411592,"arrival":1522691819000,"departure":1522691820000,"zoneId":"NA","stopIndex":11,"stopSequence":12,"vertexType":"TRANSIT"},"to":{"name":"Racine / Lafontaine","stopId":"1:335","stopCode":"335","lon":-71.059566,"lat":48.427682,"arrival":1522692479000,"departure":1522692480000,"zoneId":"NA","stopIndex":24,"stopSequence":25,"vertexType":"TRANSIT"},"legGeometry":{"points":"wknfHxftpLcBcB{E`Jc@x@qG~@{BlAk@XgSrQqB_GAeFiEeEOt@gAeA_A_ATm@yAwAgBeBqDnL@nBF`@f@|C[dCuAfB]xAs@OmCmCmEkE]a@g@i@ZiGTmEl@oLaEe@cFk@?pH?tJDvBPjMB~Bo@PQDRbFKdG","length":43},"routeShortName":"175","routeLongName":"Term. Chic / Costco","rentedBike":false,"transitLeg":true,"duration":659.0,"steps":[]},{"startTime":1522692480000,"endTime":1522692596000,"departureDelay":0,"arrivalDelay":0,"realTime":false,"distance":140.184,"pathway":false,"mode":"WALK","route":"","agencyTimeZoneOffset":-14400000,"interlineWithPreviousLeg":false,"from":{"name":"Racine / Lafontaine","stopId":"1:335","stopCode":"335","lon":-71.059566,"lat":48.427682,"arrival":1522692479000,"departure":1522692480000,"zoneId":"NA","stopIndex":24,"stopSequence":25,"vertexType":"TRANSIT"},"to":{"name":"Destination","lon":-71.060541,"lat":48.426833,"arrival":1522692596000,"orig":"","vertexType":"NORMAL"},"legGeometry":{"points":"ooqfHjyupLEtAlAD^@An@VfA","length":6},"rentedBike":false,"transitLeg":false,"duration":116.0,"steps":[{"distance":31.98,"relativeDirection":"DEPART","streetName":"Rue Racine Est","absoluteDirection":"WEST","stayOn":false,"area":false,"bogusName":false,"lon":-71.05957567651686,"lat":48.42760765274167,"elevation":[]},{"distance":61.031000000000006,"relativeDirection":"LEFT","streetName":"Rue La Fontaine","absoluteDirection":"SOUTH","stayOn":false,"area":false,"bogusName":false,"lon":-71.0600075,"lat":48.4276324,"elevation":[]},{"distance":47.173,"relativeDirection":"RIGHT","streetName":"service road","absoluteDirection":"WEST","stayOn":false,"area":false,"bogusName":false,"lon":-71.0600417,"lat":48.427084,"elevation":[]}]}],"tooSloped":false}]},"debugOutput":{"precalculationTime":34,"pathCalculationTime":30,"pathTimes":[17,6,7],"renderingTime":0,"totalTime":64,"timedOut":false},"elevationMetadata":{"ellipsoidToGeoidDifference":-28.885904201182168,"geoidElevation":false}}