{"requestParameters":{"date":"2018/04/02","walkSpeed":"1.33","walkReluctance":"2.0","fromPlace":"48.410849,-71.051029","maxWalkDistance":"3000","waitReluctance":"1.0","carSpeed":"33","numItineraries":"3","waitAtBeginningFactor":"0.4","mode":"TRANSIT,WALK","ignoreRealtimeUpdates":"false","stairsReluctance":"2.0","toPlace":"48.369451,-71.04139","time":"15:30:00"},"plan":{"date":1522697400000,"from":{"name":"Origin","lon":-71.051029,"lat":48.410849,"orig":"","vertexType":"NORMAL"},"to":{"name":"Destination","lon":-71.04139,"lat":48.369451,"orig":"","vertexType":"NORMAL"},"itineraries":[{"duration":3092,"startTime":1522699812000,"endTime":1522702904000,"walkTime":1659,"transitTime":1131,"waitingTime":302,"walkDistance":2185.020458643923,"walkLimitExceeded":false,"elevationLost":0.0,"elevationGained":0.0,"transfers":1,"legs":[{"startTime":1522699812000,"endTime":1522700039000,"departureDelay":0,"arrivalDelay":0,"realTime":false,"distance":289.86,"pathway":false,"mode":"WALK","route":"","agencyTimeZoneOffset":-14400000,"interlineWithPreviousLeg":false,"from":{"name":"Origin","lon":-71.051029,"lat":48.410849,"departure":1522699812000,"orig":"","vertexType":"NORMAL"},"to":{"name":"Sûreté du Québec (Roitelets / Lorenzo-Genest)","stopId":"1:58","stopCode":"58","lon":-71.048311,"lat":48.40979,"arrival":1522700039000,"departure":1522700040000,"zoneId":"NA","stopIndex":15,"stopSequence":16,"vertexType":"TRANSIT"},"legGeometry":{"points":"ednfHvftpLHSVoAZsBVm@L}@b@{Bt@}DGCk@Y","length":10},"rentedBike":false,"transitLeg":false,"duration":227.0,"steps":[{"distance":108.964,"relativeDirection":"DEPART","streetName":"path","absoluteDirection":"SOUTHEAST","stayOn":false,"area":false,"bogusName":false,"lon":-71.05147967029453,"lat":48.41043062845032,"elevation":[]},{"distance":149.905,"relativeDirection":"SLIGHTLY_LEFT","streetName":"Rue Lorenzo-Genest","absoluteDirection":"EAST","stayOn":false,"area":false,"bogusName":false,"lon":-71.0501637,"lat":48.4100046,"elevation":[]},{"distance":30.991,"relativeDirection":"LEFT","streetName":"Rue Des Roitelets","absoluteDirection":"NORTH","stayOn":false,"area":false,"bogusName":false,"lon":-71.0482898,"lat":48.409485700000005,"elevation":[]}]},{"startTime":1522700040000,"endTime":1522700820000,"departureDelay":0,"arrivalDelay":0,"realTime":false,"distance":4592.437679411991,"pathway":false,"mode":"BUS","route":"175","agencyName":"Société de Transport du Saguenay","agencyUrl":"http://ville.saguenay.ca/fr/services-aux-citoyens/transport-sts","agencyTimeZoneOffset":-14400000,"routeColor":"FF00FF","routeType":3,"routeId":"1:175","routeTextColor":"FFFFFF","interlineWithPreviousLeg":false,"tripBlockId":"80","headsign":"Costco","agencyId":"0","tripId":"1:218654","serviceDate":"20180402","from":{"name":"Sûreté du Québec (Roitelets / Lorenzo-Genest)","stopId":"1:58","stopCode":"58","lon":-71.048311,"lat":48.40979,"arrival":1522700039000,"departure":1522700040000,"zoneId":"NA","stopIndex":15,"stopSequence":16,"vertexType":"TRANSIT"},"to":{"name":"COSTCO","stopId":"1:1710","stopCode":"1710","lon":-71.085767,"lat":48.382333,"arrival":1522700820000,"departure":1522701120000,"zoneId":"NA","stopIndex":30,"stopSequence":31,"vertexType":"TRANSIT"},"legGeometry":{"points":"{_nfHzqspLdM`GzCvAXrCr@~Gx@]PEr@ObACn@FrBb@|@Ch@Kx@U~HsB^KZ|DJpII~Fa@rFUzBi@bDUxAm@nCcAlDM^RTfD`DjF`FjCrCrAvAbCfDjIfMdAzAfFpHd@n@nC`DlXv[b@f@mCtHv@v@p@r@_@p@uAcBjDoJhAzApBrBrFvGjDdEbD|DZb@~DrEbDfDrA~ApLbNpG|GyCtHwBcC","length":58},"routeShortName":"175","routeLongName":"Term. Chic / Costco","rentedBike":false,"transitLeg":true,"duration":780.0,"steps":[]},{"startTime":1522701120000,"endTime":1522701471000,"departureDelay":0,"arrivalDelay":0,"realTime":false,"distance":4069.139085873499,"pathway":false,"mode":"BUS","route":"62S","agencyName":"Société de Transport du Saguenay","agencyUrl":"http://ville.saguenay.ca/fr/services-aux-citoyens/transport-sts","agencyTimeZoneOffset":-14400000,"routeColor":"8B0000","routeType":3,"routeId":"1:62S","routeTextColor":"FFFFFF","interlineWithPreviousLeg":false,"tripBlockId":"109","headsign":"Terminus La Baie","agencyId":"0","tripId":"1:218843","serviceDate":"20180402","from":{"name":"COSTCO","stopId":"1:1710","stopCode":"1710","lon":-71.085767,"lat":48.382333,"arrival":1522700820000,"departure":1522701120000,"zoneId":"NA","stopIndex":17,"stopSequence":18,"vertexType":"TRANSIT"},"to":{"name":"boul. Royaume / ch. de l'Église","stopId":"1:1712","stopCode":"1712","lon":-71.055658,"lat":48.35698,"arrival":1522701471000,"departure":1522701472000,"zoneId":"NA","stopIndex":22,"stopSequence":23,"vertexType":"TRANSIT"},"legGeometry":{"points":"uthfHh}zpLoB}BsCoDwCqDrCsGN_@{DmEY_@k@s@]m@Wu@As@RcARq@TgA~@qE~A_Hl@eDjBeFn@qBx@wB`A{Bt@{AlAiBhAkAl@k@pA_ApB}@nq@cRhDuA~UqLAEjJ_EjRiIrJeEdCmAbAs@rAkAbCyC|@cB|@sBpEkN","length":42},"routeShortName":"62S","routeLongName":"Term. Baie / Cégep Jonq","rentedBike":false,"transitLeg":true,"duration":351.0,"steps":[]},{"startTime":1522701472000,"endTime":1522702904000,"departureDelay":0,"arrivalDelay":0,"realTime":false,"distance":1895.0769999999998,"pathway":false,"mode":"WALK","route":"","agencyTimeZoneOffset":-14400000,"interlineWithPreviousLeg":false,"from":{"name":"boul. Royaume / ch. de l'Église","stopId":"1:1712","stopCode":"1712","lon":-71.055658,"lat":48.35698,"arrival":1522701471000,"departure":1522701472000,"zoneId":"NA","stopIndex":22,"stopSequence":23,"vertexType":"TRANSIT"},"to":{"name":"Destination","lon":-71.04139,"lat":48.369451,"arrival":1522702904000,"orig":"","vertexType":"NORMAL"},"legGeometry":{"points":"kvcfHr`upLRo@n@yB_AOaMz@y@s@aEcLeBqC_AiAs@{@]_@MSu@eA[k@Ug@Qc@eAgCCCy@wBa@iAO_@eAoC{AmDaE_FmB}BgUmW","length":26},"rentedBike":false,"transitLeg":false,"duration":1432.0,"steps":[{"distance":73.274,"relativeDirection":"DEPART","streetName":"R 170","absoluteDirection":"SOUTHEAST","stayOn":false,"area":false,"bogusName":false,"lon":-71.05561400042461,"lat":48.357027903870105,"elevation":[]},{"distance":1821.8029999999999,"relativeDirection":"LEFT","streetName":"Rang Sainte-Famille","absoluteDirection":"NORTH","stayOn":false,"area":false,"bogusName":false,"lon":-71.05476750000001,"lat":48.3566846,"elevation":[]}]}],"tooSloped":false},{"duration":4507,"startTime":1522698912000,"endTime":1522703419000,"walkTime":1659,"transitTime":1166,"waitingTime":1682,"walkDistance":2185.020458643923,"walkLimitExceeded":false,"elevationLost":0.0,"elevationGained":0.0,"transfers":1,"legs":[{"startTime":1522698912000,"endTime":1522699139000,"departureDelay":0,"arrivalDelay":0,"realTime":false,"distance":289.86,"pathway":false,"mode":"WALK","route":"","agencyTimeZoneOffset":-14400000,"interlineWithPreviousLeg":false,"from":{"name":"Origin","lon":-71.051029,"lat":48.410849,"departure":1522698912000,"orig":"","vertexType":"NORMAL"},"to":{"name":"Sûreté du Québec (Roitelets / Lorenzo-Genest)","stopId":"1:58","stopCode":"58","lon":-71.048311,"lat":48.40979,"arrival":1522699139000,"departure":1522699140000,"zoneId":"NA","stopIndex":15,"stopSequence":16,"vertexType":"TRANSIT"},"legGeometry":{"points":"ednfHvftpLHSVoAZsBVm@L}@b@{Bt@}DGCk@Y","length":10},"rentedBike":false,"transitLeg":false,"duration":227.0,"steps":[{"distance":108.964,"relativeDirection":"DEPART","streetName":"path","absoluteDirection":"SOUTHEAST","stayOn":false,"area":false,"bogusName":false,"lon":-71.05147967029453,"lat":48.41043062845032,"elevation":[]},{"distance":149.905,"relativeDirection":"SLIGHTLY_LEFT","streetName":"Rue Lorenzo-Genest","absoluteDirection":"EAST","stayOn":false,"area":false,"bogusName":false,"lon":-71.0501637,"lat":48.4100046,"elevation":[]},{"distance":30.991,"relativeDirection":"LEFT","streetName":"Rue Des Roitelets","absoluteDirection":"NORTH","stayOn":false,"area":false,"bogusName":false,"lon":-71.0482898,"lat":48.409485700000005,"elevation":[]}]},{"startTime":1522699140000,"endTime":1522699920000,"departureDelay":0,"arrivalDelay":0,"realTime":false,"distance":4592.437679411991,"pathway":false,"mode":"BUS","route":"175","agencyName":"Société de Transport du Saguenay","agencyUrl":"http://ville.saguenay.ca/fr/services-aux-citoyens/transport-sts","agencyTimeZoneOffset":-14400000,"routeColor":"FF00FF","routeType":3,"routeId":"1:175","routeTextColor":"FFFFFF","interlineWithPreviousLeg":false,"tripBlockId":"6","headsign":"Costco","agencyId":"0","tripId":"1:217303","serviceDate":"20180402","from":{"name":"Sûreté du Québec (Roitelets / Lorenzo-Genest)","stopId":"1:58","stopCode":"58","lon":-71.048311,"lat":48.40979,"arrival":1522699139000,"departure":1522699140000,"zoneId":"NA","stopIndex":15,"stopSequence":16,"vertexType":"TRANSIT"},"to":{"name":"COSTCO","stopId":"1:1710","stopCode":"1710","lon":-71.085767,"lat":48.382333,"arrival":1522699920000,"departure":1522701600000,"zoneId":"NA","stopIndex":30,"stopSequence":31,"vertexType":"TRANSIT"},"legGeometry":{"points":"{_nfHzqspLdM`GzCvAXrCr@~Gx@]PEr@ObACn@FrBb@|@Ch@Kx@U~HsB^KZ|DJpII~Fa@rFUzBi@bDUxAm@nCcAlDM^RTfD`DjF`FjCrCrAvAbCfDjIfMdAzAfFpHd@n@nC`DlXv[b@f@mCtHv@v@p@r@_@p@uAcBjDoJhAzApBrBrFvGjDdEbD|DZb@~DrEbDfDrA~ApLbNpG|GyCtHwBcC","length":58},"routeShortName":"175","routeLongName":"Term. Chic / Costco","rentedBike":false,"transitLeg":true,"duration":780.0,"steps":[]},{"startTime":1522701600000,"endTime":1522701986000,"departureDelay":0,"arrivalDelay":0,"realTime":false,"distance":3614.6795621834012,"pathway":false,"mode":"BUS","route":"62","agencyName":"Société de Transport du Saguenay","agencyUrl":"http://ville.saguenay.ca/fr/services-aux-citoyens/transport-sts","agencyTimeZoneOffset":-14400000,"routeColor":"00FFFF","routeType":3,"routeId":"1:62","routeTextColor":"000000","interlineWithPreviousLeg":false,"tripBlockId":"95","headsign":"Barrage Port. Roches","agencyId":"0","tripId":"1:218718","serviceDate":"20180402","from":{"name":"COSTCO","stopId":"1:1710","stopCode":"1710","lon":-71.085767,"lat":48.382333,"arrival":1522699920000,"departure":1522701600000,"zoneId":"NA","stopIndex":0,"stopSequence":1,"vertexType":"TRANSIT"},"to":{"name":"boul. Royaume / ch. de l'Église","stopId":"1:1712","stopCode":"1712","lon":-71.055658,"lat":48.35698,"arrival":1522701986000,"departure":1522701987000,"zoneId":"NA","stopIndex":3,"stopSequence":4,"vertexType":"TRANSIT"},"legGeometry":{"points":"uthfHh}zpLoB}Bs@`BjChDZbB`@x@PNlFwMHWbFmMBc@~d@skANe@Jk@H_AD_ABuADs@Hk@Lc@N_@X_@ZYbAq@pA]hDuA~UqLAEjJ_EjRiIrJeEdCmAbAs@rAkAbCyC|@cB|@sBpEkN","length":38},"routeShortName":"62","routeLongName":"Portage des Roches Sud","rentedBike":false,"transitLeg":true,"duration":386.0,"steps":[]},{"startTime":1522701987000,"endTime":1522703419000,"departureDelay":0,"arrivalDelay":0,"realTime":false,"distance":1895.0769999999998,"pathway":false,"mode":"WALK","route":"","agencyTimeZoneOffset":-14400000,"interlineWithPreviousLeg":false,"from":{"name":"boul. Royaume / ch. de l'Église","stopId":"1:1712","stopCode":"1712","lon":-71.055658,"lat":48.35698,"arrival":1522701986000,"departure":1522701987000,"zoneId":"NA","stopIndex":3,"stopSequence":4,"vertexType":"TRANSIT"},"to":{"name":"Destination","lon":-71.04139,"lat":48.369451,"arrival":1522703419000,"orig":"","vertexType":"NORMAL"},"legGeometry":{"points":"kvcfHr`upLRo@n@yB_AOaMz@y@s@aEcLeBqC_AiAs@{@]_@MSu@eA[k@Ug@Qc@eAgCCCy@wBa@iAO_@eAoC{AmDaE_FmB}BgUmW","length":26},"rentedBike":false,"transitLeg":false,"duration":1432.0,"steps":[{"distance":73.274,"relativeDirection":"DEPART","streetName":"R 170","absoluteDirection":"SOUTHEAST","stayOn":false,"area":false,"bogusName":false,"lon":-71.05561400042461,"lat":48.357027903870105,"elevation":[]},{"distance":1821.8029999999999,"relativeDirection":"LEFT","streetName":"Rang Sainte-Famille","absoluteDirection":"NORTH","stayOn":false,"area":false,"bogusName":false,"lon":-71.05476750000001,"lat":48.3566846,"elevation":[]}]}],"tooSloped":false},{"duration":4157,"startTime":1522703705000,"endTime":1522707862000,"walkTime":1670,"transitTime":2485,"waitingTime":2,"walkDistance":2198.824022552873,"walkLimitExceeded":false,"elevationLost":0.0,"elevationGained":0.0,"transfers":0,"legs":[{"startTime":1522703705000,"endTime":1522703959000,"departureDelay":0,"arrivalDelay":0,"realTime":false,"distance":324.719,"pathway":false,"mode":"WALK","route":"","agencyTimeZoneOffset":-14400000,"interlineWithPreviousLeg":false,"from":{"name":"Origin","lon":-71.051029,"lat":48.410849,"departure":1522703705000,"orig":"","vertexType":"NORMAL"},"to":{"name":"boul. Université / Murdock","stopId":"1:80","stopCode":"80","lon":-71.050111,"lat":48.411498,"arrival":1522703959000,"departure":1522703960000,"zoneId":"NA","stopIndex":11,"stopSequence":12,"vertexType":"TRANSIT"},"legGeometry":{"points":"ednfHvftpLmAdDcDgDy@}@MK|AmE","length":6},"rentedBike":false,"transitLeg":false,"duration":254.0,"steps":[{"distance":74.534,"relativeDirection":"DEPART","streetName":"path","absoluteDirection":"NORTHWEST","stayOn":false,"area":false,"bogusName":false,"lon":-71.05147967029453,"lat":48.41043062845032,"elevation":[]},{"distance":158.887,"relativeDirection":"RIGHT","streetName":"Boulevard Talbot","absoluteDirection":"NORTHEAST","stayOn":false,"area":false,"bogusName":false,"lon":-71.05230110000001,"lat":48.4108205,"elevation":[]},{"distance":91.298,"relativeDirection":"RIGHT","streetName":"Boulevard de l'Université","absoluteDirection":"SOUTHEAST","stayOn":false,"area":false,"bogusName":false,"lon":-71.0510904,"lat":48.412002,"elevation":[]}]},{"startTime":1522703960000,"endTime":1522706445000,"departureDelay":0,"arrivalDelay":0,"realTime":false,"distance":29625.5636812298,"pathway":false,"mode":"BUS","route":"21S","agencyName":"Société de Transport du Saguenay","agencyUrl":"http://ville.saguenay.ca/fr/services-aux-citoyens/transport-sts","agencyTimeZoneOffset":-14400000,"routeColor":"8B0000","routeType":3,"routeId":"1:21S","routeTextColor":"FFFFFF","interlineWithPreviousLeg":false,"tripBlockId":"53","headsign":"Costco","agencyId":"0","tripId":"1:218475","serviceDate":"20180402","from":{"name":"boul. Université / Murdock","stopId":"1:80","stopCode":"80","lon":-71.050111,"lat":48.411498,"arrival":1522703959000,"departure":1522703960000,"zoneId":"NA","stopIndex":11,"stopSequence":12,"vertexType":"TRANSIT"},"to":{"name":"boul. Royaume / ch. de l'Église","stopId":"1:1750","stopCode":"1750","lon":-71.055287,"lat":48.35702,"arrival":1522706445000,"departure":1522706446000,"zoneId":"NA","stopIndex":72,"stopSequence":73,"vertexType":"TRANSIT"},"legGeometry":{"points":"cknfH|}spLbB}Eh@sBh@qCPcANoAPqBFyAFsA@q@CeBKkDc@cIsF_{@QqBe@cHc@aEeC_Oa@iDk@iIKWvAo@^WXQdDeD|IqJp@u@l@_Ah@{@f@{@FMn@uAt@iBpAgDpQoe@nKwXlGoPlA_DjAsD~@aENy@jCeO\\{ANi@l@cBt@aBr@kAdAuAlEsFtAwBHM`B}CdAmCvEgMrEaMhCeHhJ}VjH{RpBqFzJcXfAwCfAmCfCqGzHeSjJeVhOe`@xI}TvNc_@`ImS`JqU~HkS~Mo]|JiWdKwWpNy^zJcWfPcb@d@{AxBgHnCoJtEgPJ[jA{DpAyDl@uA?AnAcCnQsYxKqQfAoBx@_B`LsWtEsKzLcYzDaJ\\m@^g@b@_@d@[xDyAbFiBvBw@tAc@nDoAiAcJK_Ag@eCEIEKv@CD@FBBBLf@Jh@?FF~@?JABADA@IF[ZhAbJoDnAuAb@l@fFpC|UH`@^dBv@fEn@rDBLXtBd@fEDVlAtL\\`Ft@dLb@zIz@`Rd@~J@XFz@ZrDvBfP|AjLtDbWXxANbAFdBtEl]L`ANdBJrCBhB?lBElBGhAIjAMrAS~AaBfKOvAOvAEpA?\\Ah@?r@@l@Dp@Dv@Ft@RnAP~@Tz@vKb^f@bBz@~CZrAl@xCXdBPz@j@~E|AvObBfQh@fGTbEJfEChE?^KvGIpBSfDIvAg@zFq@dGi@rCc@`B_@lAu@~Ba@fA_@~@eW`l@aPz^wB|E}A|Eg@rCe@jDk@~IcAtSS|CSbCIx@UvB]bCm@rDoAxFi@rByBpGSl@uRvh@eD`JUt@Qr@YjBIbAG|@E~@CpA?xADvArA`Q`BnThCz\\V|HCBCBCDADCBAFAD?DAF?F?D?F?D@D?F@D@DBD@D@BBDBBB@BBB@B@D@B?B@z@lHjAzOH`BB`CEnBQzBa@jCc@~AcXbs@{@lCmcAv_D","length":276},"routeShortName":"21S","routeLongName":"Term. Chic -> Cégep / UQAC -> Costco","rentedBike":false,"transitLeg":true,"duration":2485.0,"steps":[]},{"startTime":1522706446000,"endTime":1522707862000,"departureDelay":0,"arrivalDelay":0,"realTime":false,"distance":1873.9959999999999,"pathway":false,"mode":"WALK","route":"","agencyTimeZoneOffset":-14400000,"interlineWithPreviousLeg":false,"from":{"name":"boul. Royaume / ch. de l'Église","stopId":"1:1750","stopCode":"1750","lon":-71.055287,"lat":48.35702,"arrival":1522706445000,"departure":1522706446000,"zoneId":"NA","stopIndex":72,"stopSequence":73,"vertexType":"TRANSIT"},"to":{"name":"Destination","lon":-71.04139,"lat":48.369451,"arrival":1522707862000,"orig":"","vertexType":"NORMAL"},"legGeometry":{"points":"wucfHb_upLn@yB_AOaMz@y@s@aEcLeBqC_AiAs@{@]_@MSu@eA[k@Ug@Qc@eAgCCCy@wBa@iAO_@eAoC{AmDaE_FmB}BgUmW","length":25},"rentedBike":false,"transitLeg":false,"duration":1416.0,"steps":[{"distance":52.193,"relativeDirection":"DEPART","streetName":"R 170","absoluteDirection":"SOUTHEAST","stayOn":false,"area":false,"bogusName":false,"lon":-71.05537045993363,"lat":48.356929134406265,"elevation":[]},{"distance":1821.8029999999999,"relativeDirection":"LEFT","streetName":"Rang Sainte-Famille","absoluteDirection":"NORTH","stayOn":false,"area":false,"bogusName":false,"lon":-71.05476750000001,"lat":48.3566846,"elevation":[]}]}],"tooSloped":false}]},"debugOutput":{"precalculationTime":25,"pathCalculationTime":73,"pathTimes":[27,24,22],"renderingTime":0,"totalTime":98,"timedOut":false},"elevationMetadata":{"ellipsoidToGeoidDifference":-28.885904201182168,"geoidElevation":false}}