{"requestParameters":{"date":"2018/04/02","walkSpeed":"1.33","walkReluctance":"2.0","fromPlace":"48.418729,-71.053021","maxWalkDistance":"3000","waitReluctance":"1.0","carSpeed":"33","numItineraries":"3","waitAtBeginningFactor":"0.4","mode":"TRANSIT,WALK","ignoreRealtimeUpdates":"false","stairsReluctance":"2.0","toPlace":"48.425184,-71.018482","time":"10:0:00"},"plan":{"date":1522677600000,"from":{"name":"Origin","lon":-71.053021,"lat":48.418729,"orig":"","vertexType":"NORMAL"},"to":{"name":"Destination","lon":-71.018482,"lat":48.425184,"orig":"","vertexType":"NORMAL"},"itineraries":[{"duration":2224,"startTime":1522677766000,"endTime":1522679990000,"walkTime":886,"transitTime":1336,"waitingTime":2,"walkDistance":1137.9612180390718,"walkLimitExceeded":false,"elevationLost":0.0,"elevationGained":0.0,"transfers":0,"legs":[{"startTime":1522677766000,"endTime":1522677883000,"departureDelay":0,"arrivalDelay":0,"realTime":false,"distance":153.204,"pathway":false,"mode":"WALK","route":"","agencyTimeZoneOffset":-14400000,"interlineWithPreviousLeg":false,"from":{"name":"Origin","lon":-71.053021,"lat":48.418729,"departure":1522677766000,"orig":"","vertexType":"NORMAL"},"to":{"name":"Fondation / Étudiants","stopId":"1:261","stopCode":"261","lon":-71.053953,"lat":48.417524,"arrival":1522677883000,"departure":1522677884000,"zoneId":"NA","stopIndex":23,"stopSequence":24,"vertexType":"TRANSIT"},"legGeometry":{"points":"mwofHbotpLd@f@DG`CdCr@p@","length":5},"rentedBike":false,"transitLeg":false,"duration":117.0,"steps":[{"distance":30.223,"relativeDirection":"DEPART","streetName":"path","absoluteDirection":"SOUTHWEST","stayOn":false,"area":false,"bogusName":false,"lon":-71.05281450938897,"lat":48.41863935175929,"elevation":[]},{"distance":122.981,"relativeDirection":"CONTINUE","streetName":"Rue de la Fondation","absoluteDirection":"SOUTHWEST","stayOn":false,"area":false,"bogusName":false,"lon":-71.05297080000001,"lat":48.4184196,"elevation":[]}]},{"startTime":1522677884000,"endTime":1522678020000,"departureDelay":0,"arrivalDelay":0,"realTime":false,"distance":378.1919200530851,"pathway":false,"mode":"BUS","route":"10","agencyName":"Société de Transport du Saguenay","agencyUrl":"http://ville.saguenay.ca/fr/services-aux-citoyens/transport-sts","agencyTimeZoneOffset":-14400000,"routeColor":"0000FF","routeType":3,"routeId":"1:10","routeTextColor":"FFFFFF","interlineWithPreviousLeg":false,"tripBlockId":"26","headsign":"Terminus UQAC","agencyId":"0","tripId":"1:217970","serviceDate":"20180402","from":{"name":"Fondation / Étudiants","stopId":"1:261","stopCode":"261","lon":-71.053953,"lat":48.417524,"arrival":1522677883000,"departure":1522677884000,"zoneId":"NA","stopIndex":23,"stopSequence":24,"vertexType":"TRANSIT"},"to":{"name":"Terminus UQAC","stopId":"1:1670","stopCode":"1670","lon":-71.053369,"lat":48.420903,"arrival":1522678020000,"departure":1522678200000,"zoneId":"NA","stopIndex":24,"stopSequence":25,"vertexType":"TRANSIT"},"legGeometry":{"points":"qpofHhvtpLfDdEwLpKeBgGAsE]gAoD}CUt@a@_@USMM","length":11},"routeShortName":"10","routeLongName":"Notre-Dame du Saguenay","rentedBike":false,"transitLeg":true,"duration":136.0,"steps":[]},{"startTime":1522678200000,"endTime":1522679220000,"departureDelay":0,"arrivalDelay":0,"realTime":false,"distance":5838.293504505197,"pathway":false,"mode":"BUS","route":"12","agencyName":"Société de Transport du Saguenay","agencyUrl":"http://ville.saguenay.ca/fr/services-aux-citoyens/transport-sts","agencyTimeZoneOffset":-14400000,"routeColor":"556B2F","routeType":3,"routeId":"1:12","routeTextColor":"FFFFFF","interlineWithPreviousLeg":true,"tripBlockId":"26","headsign":"Terminus Chicoutimi","agencyId":"0","tripId":"1:217971","serviceDate":"20180402","from":{"name":"Terminus UQAC","stopId":"1:1670","stopCode":"1670","lon":-71.053369,"lat":48.420903,"arrival":1522678020000,"departure":1522678200000,"zoneId":"NA","stopIndex":0,"stopSequence":1,"vertexType":"TRANSIT"},"to":{"name":"rue Gascogne (face no585)","stopId":"1:1028","stopCode":"1028","lon":-71.022333,"lat":48.419226,"arrival":1522679220000,"departure":1522679221000,"zoneId":"NA","stopIndex":18,"stopSequence":19,"vertexType":"TRANSIT"},"legGeometry":{"points":"sepfHprtpL}@y@Pw@wAsAaB{A}DrL?jCv@fCa@nDaC`D~E`F~MfNjJnJ~GbHnCpCv@iBlAgIdCmFbAqDtBeCjFm@`Gs@hFo@xAmBrGcPxFoNlCyGa@yFYkD}CyA}KmFgD_BgAgBn@kFD_NoIgrAmD_WcAaLaDHoDJi`@wVoAbDbA|AnBU|B|A","length":45},"routeShortName":"12","routeLongName":"Rivière du Moulin","rentedBike":false,"transitLeg":true,"duration":1020.0,"steps":[]},{"startTime":1522679221000,"endTime":1522679990000,"departureDelay":0,"arrivalDelay":0,"realTime":false,"distance":984.57,"pathway":false,"mode":"WALK","route":"","agencyTimeZoneOffset":-14400000,"interlineWithPreviousLeg":false,"from":{"name":"rue Gascogne (face no585)","stopId":"1:1028","stopCode":"1028","lon":-71.022333,"lat":48.419226,"arrival":1522679220000,"departure":1522679221000,"zoneId":"NA","stopIndex":18,"stopSequence":19,"vertexType":"TRANSIT"},"to":{"name":"Destination","lon":-71.018482,"lat":48.425184,"arrival":1522679990000,"orig":"","vertexType":"NORMAL"},"legGeometry":{"points":"a{ofHhpnpLA?a@OKCOI]SKGUMQIEBE@a@NE@QFUGCEIQ[o@O[b@eA`@_BLu@Fe@Ai@Ik@i@k@o@]wAg@yHmAq@Y_FyCsBqA?tBuBPAx@","length":35},"rentedBike":false,"transitLeg":false,"duration":769.0,"steps":[{"distance":188.15699999999998,"relativeDirection":"DEPART","streetName":"Rue de Gascogne","absoluteDirection":"NORTH","stayOn":false,"area":false,"bogusName":false,"lon":-71.02228573392509,"lat":48.41921628444625,"elevation":[]},{"distance":73.153,"relativeDirection":"RIGHT","streetName":"Rue de Normandie","absoluteDirection":"SOUTHEAST","stayOn":false,"area":false,"bogusName":false,"lon":-71.0215,"lat":48.4206914,"elevation":[]},{"distance":591.5550000000001,"relativeDirection":"CONTINUE","streetName":"Rang Saint-Martin","absoluteDirection":"EAST","stayOn":false,"area":false,"bogusName":false,"lon":-71.02066450000001,"lat":48.4203406,"elevation":[]},{"distance":131.705,"relativeDirection":"HARD_LEFT","streetName":"road","absoluteDirection":"WEST","stayOn":false,"area":false,"bogusName":true,"lon":-71.01750270000001,"lat":48.4247067,"elevation":[]}]}],"tooSloped":false},{"duration":1901,"startTime":1522679421000,"endTime":1522681322000,"walkTime":1539,"transitTime":360,"waitingTime":2,"walkDistance":1989.089992473233,"walkLimitExceeded":false,"elevationLost":0.0,"elevationGained":0.0,"transfers":0,"legs":[{"startTime":1522679421000,"endTime":1522679699000,"departureDelay":0,"arrivalDelay":0,"realTime":false,"distance":348.519,"pathway":false,"mode":"WALK","route":"","agencyTimeZoneOffset":-14400000,"interlineWithPreviousLeg":false,"from":{"name":"Origin","lon":-71.053021,"lat":48.418729,"departure":1522679421000,"orig":"","vertexType":"NORMAL"},"to":{"name":"Terminus UQAC","stopId":"1:1670","stopCode":"1670","lon":-71.053369,"lat":48.420903,"arrival":1522679699000,"departure":1522679700000,"zoneId":"NA","stopIndex":0,"stopSequence":1,"vertexType":"TRANSIT"},"legGeometry":{"points":"mwofHbotpLwBuBCA_AaAq@XYz@Ur@e@vAg@vAUp@cAaA","length":11},"rentedBike":false,"transitLeg":false,"duration":278.0,"steps":[{"distance":281.082,"relativeDirection":"DEPART","streetName":"path","absoluteDirection":"NORTHEAST","stayOn":false,"area":false,"bogusName":false,"lon":-71.05281450938897,"lat":48.41863935175929,"elevation":[]},{"distance":67.437,"relativeDirection":"CONTINUE","streetName":"service road","absoluteDirection":"NORTHWEST","stayOn":false,"area":false,"bogusName":true,"lon":-71.05345460000001,"lat":48.4204518,"elevation":[]}]},{"startTime":1522679700000,"endTime":1522680060000,"departureDelay":0,"arrivalDelay":0,"realTime":false,"distance":3070.591992791042,"pathway":false,"mode":"BUS","route":"5","agencyName":"Société de Transport du Saguenay","agencyUrl":"http://ville.saguenay.ca/fr/services-aux-citoyens/transport-sts","agencyTimeZoneOffset":-14400000,"routeColor":"FF0000","routeType":3,"routeId":"1:5","routeTextColor":"FFFFFF","interlineWithPreviousLeg":false,"tripBlockId":"25","headsign":"Terminus La Baie","agencyId":"0","tripId":"1:217935","serviceDate":"20180402","from":{"name":"Terminus UQAC","stopId":"1:1670","stopCode":"1670","lon":-71.053369,"lat":48.420903,"arrival":1522679699000,"departure":1522679700000,"zoneId":"NA","stopIndex":0,"stopSequence":1,"vertexType":"TRANSIT"},"to":{"name":"boul. St-Jean-Baptiste / boul. Université","stopId":"1:196","stopCode":"196","lon":-71.024224,"lat":48.412686,"arrival":1522680060000,"departure":1522680061000,"zoneId":"NA","stopIndex":4,"stopSequence":5,"vertexType":"TRANSIT"},"legGeometry":{"points":"sepfHtrtpLbA`ATs@bB~A~A|ALb@E`EnBvHtNsL~FeFROHI\\Q^Mb@I~CIJCJAXKXMXQRQPQT[\\s@^aAn@mBnCgItD{Kv@iHB_@FyAFsA@q@CeBKkDc@cIsFa{@QoBe@cHc@aEeC_Oa@iDk@iIMWxAo@\\U","length":47},"routeShortName":"5","routeLongName":"Term. Chic/Term. Baie via St-J.Batiste","rentedBike":false,"transitLeg":true,"duration":360.0,"steps":[]},{"startTime":1522680061000,"endTime":1522681322000,"departureDelay":0,"arrivalDelay":0,"realTime":false,"distance":1640.3239999999998,"pathway":false,"mode":"WALK","route":"","agencyTimeZoneOffset":-14400000,"interlineWithPreviousLeg":false,"from":{"name":"boul. St-Jean-Baptiste / boul. Université","stopId":"1:196","stopCode":"196","lon":-71.024224,"lat":48.412686,"arrival":1522680060000,"departure":1522680061000,"zoneId":"NA","stopIndex":4,"stopSequence":5,"vertexType":"TRANSIT"},"to":{"name":"Destination","lon":-71.018482,"lat":48.425184,"arrival":1522681322000,"orig":"","vertexType":"NORMAL"},"legGeometry":{"points":"qrnfHj{npLgBdAq@JUDaBTOB_DUgIkFgVuOLu@Fe@Ai@Ik@i@k@o@]wAg@yHmAq@Y_FyCsBqA?tBuBPAx@","length":23},"rentedBike":false,"transitLeg":false,"duration":1261.0,"steps":[{"distance":63.238,"relativeDirection":"DEPART","streetName":"Boulevard Saint-Jean-Baptiste","absoluteDirection":"NORTHWEST","stayOn":false,"area":false,"bogusName":false,"lon":-71.02405587242363,"lat":48.41273627415948,"elevation":[]},{"distance":853.826,"relativeDirection":"CONTINUE","streetName":"Boulevard du Saguenay Est","absoluteDirection":"NORTH","stayOn":false,"area":false,"bogusName":false,"lon":-71.0244078,"lat":48.413254800000004,"elevation":[]},{"distance":591.5550000000001,"relativeDirection":"RIGHT","streetName":"Rang Saint-Martin","absoluteDirection":"EAST","stayOn":false,"area":false,"bogusName":false,"lon":-71.02066450000001,"lat":48.4203406,"elevation":[]},{"distance":131.705,"relativeDirection":"HARD_LEFT","streetName":"road","absoluteDirection":"WEST","stayOn":false,"area":false,"bogusName":true,"lon":-71.01750270000001,"lat":48.4247067,"elevation":[]}]}],"tooSloped":false},{"duration":2224,"startTime":1522679566000,"endTime":1522681790000,"walkTime":886,"transitTime":1336,"waitingTime":2,"walkDistance":1137.9612180390718,"walkLimitExceeded":false,"elevationLost":0.0,"elevationGained":0.0,"transfers":0,"legs":[{"startTime":1522679566000,"endTime":1522679683000,"departureDelay":0,"arrivalDelay":0,"realTime":false,"distance":153.204,"pathway":false,"mode":"WALK","route":"","agencyTimeZoneOffset":-14400000,"interlineWithPreviousLeg":false,"from":{"name":"Origin","lon":-71.053021,"lat":48.418729,"departure":1522679566000,"orig":"","vertexType":"NORMAL"},"to":{"name":"Fondation / Étudiants","stopId":"1:261","stopCode":"261","lon":-71.053953,"lat":48.417524,"arrival":1522679683000,"departure":1522679684000,"zoneId":"NA","stopIndex":23,"stopSequence":24,"vertexType":"TRANSIT"},"legGeometry":{"points":"mwofHbotpLd@f@DG`CdCr@p@","length":5},"rentedBike":false,"transitLeg":false,"duration":117.0,"steps":[{"distance":30.223,"relativeDirection":"DEPART","streetName":"path","absoluteDirection":"SOUTHWEST","stayOn":false,"area":false,"bogusName":false,"lon":-71.05281450938897,"lat":48.41863935175929,"elevation":[]},{"distance":122.981,"relativeDirection":"CONTINUE","streetName":"Rue de la Fondation","absoluteDirection":"SOUTHWEST","stayOn":false,"area":false,"bogusName":false,"lon":-71.05297080000001,"lat":48.4184196,"elevation":[]}]},{"startTime":1522679684000,"endTime":1522679820000,"departureDelay":0,"arrivalDelay":0,"realTime":false,"distance":378.1919200530851,"pathway":false,"mode":"BUS","route":"10","agencyName":"Société de Transport du Saguenay","agencyUrl":"http://ville.saguenay.ca/fr/services-aux-citoyens/transport-sts","agencyTimeZoneOffset":-14400000,"routeColor":"0000FF","routeType":3,"routeId":"1:10","routeTextColor":"FFFFFF","interlineWithPreviousLeg":false,"tripBlockId":"29","headsign":"Terminus UQAC","agencyId":"0","tripId":"1:218059","serviceDate":"20180402","from":{"name":"Fondation / Étudiants","stopId":"1:261","stopCode":"261","lon":-71.053953,"lat":48.417524,"arrival":1522679683000,"departure":1522679684000,"zoneId":"NA","stopIndex":23,"stopSequence":24,"vertexType":"TRANSIT"},"to":{"name":"Terminus UQAC","stopId":"1:1670","stopCode":"1670","lon":-71.053369,"lat":48.420903,"arrival":1522679820000,"departure":1522680000000,"zoneId":"NA","stopIndex":24,"stopSequence":25,"vertexType":"TRANSIT"},"legGeometry":{"points":"qpofHhvtpLfDdEwLpKeBgGAsE]gAoD}CUt@a@_@USMM","length":11},"routeShortName":"10","routeLongName":"Notre-Dame du Saguenay","rentedBike":false,"transitLeg":true,"duration":136.0,"steps":[]},{"startTime":1522680000000,"endTime":1522681020000,"departureDelay":0,"arrivalDelay":0,"realTime":false,"distance":5838.293504505197,"pathway":false,"mode":"BUS","route":"12","agencyName":"Société de Transport du Saguenay","agencyUrl":"http://ville.saguenay.ca/fr/services-aux-citoyens/transport-sts","agencyTimeZoneOffset":-14400000,"routeColor":"556B2F","routeType":3,"routeId":"1:12","routeTextColor":"FFFFFF","interlineWithPreviousLeg":true,"tripBlockId":"29","headsign":"Terminus Chicoutimi","agencyId":"0","tripId":"1:218060","serviceDate":"20180402","from":{"name":"Terminus UQAC","stopId":"1:1670","stopCode":"1670","lon":-71.053369,"lat":48.420903,"arrival":1522679820000,"departure":1522680000000,"zoneId":"NA","stopIndex":0,"stopSequence":1,"vertexType":"TRANSIT"},"to":{"name":"rue Gascogne (face no585)","stopId":"1:1028","stopCode":"1028","lon":-71.022333,"lat":48.419226,"arrival":1522681020000,"departure":1522681021000,"zoneId":"NA","stopIndex":18,"stopSequence":19,"vertexType":"TRANSIT"},"legGeometry":{"points":"sepfHprtpL}@y@Pw@wAsAaB{A}DrL?jCv@fCa@nDaC`D~E`F~MfNjJnJ~GbHnCpCv@iBlAgIdCmFbAqDtBeCjFm@`Gs@hFo@xAmBrGcPxFoNlCyGa@yFYkD}CyA}KmFgD_BgAgBn@kFD_NoIgrAmD_WcAaLaDHoDJi`@wVoAbDbA|AnBU|B|A","length":45},"routeShortName":"12","routeLongName":"Rivière du Moulin","rentedBike":false,"transitLeg":true,"duration":1020.0,"steps":[]},{"startTime":1522681021000,"endTime":1522681790000,"departureDelay":0,"arrivalDelay":0,"realTime":false,"distance":984.57,"pathway":false,"mode":"WALK","route":"","agencyTimeZoneOffset":-14400000,"interlineWithPreviousLeg":false,"from":{"name":"rue Gascogne (face no585)","stopId":"1:1028","stopCode":"1028","lon":-71.022333,"lat":48.419226,"arrival":1522681020000,"departure":1522681021000,"zoneId":"NA","stopIndex":18,"stopSequence":19,"vertexType":"TRANSIT"},"to":{"name":"Destination","lon":-71.018482,"lat":48.425184,"arrival":1522681790000,"orig":"","vertexType":"NORMAL"},"legGeometry":{"points":"a{ofHhpnpLA?a@OKCOI]SKGUMQIEBE@a@NE@QFUGCEIQ[o@O[b@eA`@_BLu@Fe@Ai@Ik@i@k@o@]wAg@yHmAq@Y_FyCsBqA?tBuBPAx@","length":35},"rentedBike":false,"transitLeg":false,"duration":769.0,"steps":[{"distance":188.15699999999998,"relativeDirection":"DEPART","streetName":"Rue de Gascogne","absoluteDirection":"NORTH","stayOn":false,"area":false,"bogusName":false,"lon":-71.02228573392509,"lat":48.41921628444625,"elevation":[]},{"distance":73.153,"relativeDirection":"RIGHT","streetName":"Rue de Normandie","absoluteDirection":"SOUTHEAST","stayOn":false,"area":false,"bogusName":false,"lon":-71.0215,"lat":48.4206914,"elevation":[]},{"distance":591.5550000000001,"relativeDirection":"CONTINUE","streetName":"Rang Saint-Martin","absoluteDirection":"EAST","stayOn":false,"area":false,"bogusName":false,"lon":-71.02066450000001,"lat":48.4203406,"elevation":[]},{"distance":131.705,"relativeDirection":"HARD_LEFT","streetName":"road","absoluteDirection":"WEST","stayOn":false,"area":false,"bogusName":true,"lon":-71.01750270000001,"lat":48.4247067,"elevation":[]}]}],"tooSloped":false}]},"debugOutput":{"precalculationTime":21,"pathCalculationTime":47,"pathTimes":[22,12,13],"renderingTime":0,"totalTime":68,"timedOut":false},"elevationMetadata":{"ellipsoidToGeoidDifference":-28.885904201182168,"geoidElevation":false}}