{"requestParameters":{"date":"2018/04/02","walkSpeed":"1.33","walkReluctance":"2.0","fromPlace":"48.402286,-71.04745099","maxWalkDistance":"3000","waitReluctance":"1.0","carSpeed":"33","numItineraries":"3","waitAtBeginningFactor":"0.4","mode":"TRANSIT,WALK","ignoreRealtimeUpdates":"false","stairsReluctance":"2.0","toPlace":"48.400392,-71.134251","time":"16:25:00"},"plan":{"date":1522700700000,"from":{"name":"Origin","lon":-71.04745099,"lat":48.402286,"orig":"","vertexType":"NORMAL"},"to":{"name":"Destination","lon":-71.134251,"lat":48.400392,"orig":"","vertexType":"NORMAL"},"itineraries":[{"duration":2964,"startTime":1522700830000,"endTime":1522703794000,"walkTime":1757,"transitTime":1205,"waitingTime":2,"walkDistance":2298.8849172878467,"walkLimitExceeded":false,"elevationLost":0.0,"elevationGained":0.0,"transfers":0,"legs":[{"startTime":1522700830000,"endTime":1522701058000,"departureDelay":0,"arrivalDelay":0,"realTime":false,"distance":287.862,"pathway":false,"mode":"WALK","route":"","agencyTimeZoneOffset":-14400000,"interlineWithPreviousLeg":false,"from":{"name":"Origin","lon":-71.04745099,"lat":48.402286,"departure":1522700830000,"orig":"","vertexType":"NORMAL"},"to":{"name":"Champs-Élysées / Saguenéens","stopId":"1:84","stopCode":"84","lon":-71.05132,"lat":48.402083,"arrival":1522701058000,"departure":1522701059000,"zoneId":"NA","stopIndex":19,"stopSequence":20,"vertexType":"TRANSIT"},"legGeometry":{"points":"oplfHxpspLeAd@BRCb@fArID^b@`D_@J","length":8},"rentedBike":false,"transitLeg":false,"duration":228.0,"steps":[{"distance":41.37,"relativeDirection":"DEPART","streetName":"bike path","absoluteDirection":"NORTH","stayOn":false,"area":false,"bogusName":false,"lon":-71.04796479982853,"lat":48.40216488992326,"elevation":[]},{"distance":228.3,"relativeDirection":"LEFT","streetName":"Rue des Saguenéens","absoluteDirection":"WEST","stayOn":false,"area":false,"bogusName":false,"lon":-71.0481523,"lat":48.4025155,"elevation":[]},{"distance":18.192,"relativeDirection":"RIGHT","streetName":"Rue des Champs-Élysées","absoluteDirection":"NORTH","stayOn":false,"area":false,"bogusName":false,"lon":-71.0511074,"lat":48.401948700000005,"elevation":[]}]},{"startTime":1522701059000,"endTime":1522701720000,"departureDelay":0,"arrivalDelay":0,"realTime":false,"distance":3670.3511602228764,"pathway":false,"mode":"BUS","route":"175","agencyName":"Société de Transport du Saguenay","agencyUrl":"http://ville.saguenay.ca/fr/services-aux-citoyens/transport-sts","agencyTimeZoneOffset":-14400000,"routeColor":"FF00FF","routeType":3,"routeId":"1:175","routeTextColor":"FFFFFF","interlineWithPreviousLeg":false,"tripBlockId":"7","headsign":"Costco","agencyId":"0","tripId":"1:217340","serviceDate":"20180402","from":{"name":"Champs-Élysées / Saguenéens","stopId":"1:84","stopCode":"84","lon":-71.05132,"lat":48.402083,"arrival":1522701058000,"departure":1522701059000,"zoneId":"NA","stopIndex":19,"stopSequence":20,"vertexType":"TRANSIT"},"to":{"name":"COSTCO","stopId":"1:1710","stopCode":"1710","lon":-71.085767,"lat":48.382333,"arrival":1522701720000,"departure":1522701900000,"zoneId":"NA","stopIndex":30,"stopSequence":31,"vertexType":"TRANSIT"},"legGeometry":{"points":"aplfHbetpL^KZ|DJpII~Fa@rFUzBi@bDUxAm@nCcAlDM^RTfD`DjF`FjCrCrAvAbCfDjIfMdAzAfFpHd@n@nC`DlXv[b@f@mCtHv@v@p@r@_@p@uAcBjDoJhAzApBrBrFvGjDdEbD|DZb@~DrEbDfDrA~ApLbNpG|GyCtHwBcC","length":44},"routeShortName":"175","routeLongName":"Term. Chic / Costco","rentedBike":false,"transitLeg":true,"duration":661.0,"steps":[]},{"startTime":1522701900000,"endTime":1522702264000,"departureDelay":0,"arrivalDelay":0,"realTime":false,"distance":4166.500211461529,"pathway":false,"mode":"BUS","route":"2","agencyName":"Société de Transport du Saguenay","agencyUrl":"http://ville.saguenay.ca/fr/services-aux-citoyens/transport-sts","agencyTimeZoneOffset":-14400000,"routeColor":"FF0000","routeType":3,"routeId":"1:2","routeTextColor":"FFFFFF","interlineWithPreviousLeg":true,"tripBlockId":"7","headsign":"Terminus Jonquière","agencyId":"0","tripId":"1:217341","serviceDate":"20180402","from":{"name":"COSTCO","stopId":"1:1710","stopCode":"1710","lon":-71.085767,"lat":48.382333,"arrival":1522701720000,"departure":1522701900000,"zoneId":"NA","stopIndex":0,"stopSequence":1,"vertexType":"TRANSIT"},"to":{"name":"boul. Royaume (no. 2121)","stopId":"1:33","stopCode":"33","lon":-71.138099,"lat":48.394083,"arrival":1522702264000,"departure":1522702265000,"zoneId":"NA","stopIndex":8,"stopSequence":9,"vertexType":"TRANSIT"},"legGeometry":{"points":"wthfHn}zpLeLkMxCaIbPzPkL|[eB~GwBlIa@bXIbQO`^aBhTiBlNUfBiI~ZeHzQeFxMqDtKAJ}ApJM~EWhIb@`NFlB_@fOsBvK_DrH_G|H","length":27},"routeShortName":"2","routeLongName":"Chic/Jonq via Boul. Royaume","rentedBike":false,"transitLeg":true,"duration":364.0,"steps":[]},{"startTime":1522702265000,"endTime":1522703794000,"departureDelay":0,"arrivalDelay":0,"realTime":false,"distance":2010.8559999999998,"pathway":false,"mode":"WALK","route":"","agencyTimeZoneOffset":-14400000,"interlineWithPreviousLeg":false,"from":{"name":"boul. Royaume (no. 2121)","stopId":"1:33","stopCode":"33","lon":-71.138099,"lat":48.394083,"arrival":1522702264000,"departure":1522702265000,"zoneId":"NA","stopIndex":8,"stopSequence":9,"vertexType":"TRANSIT"},"to":{"name":"Destination","lon":-71.134251,"lat":48.400392,"arrival":1522703794000,"orig":"","vertexType":"NORMAL"},"legGeometry":{"points":"}}jfHfdeqLyAhB}BtCaBtB[^GJ{AlBqB|CqA`CcB`EyAdEUz@U|@KKMOKSGSAU@YHQh@{@b@i@TWHSj@mBf@wBFu@?UCSEe@I[O[QSuKkLyG_HWW{@iAiD_Eu@{@jAoBtAm@bAo@t@cA~DkB","length":44},"rentedBike":false,"transitLeg":false,"duration":1529.0,"steps":[{"distance":313.10699999999997,"relativeDirection":"DEPART","streetName":"Boulevard du Royaume Ouest","absoluteDirection":"NORTHWEST","stayOn":false,"area":false,"bogusName":false,"lon":-71.13811038815592,"lat":48.39407701706976,"elevation":[]},{"distance":383.342,"relativeDirection":"CONTINUE","streetName":"Boulevard du Royaume","absoluteDirection":"NORTHWEST","stayOn":false,"area":false,"bogusName":false,"lon":-71.1407514,"lat":48.396280100000006,"elevation":[]},{"distance":1009.865,"relativeDirection":"RIGHT","streetName":"Chemin de la Réserve","absoluteDirection":"NORTHEAST","stayOn":false,"area":false,"bogusName":false,"lon":-71.1447687,"lat":48.3984308,"elevation":[]},{"distance":304.542,"relativeDirection":"RIGHT","streetName":"Rue des Archanges","absoluteDirection":"SOUTHEAST","stayOn":false,"area":false,"bogusName":false,"lon":-71.1358379,"lat":48.402851000000005,"elevation":[]}]}],"tooSloped":false},{"duration":3502,"startTime":1522701759000,"endTime":1522705261000,"walkTime":624,"transitTime":2456,"waitingTime":422,"walkDistance":800.8196992439352,"walkLimitExceeded":false,"elevationLost":0.0,"elevationGained":0.0,"transfers":1,"legs":[{"startTime":1522701759000,"endTime":1522702046000,"departureDelay":0,"arrivalDelay":0,"realTime":false,"distance":360.08200000000005,"pathway":false,"mode":"WALK","route":"","agencyTimeZoneOffset":-14400000,"interlineWithPreviousLeg":false,"from":{"name":"Origin","lon":-71.04745099,"lat":48.402286,"departure":1522701759000,"orig":"","vertexType":"NORMAL"},"to":{"name":"Engoulevents / Sternes","stopId":"1:1568","stopCode":"1568","lon":-71.050864,"lat":48.400594,"arrival":1522702046000,"departure":1522702047000,"zoneId":"NA","stopIndex":10,"stopSequence":11,"vertexType":"TRANSIT"},"legGeometry":{"points":"oplfHxpspLxAo@FTp@rEXpBRf@j@XN@CzE|@D@?","length":11},"rentedBike":false,"transitLeg":false,"duration":287.0,"steps":[{"distance":53.615,"relativeDirection":"DEPART","streetName":"bike path","absoluteDirection":"SOUTH","stayOn":false,"area":false,"bogusName":false,"lon":-71.04796479982853,"lat":48.40216488992326,"elevation":[]},{"distance":9.183,"relativeDirection":"RIGHT","streetName":"path","absoluteDirection":"SOUTHWEST","stayOn":false,"area":false,"bogusName":true,"lon":-71.0477218,"lat":48.4017105,"elevation":[]},{"distance":180.913,"relativeDirection":"CONTINUE","streetName":"Rue des Martinets","absoluteDirection":"WEST","stayOn":false,"area":false,"bogusName":false,"lon":-71.0478339,"lat":48.4016747,"elevation":[]},{"distance":81.263,"relativeDirection":"RIGHT","streetName":"path","absoluteDirection":"WEST","stayOn":false,"area":false,"bogusName":true,"lon":-71.0498006,"lat":48.400896100000004,"elevation":[]},{"distance":35.108,"relativeDirection":"LEFT","streetName":"Rue des Engoulevents","absoluteDirection":"SOUTH","stayOn":false,"area":false,"bogusName":false,"lon":-71.0509011,"lat":48.400912500000004,"elevation":[]}]},{"startTime":1522702047000,"endTime":1522703280000,"departureDelay":0,"arrivalDelay":0,"realTime":false,"distance":6569.545779608854,"pathway":false,"mode":"BUS","route":"15","agencyName":"Société de Transport du Saguenay","agencyUrl":"http://ville.saguenay.ca/fr/services-aux-citoyens/transport-sts","agencyTimeZoneOffset":-14400000,"routeColor":"FF00FF","routeType":3,"routeId":"1:15","routeTextColor":"FFFFFF","interlineWithPreviousLeg":false,"tripBlockId":"32","headsign":"Terminus Chicoutimi","agencyId":"0","tripId":"1:218167","serviceDate":"20180402","from":{"name":"Engoulevents / Sternes","stopId":"1:1568","stopCode":"1568","lon":-71.050864,"lat":48.400594,"arrival":1522702046000,"departure":1522702047000,"zoneId":"NA","stopIndex":10,"stopSequence":11,"vertexType":"TRANSIT"},"to":{"name":"Terminus Chicoutimi","stopId":"1:1289","stopCode":"1289","lon":-71.066163,"lat":48.428677,"arrival":1522703280000,"departure":1522703700000,"zoneId":"NA","stopIndex":39,"stopSequence":40,"vertexType":"TRANSIT"},"legGeometry":{"points":"uflfHxbtpLGAeGT~@~KKrKyAnL[hBUxAm@nCcAlDeCvGmA|CUr@}@~A_@\\_DvCEZcA|@UP_@d@Yl@oBdFeCxG_CfGYVQXS\\dK|HlFZbC\\p@zA\\rB@hBiArG{BNw@FiG}@iDwAECcCcBo@y@sEeGe@o@qAa@m@MoB?C@}BZwAc@oA_Bs@gDCKZ{Di@QECc@_@sAkAoBwB_EcE{A_BoAmAk@o@cCaCkIkIaJaJUUwBaCj@wCjAsCzGoG_CoHL{D_@kAqD{CQr@iAcAy@w@L{@wAuA_B_B_EpLDh@NbBVvCIxBg@`Am@l@Sb@a@rAqDqDmEkE]a@kAqAU|@WnKG|DGxDOdPKvJU|F?XQlJC~@ChAIzEcCOaIi@VwL","length":108},"routeShortName":"15","routeLongName":"Term. Chic / Costco","rentedBike":false,"transitLeg":true,"duration":1233.0,"steps":[]},{"startTime":1522703700000,"endTime":1522704923000,"departureDelay":0,"arrivalDelay":0,"realTime":false,"distance":8057.838164236649,"pathway":false,"mode":"BUS","route":"16","agencyName":"Société de Transport du Saguenay","agencyUrl":"http://ville.saguenay.ca/fr/services-aux-citoyens/transport-sts","agencyTimeZoneOffset":-14400000,"routeColor":"00FF00","routeType":3,"routeId":"1:16","routeTextColor":"000000","interlineWithPreviousLeg":false,"tripBlockId":"37","headsign":"Faubourg Sagamie","agencyId":"0","tripId":"1:218324","serviceDate":"20180402","from":{"name":"Terminus Chicoutimi","stopId":"1:1289","stopCode":"1289","lon":-71.066163,"lat":48.428677,"arrival":1522703280000,"departure":1522703700000,"zoneId":"NA","stopIndex":0,"stopSequence":1,"vertexType":"TRANSIT"},"to":{"name":"ch. de la Réserve / Michaël","stopId":"1:1872","stopCode":"1872","lon":-71.134493,"lat":48.403695,"arrival":1522704923000,"departure":1522704924000,"zoneId":"NA","stopIndex":34,"stopSequence":35,"vertexType":"TRANSIT"},"legGeometry":{"points":"evqfHzcwpLg@?AXCnAO~GxDVhCP~M~@jDTOrHKdGE^E~BQnIMhGAxCD~@Df@DVDZd@zBBLDJJNHHHDJBn@HCxAHdAFX@DFj@@b@Ab@SvAe@p@{EnEEB{@w@m@o@aDeDIKCMCM?SL}A?A@WCYi@mDOu@Wm@EIMSSWaAcAuAcBq@f@URa@d@u@`A}BzCV`DX~C@HFT^v@bA|AZ^`Av@\\`@Zf@pAvCtD`JJTrAtCpAjC@BvA|CvA~Ci@zAqD`KyDrKyF|Og@tAr@r@h@^jA\\\\Nt@\\PHf@RVDXEROR[p@iBr@uBJQLIDCNEr@lERbBFzA@LFbFN`A^r@bB|AlC`BDBz@t@eAjD|@x@~AxAxB`BbAiDjCzB|ApAvAZbAo@|@cDf@gB~DbA~Cr@fNtNZ\\nCbDl@jBZrB\\`Dx@tIbB|KzBnOpB|GhA~D\\dF@hI?pApBnPVrB`BfH|C|M~AxJvA`JpDnEjDzDlF~FpD|DfChF","length":152},"routeShortName":"16","routeLongName":"Côte de la Réserve","rentedBike":false,"transitLeg":true,"duration":1223.0,"steps":[]},{"startTime":1522704924000,"endTime":1522705261000,"departureDelay":0,"arrivalDelay":0,"realTime":false,"distance":440.608,"pathway":false,"mode":"WALK","route":"","agencyTimeZoneOffset":-14400000,"interlineWithPreviousLeg":false,"from":{"name":"ch. de la Réserve / Michaël","stopId":"1:1872","stopCode":"1872","lon":-71.134493,"lat":48.403695,"arrival":1522704923000,"departure":1522704924000,"zoneId":"NA","stopIndex":34,"stopSequence":35,"vertexType":"TRANSIT"},"to":{"name":"Destination","lon":-71.134251,"lat":48.400392,"arrival":1522705261000,"orig":"","vertexType":"NORMAL"},"legGeometry":{"points":"uylfHdmdqLRf@\\z@rArCT`@jAoBtAm@bAo@t@cA~DkB","length":10},"rentedBike":false,"transitLeg":false,"duration":337.0,"steps":[{"distance":136.066,"relativeDirection":"DEPART","streetName":"Chemin de la Réserve","absoluteDirection":"SOUTHWEST","stayOn":false,"area":false,"bogusName":false,"lon":-71.13442387914574,"lat":48.40363375330702,"elevation":[]},{"distance":304.542,"relativeDirection":"LEFT","streetName":"Rue des Archanges","absoluteDirection":"SOUTHEAST","stayOn":false,"area":false,"bogusName":false,"lon":-71.1358379,"lat":48.402851000000005,"elevation":[]}]}],"tooSloped":false},{"duration":3502,"startTime":1522703559000,"endTime":1522707061000,"walkTime":627,"transitTime":2317,"waitingTime":558,"walkDistance":801.0436992439352,"walkLimitExceeded":false,"elevationLost":0.0,"elevationGained":0.0,"transfers":1,"legs":[{"startTime":1522703559000,"endTime":1522703846000,"departureDelay":0,"arrivalDelay":0,"realTime":false,"distance":360.08200000000005,"pathway":false,"mode":"WALK","route":"","agencyTimeZoneOffset":-14400000,"interlineWithPreviousLeg":false,"from":{"name":"Origin","lon":-71.04745099,"lat":48.402286,"departure":1522703559000,"orig":"","vertexType":"NORMAL"},"to":{"name":"Engoulevents / Sternes","stopId":"1:1568","stopCode":"1568","lon":-71.050864,"lat":48.400594,"arrival":1522703846000,"departure":1522703847000,"zoneId":"NA","stopIndex":10,"stopSequence":11,"vertexType":"TRANSIT"},"legGeometry":{"points":"oplfHxpspLxAo@FTp@rEXpBRf@j@XN@CzE|@D@?","length":11},"rentedBike":false,"transitLeg":false,"duration":287.0,"steps":[{"distance":53.615,"relativeDirection":"DEPART","streetName":"bike path","absoluteDirection":"SOUTH","stayOn":false,"area":false,"bogusName":false,"lon":-71.04796479982853,"lat":48.40216488992326,"elevation":[]},{"distance":9.183,"relativeDirection":"RIGHT","streetName":"path","absoluteDirection":"SOUTHWEST","stayOn":false,"area":false,"bogusName":true,"lon":-71.0477218,"lat":48.4017105,"elevation":[]},{"distance":180.913,"relativeDirection":"CONTINUE","streetName":"Rue des Martinets","absoluteDirection":"WEST","stayOn":false,"area":false,"bogusName":false,"lon":-71.0478339,"lat":48.4016747,"elevation":[]},{"distance":81.263,"relativeDirection":"RIGHT","streetName":"path","absoluteDirection":"WEST","stayOn":false,"area":false,"bogusName":true,"lon":-71.0498006,"lat":48.400896100000004,"elevation":[]},{"distance":35.108,"relativeDirection":"LEFT","streetName":"Rue des Engoulevents","absoluteDirection":"SOUTH","stayOn":false,"area":false,"bogusName":false,"lon":-71.0509011,"lat":48.400912500000004,"elevation":[]}]},{"startTime":1522703847000,"endTime":1522705020000,"departureDelay":0,"arrivalDelay":0,"realTime":false,"distance":6347.105761914046,"pathway":false,"mode":"BUS","route":"15","agencyName":"Société de Transport du Saguenay","agencyUrl":"http://ville.saguenay.ca/fr/services-aux-citoyens/transport-sts","agencyTimeZoneOffset":-14400000,"routeColor":"FF00FF","routeType":3,"routeId":"1:15","routeTextColor":"FFFFFF","interlineWithPreviousLeg":false,"tripBlockId":"30","headsign":"Terminus Chicoutimi","agencyId":"0","tripId":"1:218108","serviceDate":"20180402","from":{"name":"Engoulevents / Sternes","stopId":"1:1568","stopCode":"1568","lon":-71.050864,"lat":48.400594,"arrival":1522703846000,"departure":1522703847000,"zoneId":"NA","stopIndex":10,"stopSequence":11,"vertexType":"TRANSIT"},"to":{"name":"Sainte-Anne / Racine","stopId":"1:558","stopCode":"558","lon":-71.068444,"lat":48.427369,"arrival":1522705020000,"departure":1522705020000,"zoneId":"NA","stopIndex":38,"stopSequence":39,"vertexType":"TRANSIT"},"legGeometry":{"points":"uflfHxbtpLGAeGT~@~KKrKyAnL[hBUxAm@nCcAlDeCvGmA|CUr@}@~A_@\\_DvCEZcA|@UP_@d@Yl@oBdFeCxG_CfGYVQXS\\dK|HlFZbC\\p@zA\\rB@hBiArG{BNw@FiG}@iDwAECcCcBo@y@sEeGe@o@qAa@m@MoB?C@}BZwAc@oA_Bs@gDCKZ{Di@QECc@_@sAkAoBwB_EcE{A_BoAmAk@o@cCaCkIkIaJaJUUwBaCj@wCjAsCzGoG_CoHL{D_@kAqD{CQr@iAcAy@w@L{@wAuA_B_B_EpLDh@NbBVvCIxBg@`Am@l@Sb@a@rAqDqDmEkE]a@kAqAU|@WnKG|DGxDOdPKvJU|F?XQlJC~@ChAIzEcCO","length":106},"routeShortName":"15","routeLongName":"Term. Chic / Costco","rentedBike":false,"transitLeg":true,"duration":1173.0,"steps":[]},{"startTime":1522705020000,"endTime":1522705023000,"departureDelay":0,"arrivalDelay":0,"realTime":false,"distance":0.224,"pathway":false,"mode":"WALK","route":"","agencyTimeZoneOffset":-14400000,"interlineWithPreviousLeg":false,"from":{"name":"Sainte-Anne / Racine","stopId":"1:558","stopCode":"558","lon":-71.068444,"lat":48.427369,"arrival":1522705020000,"departure":1522705020000,"zoneId":"NA","stopIndex":38,"stopSequence":39,"vertexType":"TRANSIT"},"to":{"name":"Sainte-Anne / Jacques-Cartier","stopId":"1:413","stopCode":"413","lon":-71.068639,"lat":48.427373,"arrival":1522705023000,"departure":1522705579000,"zoneId":"NA","stopIndex":1,"stopSequence":2,"vertexType":"TRANSIT"},"legGeometry":{"points":"anqfHhqwpL@?","length":2},"rentedBike":false,"transitLeg":false,"duration":3.0,"steps":[{"distance":0.224,"relativeDirection":"DEPART","streetName":"Rue Sainte-Anne","absoluteDirection":"SOUTH","stayOn":false,"area":false,"bogusName":false,"lon":-71.06852127104082,"lat":48.427371387668245,"elevation":[]}]},{"startTime":1522705579000,"endTime":1522706723000,"departureDelay":0,"arrivalDelay":0,"realTime":false,"distance":7824.599067770179,"pathway":false,"mode":"BUS","route":"16","agencyName":"Société de Transport du Saguenay","agencyUrl":"http://ville.saguenay.ca/fr/services-aux-citoyens/transport-sts","agencyTimeZoneOffset":-14400000,"routeColor":"00FF00","routeType":3,"routeId":"1:16","routeTextColor":"000000","interlineWithPreviousLeg":false,"tripBlockId":"34","headsign":"Faubourg Sagamie","agencyId":"0","tripId":"1:218229","serviceDate":"20180402","from":{"name":"Sainte-Anne / Jacques-Cartier","stopId":"1:413","stopCode":"413","lon":-71.068639,"lat":48.427373,"arrival":1522705023000,"departure":1522705579000,"zoneId":"NA","stopIndex":1,"stopSequence":2,"vertexType":"TRANSIT"},"to":{"name":"ch. de la Réserve / Michaël","stopId":"1:1872","stopCode":"1872","lon":-71.134493,"lat":48.403695,"arrival":1522706723000,"departure":1522706724000,"zoneId":"NA","stopIndex":34,"stopSequence":35,"vertexType":"TRANSIT"},"legGeometry":{"points":"_nqfHnqwpL~M~@jDTOrHKdGE^E~BQnIMhGAxCD~@Df@DVDZd@zBBLDJJNHHHDJBn@HCxAHdAFX@DFj@@b@Ab@SvAe@p@{EnEEB{@w@m@o@aDeDIKCMCM?SL}A?A@WCYi@mDOu@Wm@EIMSSWaAcAuAcBq@f@URa@d@u@`A}BzCV`DX~C@HFT^v@bA|AZ^`Av@\\`@Zf@pAvCtD`JJTrAtCpAjC@BvA|CvA~Ci@zAqD`KyDrKyF|Og@tAr@r@h@^jA\\\\Nt@\\PHf@RVDXEROR[p@iBr@uBJQLIDCNEr@lERbBFzA@LFbFN`A^r@bB|AlC`BDBz@t@eAjD|@x@~AxAxB`BbAiDjCzB|ApAvAZbAo@|@cDf@gB~DbA~Cr@fNtNZ\\nCbDl@jBZrB\\`Dx@tIbB|KzBnOpB|GhA~D\\dF@hI?pApBnPVrB`BfH|C|M~AxJvA`JpDnEjDzDlF~FpD|DfChF","length":146},"routeShortName":"16","routeLongName":"Côte de la Réserve","rentedBike":false,"transitLeg":true,"duration":1144.0,"steps":[]},{"startTime":1522706724000,"endTime":1522707061000,"departureDelay":0,"arrivalDelay":0,"realTime":false,"distance":440.608,"pathway":false,"mode":"WALK","route":"","agencyTimeZoneOffset":-14400000,"interlineWithPreviousLeg":false,"from":{"name":"ch. de la Réserve / Michaël","stopId":"1:1872","stopCode":"1872","lon":-71.134493,"lat":48.403695,"arrival":1522706723000,"departure":1522706724000,"zoneId":"NA","stopIndex":34,"stopSequence":35,"vertexType":"TRANSIT"},"to":{"name":"Destination","lon":-71.134251,"lat":48.400392,"arrival":1522707061000,"orig":"","vertexType":"NORMAL"},"legGeometry":{"points":"uylfHdmdqLRf@\\z@rArCT`@jAoBtAm@bAo@t@cA~DkB","length":10},"rentedBike":false,"transitLeg":false,"duration":337.0,"steps":[{"distance":136.066,"relativeDirection":"DEPART","streetName":"Chemin de la Réserve","absoluteDirection":"SOUTHWEST","stayOn":false,"area":false,"bogusName":false,"lon":-71.13442387914574,"lat":48.40363375330702,"elevation":[]},{"distance":304.542,"relativeDirection":"LEFT","streetName":"Rue des Archanges","absoluteDirection":"SOUTHEAST","stayOn":false,"area":false,"bogusName":false,"lon":-71.1358379,"lat":48.402851000000005,"elevation":[]}]}],"tooSloped":false}]},"debugOutput":{"precalculationTime":16,"pathCalculationTime":50,"pathTimes":[22,14,14],"renderingTime":1,"totalTime":67,"timedOut":false},"elevationMetadata":{"ellipsoidToGeoidDifference":-28.885904201182168,"geoidElevation":false}}