{"requestParameters":{"date":"2018/04/02","walkSpeed":"1.33","walkReluctance":"2.0","fromPlace":"48.412273,-71.06569","maxWalkDistance":"3000","waitReluctance":"1.0","carSpeed":"33","numItineraries":"3","waitAtBeginningFactor":"0.4","mode":"TRANSIT,WALK","ignoreRealtimeUpdates":"false","stairsReluctance":"2.0","toPlace":"48.392872,-71.116413","time":"16:30:00"},"plan":{"date":1522701000000,"from":{"name":"Origin","lon":-71.06569,"lat":48.412273,"orig":"","vertexType":"NORMAL"},"to":{"name":"Destination","lon":-71.116413,"lat":48.392872,"orig":"","vertexType":"NORMAL"},"itineraries":[{"duration":2524,"startTime":1522701079000,"endTime":1522703603000,"walkTime":1557,"transitTime":965,"waitingTime":2,"walkDistance":2001.1680225464193,"walkLimitExceeded":false,"elevationLost":0.0,"elevationGained":0.0,"transfers":0,"legs":[{"startTime":1522701079000,"endTime":1522702210000,"departureDelay":0,"arrivalDelay":0,"realTime":false,"distance":1452.9919999999995,"pathway":false,"mode":"WALK","route":"","agencyTimeZoneOffset":-14400000,"interlineWithPreviousLeg":false,"from":{"name":"Origin","lon":-71.06569,"lat":48.412273,"departure":1522701079000,"orig":"","vertexType":"NORMAL"},"to":{"name":"Saint-Paul / Saint-Henri","stopId":"1:422","stopCode":"422","lon":-71.0781,"lat":48.4187,"arrival":1522702210000,"departure":1522702211000,"zoneId":"NA","stopIndex":9,"stopSequence":10,"vertexType":"TRANSIT"},"legGeometry":{"points":"innfHr|vpLvAzAuBxECDyAdGMUs@m@{@u@UIIP}AhEi@xAc@jA{@`C_DrIaC`HQ`@iCnHe@pAi@tA{@rBCC{@{@SQSQaAnCITy@`Ck@|Ax@z@","length":30},"rentedBike":false,"transitLeg":false,"duration":1131.0,"steps":[{"distance":59.776,"relativeDirection":"DEPART","streetName":"bike path","absoluteDirection":"SOUTHWEST","stayOn":false,"area":false,"bogusName":false,"lon":-71.0652177332652,"lat":48.41205808155102,"elevation":[]},{"distance":215.69799999999998,"relativeDirection":"RIGHT","streetName":"Rue Georges-Vanier","absoluteDirection":"NORTHWEST","stayOn":false,"area":false,"bogusName":false,"lon":-71.0656757,"lat":48.4116147,"elevation":[]},{"distance":96.293,"relativeDirection":"RIGHT","streetName":"Rue Bégin","absoluteDirection":"NORTHEAST","stayOn":false,"area":false,"bogusName":false,"lon":-71.0681022,"lat":48.4126786,"elevation":[]},{"distance":798.6230000000002,"relativeDirection":"LEFT","streetName":"Rue Des Oblats Est","absoluteDirection":"NORTHWEST","stayOn":false,"area":false,"bogusName":false,"lon":-71.06744280000001,"lat":48.413416500000004,"elevation":[]},{"distance":68.749,"relativeDirection":"RIGHT","streetName":"Rue Caron","absoluteDirection":"NORTHEAST","stayOn":false,"area":false,"bogusName":false,"lon":-71.0762876,"lat":48.4175528,"elevation":[]},{"distance":174.846,"relativeDirection":"LEFT","streetName":"Rue Saint-Henri","absoluteDirection":"NORTHWEST","stayOn":false,"area":false,"bogusName":false,"lon":-71.0757816,"lat":48.4180719,"elevation":[]},{"distance":39.007,"relativeDirection":"LEFT","streetName":"Rue Saint-Paul","absoluteDirection":"SOUTHWEST","stayOn":false,"area":false,"bogusName":false,"lon":-71.07773680000001,"lat":48.418960000000006,"elevation":[]}]},{"startTime":1522702211000,"endTime":1522703176000,"departureDelay":0,"arrivalDelay":0,"realTime":false,"distance":7048.854800643906,"pathway":false,"mode":"BUS","route":"11","agencyName":"Société de Transport du Saguenay","agencyUrl":"http://ville.saguenay.ca/fr/services-aux-citoyens/transport-sts","agencyTimeZoneOffset":-14400000,"routeColor":"FF0000","routeType":3,"routeId":"1:11","routeTextColor":"FFFFFF","interlineWithPreviousLeg":false,"tripBlockId":"34","headsign":"Boul.Royaume/St-Pierre","agencyId":"0","tripId":"1:218227","serviceDate":"20180402","from":{"name":"Saint-Paul / Saint-Henri","stopId":"1:422","stopCode":"422","lon":-71.0781,"lat":48.4187,"arrival":1522702210000,"departure":1522702211000,"zoneId":"NA","stopIndex":9,"stopSequence":10,"vertexType":"TRANSIT"},"to":{"name":"boul. St-Paul / Blériot","stopId":"1:1626","stopCode":"1626","lon":-71.112888,"lat":48.390114,"arrival":1522703176000,"departure":1522703177000,"zoneId":"NA","stopIndex":27,"stopSequence":28,"vertexType":"TRANSIT"},"legGeometry":{"points":"uwofHxlypLzDzD`A~An@`ApApBpClEvJrOR\\bAfBLa@t@]LjAVvAVbAVv@^bAXj@b@t@xEtGh@r@n@x@FDjA|AlBpCnJ|NNTX`@V`@eCtHpFjH{FhPcB|Ft@|CEAdCnEdHKrBz@lGiQ|CyI~IrJtAzAmKrWsE`LzJjL|P}d@Ri@hCpEpBdCHJzPrR_AhC}Ppd@KZkDxJq@`CyGfZOl@fNzIJ@HAHIDI@CnNco@vE}Sh@kCb@oCXyBTuAFSBMl@iBlHjJxEtGPRbBdBp@r@xDpD","length":78},"routeShortName":"11","routeLongName":"Chic/Faubourg via St-Paul","rentedBike":false,"transitLeg":true,"duration":965.0,"steps":[]},{"startTime":1522703177000,"endTime":1522703603000,"departureDelay":0,"arrivalDelay":0,"realTime":false,"distance":547.867,"pathway":false,"mode":"WALK","route":"","agencyTimeZoneOffset":-14400000,"interlineWithPreviousLeg":false,"from":{"name":"boul. St-Paul / Blériot","stopId":"1:1626","stopCode":"1626","lon":-71.112888,"lat":48.390114,"arrival":1522703176000,"departure":1522703177000,"zoneId":"NA","stopIndex":27,"stopSequence":28,"vertexType":"TRANSIT"},"to":{"name":"Destination","lon":-71.116413,"lat":48.392872,"arrival":1522703603000,"orig":"","vertexType":"NORMAL"},"legGeometry":{"points":"}djfH~e`qLa@_@sAhEuDgDk@dBKfA@|@@bA?jAG`@cDvI","length":11},"rentedBike":false,"transitLeg":false,"duration":426.0,"steps":[{"distance":22.543,"relativeDirection":"DEPART","streetName":"Boulevard Saint-Paul","absoluteDirection":"NORTHEAST","stayOn":false,"area":false,"bogusName":false,"lon":-71.11279851810154,"lat":48.39007695548151,"elevation":[]},{"distance":87.837,"relativeDirection":"LEFT","streetName":"Rue Blériot","absoluteDirection":"NORTHWEST","stayOn":false,"area":false,"bogusName":false,"lon":-71.112637,"lat":48.390249000000004,"elevation":[]},{"distance":118.228,"relativeDirection":"RIGHT","streetName":"rue Élisabeth-Riverin","absoluteDirection":"NORTHEAST","stayOn":false,"area":false,"bogusName":false,"lon":-71.1136463,"lat":48.3906671,"elevation":[]},{"distance":319.259,"relativeDirection":"LEFT","streetName":"Rue Lindbergh","absoluteDirection":"NORTHWEST","stayOn":false,"area":false,"bogusName":false,"lon":-71.1128034,"lat":48.3915711,"elevation":[]}]}],"tooSloped":false},{"duration":2987,"startTime":1522701842000,"endTime":1522704829000,"walkTime":2024,"transitTime":961,"waitingTime":2,"walkDistance":2628.9497894651086,"walkLimitExceeded":false,"elevationLost":0.0,"elevationGained":0.0,"transfers":0,"legs":[{"startTime":1522701842000,"endTime":1522702975000,"departureDelay":0,"arrivalDelay":0,"realTime":false,"distance":1472.3220000000001,"pathway":false,"mode":"WALK","route":"","agencyTimeZoneOffset":-14400000,"interlineWithPreviousLeg":false,"from":{"name":"Origin","lon":-71.06569,"lat":48.412273,"departure":1522701842000,"orig":"","vertexType":"NORMAL"},"to":{"name":"boul. Talbot (no. 1494) (Tim-Horton)","stopId":"1:1854","stopCode":"1854","lon":-71.060941,"lat":48.402118,"arrival":1522702975000,"departure":1522702976000,"zoneId":"NA","stopIndex":21,"stopSequence":22,"vertexType":"TRANSIT"},"legGeometry":{"points":"innfHr|vpLvAzAlANbAFl@CCLLv@V|@~DfA`DcJbAcC~HnFPNl@}Az@eCfAwA?ABCbA_ARE|@w@jAcAJK`AkAdA_CvByF~@sBLWfDbD","length":29},"rentedBike":false,"transitLeg":false,"duration":1133.0,"steps":[{"distance":330.43600000000004,"relativeDirection":"DEPART","streetName":"bike path","absoluteDirection":"SOUTHWEST","stayOn":false,"area":false,"bogusName":false,"lon":-71.0652177332652,"lat":48.41205808155102,"elevation":[]},{"distance":221.662,"relativeDirection":"LEFT","streetName":"Rue Don Bosco","absoluteDirection":"SOUTHEAST","stayOn":false,"area":false,"bogusName":false,"lon":-71.06679700000001,"lat":48.409527700000005,"elevation":[]},{"distance":210.232,"relativeDirection":"RIGHT","streetName":"service road","absoluteDirection":"SOUTHWEST","stayOn":false,"area":false,"bogusName":true,"lon":-71.064351,"lat":48.4083722,"elevation":[]},{"distance":598.8430000000001,"relativeDirection":"LEFT","streetName":"Rue des Saguenéens","absoluteDirection":"SOUTHEAST","stayOn":false,"area":false,"bogusName":false,"lon":-71.06563030000001,"lat":48.406683,"elevation":[]},{"distance":111.149,"relativeDirection":"RIGHT","streetName":"Boulevard Talbot","absoluteDirection":"SOUTHWEST","stayOn":false,"area":false,"bogusName":false,"lon":-71.0600254,"lat":48.4029151,"elevation":[]}]},{"startTime":1522702976000,"endTime":1522703520000,"departureDelay":0,"arrivalDelay":0,"realTime":false,"distance":2957.6941281470627,"pathway":false,"mode":"BUS","route":"175","agencyName":"Société de Transport du Saguenay","agencyUrl":"http://ville.saguenay.ca/fr/services-aux-citoyens/transport-sts","agencyTimeZoneOffset":-14400000,"routeColor":"FF00FF","routeType":3,"routeId":"1:175","routeTextColor":"FFFFFF","interlineWithPreviousLeg":false,"tripBlockId":"8","headsign":"Costco","agencyId":"0","tripId":"1:217377","serviceDate":"20180402","from":{"name":"boul. Talbot (no. 1494) (Tim-Horton)","stopId":"1:1854","stopCode":"1854","lon":-71.060941,"lat":48.402118,"arrival":1522702975000,"departure":1522702976000,"zoneId":"NA","stopIndex":21,"stopSequence":22,"vertexType":"TRANSIT"},"to":{"name":"COSTCO","stopId":"1:1710","stopCode":"1710","lon":-71.085767,"lat":48.382333,"arrival":1522703520000,"departure":1522703700000,"zoneId":"NA","stopIndex":30,"stopSequence":31,"vertexType":"TRANSIT"},"legGeometry":{"points":"_plfHjavpLjF`FjCrCrAvAbCfDjIfMdAzAfFpHd@n@nC`DlXv[b@f@mCtHv@v@p@r@_@p@uAcBjDoJhAzApBrBrFvGjDdEbD|DZb@~DrEbDfDrA~ApLbNpG|GyCtHwBcC","length":31},"routeShortName":"175","routeLongName":"Term. Chic / Costco","rentedBike":false,"transitLeg":true,"duration":544.0,"steps":[]},{"startTime":1522703700000,"endTime":1522703937000,"departureDelay":0,"arrivalDelay":0,"realTime":false,"distance":2543.411661121034,"pathway":false,"mode":"BUS","route":"2","agencyName":"Société de Transport du Saguenay","agencyUrl":"http://ville.saguenay.ca/fr/services-aux-citoyens/transport-sts","agencyTimeZoneOffset":-14400000,"routeColor":"FF0000","routeType":3,"routeId":"1:2","routeTextColor":"FFFFFF","interlineWithPreviousLeg":true,"tripBlockId":"8","headsign":"Terminus Jonquière","agencyId":"0","tripId":"1:217378","serviceDate":"20180402","from":{"name":"COSTCO","stopId":"1:1710","stopCode":"1710","lon":-71.085767,"lat":48.382333,"arrival":1522703520000,"departure":1522703700000,"zoneId":"NA","stopIndex":0,"stopSequence":1,"vertexType":"TRANSIT"},"to":{"name":"boul. Royaume (no. 1409)","stopId":"1:264","stopCode":"264","lon":-71.118186,"lat":48.388875,"arrival":1522703937000,"departure":1522703938000,"zoneId":"NA","stopIndex":4,"stopSequence":5,"vertexType":"TRANSIT"},"legGeometry":{"points":"wthfHn}zpLeLkMxCaIbPzPkL|[eB~GwBlIa@bXIbQO`^aBhTiBlNUfBiI~ZeHzQ","length":15},"routeShortName":"2","routeLongName":"Chic/Jonq via Boul. Royaume","rentedBike":false,"transitLeg":true,"duration":237.0,"steps":[]},{"startTime":1522703938000,"endTime":1522704829000,"departureDelay":0,"arrivalDelay":0,"realTime":false,"distance":1156.3619999999999,"pathway":false,"mode":"WALK","route":"","agencyTimeZoneOffset":-14400000,"interlineWithPreviousLeg":false,"from":{"name":"boul. Royaume (no. 1409)","stopId":"1:264","stopCode":"264","lon":-71.118186,"lat":48.388875,"arrival":1522703937000,"departure":1522703938000,"zoneId":"NA","stopIndex":4,"stopSequence":5,"vertexType":"TRANSIT"},"to":{"name":"Destination","lon":-71.116413,"lat":48.392872,"arrival":1522704829000,"orig":"","vertexType":"NORMAL"},"legGeometry":{"points":"a}ifHbhaqLXy@Ls@p@gBhBeFfAsCKMaHwGyEmEa@_@sAhEuDgDk@dBKfA@|@@bA?jAG`@cDvI","length":19},"rentedBike":false,"transitLeg":false,"duration":891.0,"steps":[{"distance":264.936,"relativeDirection":"DEPART","streetName":"Boulevard du Royaume Ouest","absoluteDirection":"SOUTHEAST","stayOn":false,"area":false,"bogusName":false,"lon":-71.11825025873861,"lat":48.3888149249102,"elevation":[]},{"distance":366.102,"relativeDirection":"LEFT","streetName":"Boulevard Saint-Paul","absoluteDirection":"NORTHEAST","stayOn":false,"area":false,"bogusName":false,"lon":-71.1152964,"lat":48.387470400000005,"elevation":[]},{"distance":87.837,"relativeDirection":"LEFT","streetName":"Rue Blériot","absoluteDirection":"NORTHWEST","stayOn":false,"area":false,"bogusName":false,"lon":-71.112637,"lat":48.390249000000004,"elevation":[]},{"distance":118.228,"relativeDirection":"RIGHT","streetName":"rue Élisabeth-Riverin","absoluteDirection":"NORTHEAST","stayOn":false,"area":false,"bogusName":false,"lon":-71.1136463,"lat":48.3906671,"elevation":[]},{"distance":319.259,"relativeDirection":"LEFT","streetName":"Rue Lindbergh","absoluteDirection":"NORTHWEST","stayOn":false,"area":false,"bogusName":false,"lon":-71.1128034,"lat":48.3915711,"elevation":[]}]}],"tooSloped":false},{"duration":2524,"startTime":1522702879000,"endTime":1522705403000,"walkTime":1557,"transitTime":965,"waitingTime":2,"walkDistance":2001.1680225464193,"walkLimitExceeded":false,"elevationLost":0.0,"elevationGained":0.0,"transfers":0,"legs":[{"startTime":1522702879000,"endTime":1522704010000,"departureDelay":0,"arrivalDelay":0,"realTime":false,"distance":1452.9919999999995,"pathway":false,"mode":"WALK","route":"","agencyTimeZoneOffset":-14400000,"interlineWithPreviousLeg":false,"from":{"name":"Origin","lon":-71.06569,"lat":48.412273,"departure":1522702879000,"orig":"","vertexType":"NORMAL"},"to":{"name":"Saint-Paul / Saint-Henri","stopId":"1:422","stopCode":"422","lon":-71.0781,"lat":48.4187,"arrival":1522704010000,"departure":1522704011000,"zoneId":"NA","stopIndex":9,"stopSequence":10,"vertexType":"TRANSIT"},"legGeometry":{"points":"innfHr|vpLvAzAuBxECDyAdGMUs@m@{@u@UIIP}AhEi@xAc@jA{@`C_DrIaC`HQ`@iCnHe@pAi@tA{@rBCC{@{@SQSQaAnCITy@`Ck@|Ax@z@","length":30},"rentedBike":false,"transitLeg":false,"duration":1131.0,"steps":[{"distance":59.776,"relativeDirection":"DEPART","streetName":"bike path","absoluteDirection":"SOUTHWEST","stayOn":false,"area":false,"bogusName":false,"lon":-71.0652177332652,"lat":48.41205808155102,"elevation":[]},{"distance":215.69799999999998,"relativeDirection":"RIGHT","streetName":"Rue Georges-Vanier","absoluteDirection":"NORTHWEST","stayOn":false,"area":false,"bogusName":false,"lon":-71.0656757,"lat":48.4116147,"elevation":[]},{"distance":96.293,"relativeDirection":"RIGHT","streetName":"Rue Bégin","absoluteDirection":"NORTHEAST","stayOn":false,"area":false,"bogusName":false,"lon":-71.0681022,"lat":48.4126786,"elevation":[]},{"distance":798.6230000000002,"relativeDirection":"LEFT","streetName":"Rue Des Oblats Est","absoluteDirection":"NORTHWEST","stayOn":false,"area":false,"bogusName":false,"lon":-71.06744280000001,"lat":48.413416500000004,"elevation":[]},{"distance":68.749,"relativeDirection":"RIGHT","streetName":"Rue Caron","absoluteDirection":"NORTHEAST","stayOn":false,"area":false,"bogusName":false,"lon":-71.0762876,"lat":48.4175528,"elevation":[]},{"distance":174.846,"relativeDirection":"LEFT","streetName":"Rue Saint-Henri","absoluteDirection":"NORTHWEST","stayOn":false,"area":false,"bogusName":false,"lon":-71.0757816,"lat":48.4180719,"elevation":[]},{"distance":39.007,"relativeDirection":"LEFT","streetName":"Rue Saint-Paul","absoluteDirection":"SOUTHWEST","stayOn":false,"area":false,"bogusName":false,"lon":-71.07773680000001,"lat":48.418960000000006,"elevation":[]}]},{"startTime":1522704011000,"endTime":1522704976000,"departureDelay":0,"arrivalDelay":0,"realTime":false,"distance":7048.854800643906,"pathway":false,"mode":"BUS","route":"11","agencyName":"Société de Transport du Saguenay","agencyUrl":"http://ville.saguenay.ca/fr/services-aux-citoyens/transport-sts","agencyTimeZoneOffset":-14400000,"routeColor":"FF0000","routeType":3,"routeId":"1:11","routeTextColor":"FFFFFF","interlineWithPreviousLeg":false,"tripBlockId":"36","headsign":"Boul.Royaume/St-Pierre","agencyId":"0","tripId":"1:218298","serviceDate":"20180402","from":{"name":"Saint-Paul / Saint-Henri","stopId":"1:422","stopCode":"422","lon":-71.0781,"lat":48.4187,"arrival":1522704010000,"departure":1522704011000,"zoneId":"NA","stopIndex":9,"stopSequence":10,"vertexType":"TRANSIT"},"to":{"name":"boul. St-Paul / Blériot","stopId":"1:1626","stopCode":"1626","lon":-71.112888,"lat":48.390114,"arrival":1522704976000,"departure":1522704977000,"zoneId":"NA","stopIndex":27,"stopSequence":28,"vertexType":"TRANSIT"},"legGeometry":{"points":"uwofHxlypLzDzD`A~An@`ApApBpClEvJrOR\\bAfBLa@t@]LjAVvAVbAVv@^bAXj@b@t@xEtGh@r@n@x@FDjA|AlBpCnJ|NNTX`@V`@eCtHpFjH{FhPcB|Ft@|CEAdCnEdHKrBz@lGiQ|CyI~IrJtAzAmKrWsE`LzJjL|P}d@Ri@hCpEpBdCHJzPrR_AhC}Ppd@KZkDxJq@`CyGfZOl@fNzIJ@HAHIDI@CnNco@vE}Sh@kCb@oCXyBTuAFSBMl@iBlHjJxEtGPRbBdBp@r@xDpD","length":78},"routeShortName":"11","routeLongName":"Chic/Faubourg via St-Paul","rentedBike":false,"transitLeg":true,"duration":965.0,"steps":[]},{"startTime":1522704977000,"endTime":1522705403000,"departureDelay":0,"arrivalDelay":0,"realTime":false,"distance":547.867,"pathway":false,"mode":"WALK","route":"","agencyTimeZoneOffset":-14400000,"interlineWithPreviousLeg":false,"from":{"name":"boul. St-Paul / Blériot","stopId":"1:1626","stopCode":"1626","lon":-71.112888,"lat":48.390114,"arrival":1522704976000,"departure":1522704977000,"zoneId":"NA","stopIndex":27,"stopSequence":28,"vertexType":"TRANSIT"},"to":{"name":"Destination","lon":-71.116413,"lat":48.392872,"arrival":1522705403000,"orig":"","vertexType":"NORMAL"},"legGeometry":{"points":"}djfH~e`qLa@_@sAhEuDgDk@dBKfA@|@@bA?jAG`@cDvI","length":11},"rentedBike":false,"transitLeg":false,"duration":426.0,"steps":[{"distance":22.543,"relativeDirection":"DEPART","streetName":"Boulevard Saint-Paul","absoluteDirection":"NORTHEAST","stayOn":false,"area":false,"bogusName":false,"lon":-71.11279851810154,"lat":48.39007695548151,"elevation":[]},{"distance":87.837,"relativeDirection":"LEFT","streetName":"Rue Blériot","absoluteDirection":"NORTHWEST","stayOn":false,"area":false,"bogusName":false,"lon":-71.112637,"lat":48.390249000000004,"elevation":[]},{"distance":118.228,"relativeDirection":"RIGHT","streetName":"rue Élisabeth-Riverin","absoluteDirection":"NORTHEAST","stayOn":false,"area":false,"bogusName":false,"lon":-71.1136463,"lat":48.3906671,"elevation":[]},{"distance":319.259,"relativeDirection":"LEFT","streetName":"Rue Lindbergh","absoluteDirection":"NORTHWEST","stayOn":false,"area":false,"bogusName":false,"lon":-71.1128034,"lat":48.3915711,"elevation":[]}]}],"tooSloped":false}]},"debugOutput":{"precalculationTime":23,"pathCalculationTime":58,"pathTimes":[24,16,18],"renderingTime":0,"totalTime":81,"timedOut":false},"elevationMetadata":{"ellipsoidToGeoidDifference":-28.885904201182168,"geoidElevation":false}}