{"requestParameters":{"date":"2018/04/02","walkSpeed":"1.33","walkReluctance":"2.0","fromPlace":"48.401546,-71.062841","maxWalkDistance":"3000","waitReluctance":"1.0","carSpeed":"33","numItineraries":"3","waitAtBeginningFactor":"0.4","mode":"TRANSIT,WALK","ignoreRealtimeUpdates":"false","stairsReluctance":"2.0","toPlace":"48.395327,-71.071431","time":"19:5:00"},"plan":{"date":1522710300000,"from":{"name":"Origin","lon":-71.062841,"lat":48.401546,"orig":"","vertexType":"NORMAL"},"to":{"name":"Destination","lon":-71.071431,"lat":48.395327,"orig":"","vertexType":"NORMAL"},"itineraries":[{"duration":957,"startTime":1522710300000,"endTime":1522711257000,"walkTime":957,"transitTime":0,"waitingTime":0,"walkDistance":1250.392428569124,"walkLimitExceeded":false,"elevationLost":0.0,"elevationGained":0.0,"transfers":0,"legs":[{"startTime":1522710300000,"endTime":1522711257000,"departureDelay":0,"arrivalDelay":0,"realTime":false,"distance":1250.3210000000001,"pathway":false,"mode":"WALK","route":"","agencyTimeZoneOffset":-14400000,"interlineWithPreviousLeg":false,"from":{"name":"Origin","lon":-71.062841,"lat":48.401546,"departure":1522710300000,"orig":"","vertexType":"NORMAL"},"to":{"name":"Destination","lon":-71.071431,"lat":48.395327,"arrival":1522711257000,"orig":"","vertexType":"NORMAL"},"legGeometry":{"points":"wllfHrmvpL|AiEbC`Cn@v@t@`AhCfDLN`@h@fJnNLPlAbBjCpDHLbDbETX~DxENPuCrH","length":18},"rentedBike":false,"transitLeg":false,"duration":957.0,"steps":[{"distance":91.289,"relativeDirection":"DEPART","streetName":"road","absoluteDirection":"SOUTHEAST","stayOn":false,"area":false,"bogusName":false,"lon":-71.06281762883856,"lat":48.40156799878133,"elevation":[]},{"distance":1017.958,"relativeDirection":"RIGHT","streetName":"Boulevard Talbot","absoluteDirection":"SOUTHWEST","stayOn":false,"area":false,"bogusName":false,"lon":-71.06180710000001,"lat":48.4010948,"elevation":[]},{"distance":141.074,"relativeDirection":"RIGHT","streetName":"Boulevard Barrette","absoluteDirection":"NORTHWEST","stayOn":false,"area":false,"bogusName":false,"lon":-71.0705155,"lat":48.394010400000006,"elevation":[]}]}],"tooSloped":false},{"duration":527,"startTime":1522711855000,"endTime":1522712382000,"walkTime":387,"transitTime":138,"waitingTime":2,"walkDistance":498.4397969902613,"walkLimitExceeded":false,"elevationLost":0.0,"elevationGained":0.0,"transfers":0,"legs":[{"startTime":1522711855000,"endTime":1522712021000,"departureDelay":0,"arrivalDelay":0,"realTime":false,"distance":212.252,"pathway":false,"mode":"WALK","route":"","agencyTimeZoneOffset":-14400000,"interlineWithPreviousLeg":false,"from":{"name":"Origin","lon":-71.062841,"lat":48.401546,"departure":1522711855000,"orig":"","vertexType":"NORMAL"},"to":{"name":"boul. Talbot (no.1600) (mode Choc)","stopId":"1:86","stopCode":"86","lon":-71.06283,"lat":48.40025,"arrival":1522712021000,"departure":1522712022000,"zoneId":"NA","stopIndex":22,"stopSequence":23,"vertexType":"TRANSIT"},"legGeometry":{"points":"wllfHrmvpL|AiEbC`Cn@v@","length":4},"rentedBike":false,"transitLeg":false,"duration":166.0,"steps":[{"distance":91.289,"relativeDirection":"DEPART","streetName":"road","absoluteDirection":"SOUTHEAST","stayOn":false,"area":false,"bogusName":false,"lon":-71.06281762883856,"lat":48.40156799878133,"elevation":[]},{"distance":120.963,"relativeDirection":"RIGHT","streetName":"Boulevard Talbot","absoluteDirection":"SOUTHWEST","stayOn":false,"area":false,"bogusName":false,"lon":-71.06180710000001,"lat":48.4010948,"elevation":[]}]},{"startTime":1522712022000,"endTime":1522712160000,"departureDelay":0,"arrivalDelay":0,"realTime":false,"distance":751.8879345741611,"pathway":false,"mode":"BUS","route":"175","agencyName":"Société de Transport du Saguenay","agencyUrl":"http://ville.saguenay.ca/fr/services-aux-citoyens/transport-sts","agencyTimeZoneOffset":-14400000,"routeColor":"FF00FF","routeType":3,"routeId":"1:175","routeTextColor":"FFFFFF","interlineWithPreviousLeg":false,"tripBlockId":"7","headsign":"Costco","agencyId":"0","tripId":"1:217346","serviceDate":"20180402","from":{"name":"boul. Talbot (no.1600) (mode Choc)","stopId":"1:86","stopCode":"86","lon":-71.06283,"lat":48.40025,"arrival":1522712021000,"departure":1522712022000,"zoneId":"NA","stopIndex":22,"stopSequence":23,"vertexType":"TRANSIT"},"to":{"name":"boul. Talbot (no. 1870)","stopId":"1:1556","stopCode":"1556","lon":-71.069429,"lat":48.3951,"arrival":1522712160000,"departure":1522712161000,"zoneId":"NA","stopIndex":24,"stopSequence":25,"vertexType":"TRANSIT"},"legGeometry":{"points":"gdlfH`mvpLrAvAbCfDjIfMdAzAfFpHd@n@nC`D","length":8},"routeShortName":"175","routeLongName":"Term. Chic / Costco","rentedBike":false,"transitLeg":true,"duration":138.0,"steps":[]},{"startTime":1522712161000,"endTime":1522712382000,"departureDelay":0,"arrivalDelay":0,"realTime":false,"distance":286.119,"pathway":false,"mode":"WALK","route":"","agencyTimeZoneOffset":-14400000,"interlineWithPreviousLeg":false,"from":{"name":"boul. Talbot (no. 1870)","stopId":"1:1556","stopCode":"1556","lon":-71.069429,"lat":48.3951,"arrival":1522712160000,"departure":1522712161000,"zoneId":"NA","stopIndex":24,"stopSequence":25,"vertexType":"TRANSIT"},"to":{"name":"Destination","lon":-71.071431,"lat":48.395327,"arrival":1522712382000,"orig":"","vertexType":"NORMAL"},"legGeometry":{"points":"adkfHjvwpL~DxENPuCrH","length":4},"rentedBike":false,"transitLeg":false,"duration":221.0,"steps":[{"distance":145.045,"relativeDirection":"DEPART","streetName":"Boulevard Talbot","absoluteDirection":"SOUTHWEST","stayOn":false,"area":false,"bogusName":false,"lon":-71.0693341574882,"lat":48.39505259726926,"elevation":[]},{"distance":141.074,"relativeDirection":"RIGHT","streetName":"Boulevard Barrette","absoluteDirection":"NORTHWEST","stayOn":false,"area":false,"bogusName":false,"lon":-71.0705155,"lat":48.394010400000006,"elevation":[]}]}],"tooSloped":false},{"duration":768,"startTime":1522711825000,"endTime":1522712593000,"walkTime":384,"transitTime":382,"waitingTime":2,"walkDistance":495.15093984717373,"walkLimitExceeded":false,"elevationLost":0.0,"elevationGained":0.0,"transfers":0,"legs":[{"startTime":1522711825000,"endTime":1522712158000,"departureDelay":0,"arrivalDelay":0,"realTime":false,"distance":427.468,"pathway":false,"mode":"WALK","route":"","agencyTimeZoneOffset":-14400000,"interlineWithPreviousLeg":false,"from":{"name":"Origin","lon":-71.062841,"lat":48.401546,"departure":1522711825000,"orig":"","vertexType":"NORMAL"},"to":{"name":"Saguenéens  / Bach","stopId":"1:575","stopCode":"575","lon":-71.061104,"lat":48.403689,"arrival":1522712158000,"departure":1522712159000,"zoneId":"NA","stopIndex":23,"stopSequence":24,"vertexType":"TRANSIT"},"legGeometry":{"points":"wllfHrmvpLa@fA_AhCi@g@u@k@c@USS_DgCW]K_@EUGSGKSSfAoC","length":15},"rentedBike":false,"transitLeg":false,"duration":333.0,"steps":[{"distance":94.395,"relativeDirection":"DEPART","streetName":"road","absoluteDirection":"NORTHWEST","stayOn":false,"area":false,"bogusName":false,"lon":-71.06281762883856,"lat":48.40156799878133,"elevation":[]},{"distance":266.117,"relativeDirection":"RIGHT","streetName":"Rue Bach","absoluteDirection":"NORTHEAST","stayOn":false,"area":false,"bogusName":false,"lon":-71.06386160000001,"lat":48.402058200000006,"elevation":[]},{"distance":66.956,"relativeDirection":"RIGHT","streetName":"Rue des Saguenéens","absoluteDirection":"SOUTHEAST","stayOn":false,"area":false,"bogusName":false,"lon":-71.06187870000001,"lat":48.404006700000004,"elevation":[]}]},{"startTime":1522712159000,"endTime":1522712520000,"departureDelay":0,"arrivalDelay":0,"realTime":false,"distance":3436.0046196032185,"pathway":false,"mode":"BUS","route":"15","agencyName":"Société de Transport du Saguenay","agencyUrl":"http://ville.saguenay.ca/fr/services-aux-citoyens/transport-sts","agencyTimeZoneOffset":-14400000,"routeColor":"FF00FF","routeType":3,"routeId":"1:15","routeTextColor":"FFFFFF","interlineWithPreviousLeg":false,"tripBlockId":"33","headsign":"Talbot / Barrette","agencyId":"0","tripId":"1:218197","serviceDate":"20180402","from":{"name":"Saguenéens  / Bach","stopId":"1:575","stopCode":"575","lon":-71.061104,"lat":48.403689,"arrival":1522712158000,"departure":1522712159000,"zoneId":"NA","stopIndex":23,"stopSequence":24,"vertexType":"TRANSIT"},"to":{"name":"Roitelets / Sapins","stopId":"1:1543","stopCode":"1543","lon":-71.069553,"lat":48.393375,"arrival":1522712520000,"departure":1522712520000,"zoneId":"NA","stopIndex":35,"stopSequence":36,"vertexType":"TRANSIT"},"legGeometry":{"points":"ezlfHvbvpLtC{FnBoLbCaO?qLa@uJzF`ApF~@~@PzAgEeDcBf@qAWcKUqEx@Ef@ExDVjDxAFBrBvAfGjG@BjCzC~DxC@@zA~Cb@fCJlC?BsBre@?DWbOAn@?nEGnM@H\\hCzA~ELvAAlAi@jDo@nB","length":42},"routeShortName":"15","routeLongName":"Term. Chic / Costco","rentedBike":false,"transitLeg":true,"duration":361.0,"steps":[]},{"startTime":1522712520000,"endTime":1522712541000,"departureDelay":0,"arrivalDelay":0,"realTime":false,"distance":307.4152455172333,"pathway":false,"mode":"BUS","route":"14","agencyName":"Société de Transport du Saguenay","agencyUrl":"http://ville.saguenay.ca/fr/services-aux-citoyens/transport-sts","agencyTimeZoneOffset":-14400000,"routeColor":"C0C000","routeType":3,"routeId":"1:14","routeTextColor":"000000","interlineWithPreviousLeg":true,"tripBlockId":"33","headsign":"Terminus Chicoutimi","agencyId":"0","tripId":"1:218198","serviceDate":"20180402","from":{"name":"Roitelets / Sapins","stopId":"1:1513","stopCode":"1513","lon":-71.069396,"lat":48.393523,"arrival":1522712520000,"departure":1522712520000,"zoneId":"NA","stopIndex":0,"stopSequence":1,"vertexType":"TRANSIT"},"to":{"name":"Familiprix du boul. Barrette","stopId":"1:1931","stopCode":"1931","lon":-71.072721,"lat":48.395187,"arrival":1522712541000,"departure":1522712542000,"zoneId":"NA","stopIndex":1,"stopSequence":2,"vertexType":"TRANSIT"},"legGeometry":{"points":"azjfHfwwpLiEfLuBzF","length":3},"routeShortName":"14","routeLongName":"Coopérative","rentedBike":false,"transitLeg":true,"duration":21.0,"steps":[]},{"startTime":1522712542000,"endTime":1522712593000,"departureDelay":0,"arrivalDelay":0,"realTime":false,"distance":67.607,"pathway":false,"mode":"WALK","route":"","agencyTimeZoneOffset":-14400000,"interlineWithPreviousLeg":false,"from":{"name":"Familiprix du boul. Barrette","stopId":"1:1931","stopCode":"1931","lon":-71.072721,"lat":48.395187,"arrival":1522712541000,"departure":1522712542000,"zoneId":"NA","stopIndex":1,"stopSequence":2,"vertexType":"TRANSIT"},"to":{"name":"Destination","lon":-71.071431,"lat":48.395327,"arrival":1522712593000,"orig":"","vertexType":"NORMAL"},"legGeometry":{"points":"odkfH~kxpLfAsC","length":2},"rentedBike":false,"transitLeg":false,"duration":51.0,"steps":[{"distance":67.607,"relativeDirection":"DEPART","streetName":"Boulevard Barrette","absoluteDirection":"SOUTHEAST","stayOn":false,"area":false,"bogusName":false,"lon":-71.07279494685812,"lat":48.39512002794624,"elevation":[]}]}],"tooSloped":false}]},"debugOutput":{"precalculationTime":30,"pathCalculationTime":28,"pathTimes":[19,5,4],"renderingTime":0,"totalTime":58,"timedOut":false},"elevationMetadata":{"ellipsoidToGeoidDifference":-28.885904201182168,"geoidElevation":false}}