{"requestParameters":{"date":"2018/04/02","walkSpeed":"1.33","walkReluctance":"2.0","fromPlace":"48.395327,-71.071431","maxWalkDistance":"3000","waitReluctance":"1.0","carSpeed":"33","numItineraries":"3","waitAtBeginningFactor":"0.4","mode":"TRANSIT,WALK","ignoreRealtimeUpdates":"false","stairsReluctance":"2.0","toPlace":"48.394631,-71.073569","time":"19:35:00"},"plan":{"date":1522712100000,"from":{"name":"Origin","lon":-71.071431,"lat":48.395327,"orig":"","vertexType":"NORMAL"},"to":{"name":"Destination","lon":-71.073569,"lat":48.394631,"orig":"","vertexType":"NORMAL"},"itineraries":[{"duration":294,"startTime":1522712100000,"endTime":1522712394000,"walkTime":294,"transitTime":0,"waitingTime":0,"walkDistance":378.32516541139887,"walkLimitExceeded":false,"elevationLost":0.0,"elevationGained":0.0,"transfers":0,"legs":[{"startTime":1522712100000,"endTime":1522712394000,"departureDelay":0,"arrivalDelay":0,"realTime":false,"distance":378.25899999999996,"pathway":false,"mode":"WALK","route":"","agencyTimeZoneOffset":-14400000,"interlineWithPreviousLeg":false,"from":{"name":"Origin","lon":-71.071431,"lat":48.395327,"departure":1522712100000,"orig":"","vertexType":"NORMAL"},"to":{"name":"Destination","lon":-71.073569,"lat":48.394631,"arrival":1522712394000,"orig":"","vertexType":"NORMAL"},"legGeometry":{"points":"gbkfHjgxpLtCsHNN?H?PuCvH{@bCOb@","length":8},"rentedBike":false,"transitLeg":false,"duration":294.0,"steps":[{"distance":141.074,"relativeDirection":"DEPART","streetName":"Boulevard Barrette","absoluteDirection":"SOUTHEAST","stayOn":false,"area":false,"bogusName":false,"lon":-71.07205646209651,"lat":48.39476053576223,"elevation":[]},{"distance":10.224,"relativeDirection":"RIGHT","streetName":"Boulevard Talbot","absoluteDirection":"SOUTHWEST","stayOn":false,"area":false,"bogusName":false,"lon":-71.0705155,"lat":48.394010400000006,"elevation":[]},{"distance":226.96099999999998,"relativeDirection":"RIGHT","streetName":"bike path","absoluteDirection":"WEST","stayOn":false,"area":false,"bogusName":true,"lon":-71.0705975,"lat":48.3939363,"elevation":[]}]}],"tooSloped":false}]},"debugOutput":{"precalculationTime":23,"pathCalculationTime":15,"pathTimes":[3,9,3],"renderingTime":1,"totalTime":39,"timedOut":false},"elevationMetadata":{"ellipsoidToGeoidDifference":-28.885904201182168,"geoidElevation":false}}