{"requestParameters":{"date":"2018/04/02","walkSpeed":"1.33","walkReluctance":"2.0","fromPlace":"48.405981,-71.06754399","maxWalkDistance":"3000","waitReluctance":"1.0","carSpeed":"33","numItineraries":"3","waitAtBeginningFactor":"0.4","mode":"TRANSIT,WALK","ignoreRealtimeUpdates":"false","stairsReluctance":"2.0","toPlace":"48.414304,-71.069676","time":"11:45:00"},"plan":{"date":1522683900000,"from":{"name":"Origin","lon":-71.06754399,"lat":48.405981,"orig":"","vertexType":"NORMAL"},"to":{"name":"Destination","lon":-71.069676,"lat":48.414304,"orig":"","vertexType":"NORMAL"},"itineraries":[{"duration":880,"startTime":1522683900000,"endTime":1522684780000,"walkTime":880,"transitTime":0,"waitingTime":0,"walkDistance":1130.6534661610103,"walkLimitExceeded":false,"elevationLost":0.0,"elevationGained":0.0,"transfers":0,"legs":[{"startTime":1522683900000,"endTime":1522684780000,"departureDelay":0,"arrivalDelay":0,"realTime":false,"distance":1130.517,"pathway":false,"mode":"WALK","route":"","agencyTimeZoneOffset":-14400000,"interlineWithPreviousLeg":false,"from":{"name":"Origin","lon":-71.06754399,"lat":48.405981,"departure":1522683900000,"orig":"","vertexType":"NORMAL"},"to":{"name":"Destination","lon":-71.069676,"lat":48.414304,"arrival":1522684780000,"orig":"","vertexType":"NORMAL"},"legGeometry":{"points":"aimfHtmwpLyBoAsBcCELQ`@??aD`IKZSO]CGAo@HqBFi@?uBJi@?SAa@UkA{@A?m@e@w@Yw@E{CGK?MUs@m@{@u@UIIP}AhEi@xAc@jATd@","length":34},"rentedBike":false,"transitLeg":false,"duration":880.0,"steps":[{"distance":73.735,"relativeDirection":"DEPART","streetName":"Rue Jean Bourdon","absoluteDirection":"NORTHEAST","stayOn":false,"area":false,"bogusName":false,"lon":-71.06794446417851,"lat":48.406097721411676,"elevation":[]},{"distance":80.88,"relativeDirection":"CONTINUE","streetName":"path","absoluteDirection":"NORTHEAST","stayOn":false,"area":false,"bogusName":true,"lon":-71.0675429,"lat":48.4067049,"elevation":[]},{"distance":183.173,"relativeDirection":"LEFT","streetName":"Rue des Saguenéens","absoluteDirection":"NORTHWEST","stayOn":false,"area":false,"bogusName":false,"lon":-71.0668891,"lat":48.4072886,"elevation":[]},{"distance":503.3069999999999,"relativeDirection":"RIGHT","streetName":"Rue Bégin","absoluteDirection":"NORTHEAST","stayOn":false,"area":false,"bogusName":false,"lon":-71.0688714,"lat":48.4082796,"elevation":[]},{"distance":96.293,"relativeDirection":"RIGHT","streetName":"Rue Bégin","absoluteDirection":"NORTHEAST","stayOn":true,"area":false,"bogusName":false,"lon":-71.0681022,"lat":48.4126786,"elevation":[]},{"distance":174.902,"relativeDirection":"LEFT","streetName":"Rue Des Oblats Est","absoluteDirection":"NORTHWEST","stayOn":false,"area":false,"bogusName":false,"lon":-71.06744280000001,"lat":48.413416500000004,"elevation":[]},{"distance":18.227,"relativeDirection":"LEFT","streetName":"Rue Jolliet","absoluteDirection":"SOUTHWEST","stayOn":false,"area":false,"bogusName":false,"lon":-71.0693767,"lat":48.414325600000005,"elevation":[]}]}],"tooSloped":false},{"duration":643,"startTime":1522684138000,"endTime":1522684781000,"walkTime":333,"transitTime":308,"waitingTime":2,"walkDistance":422.04399999677327,"walkLimitExceeded":false,"elevationLost":0.0,"elevationGained":0.0,"transfers":0,"legs":[{"startTime":1522684138000,"endTime":1522684278000,"departureDelay":0,"arrivalDelay":0,"realTime":false,"distance":176.593,"pathway":false,"mode":"WALK","route":"","agencyTimeZoneOffset":-14400000,"interlineWithPreviousLeg":false,"from":{"name":"Origin","lon":-71.06754399,"lat":48.405981,"departure":1522684138000,"orig":"","vertexType":"NORMAL"},"to":{"name":"Saguenéens (no. 129)","stopId":"1:2000","stopCode":"2000","lon":-71.067064,"lat":48.407463,"arrival":1522684278000,"departure":1522684279000,"zoneId":"NA","stopIndex":16,"stopSequence":17,"vertexType":"TRANSIT"},"legGeometry":{"points":"aimfHtmwpLyBoAsBcCELQ`@","length":5},"rentedBike":false,"transitLeg":false,"duration":140.0,"steps":[{"distance":73.735,"relativeDirection":"DEPART","streetName":"Rue Jean Bourdon","absoluteDirection":"NORTHEAST","stayOn":false,"area":false,"bogusName":false,"lon":-71.06794446417851,"lat":48.406097721411676,"elevation":[]},{"distance":80.88,"relativeDirection":"CONTINUE","streetName":"path","absoluteDirection":"NORTHEAST","stayOn":false,"area":false,"bogusName":true,"lon":-71.0675429,"lat":48.4067049,"elevation":[]},{"distance":21.978,"relativeDirection":"LEFT","streetName":"Rue des Saguenéens","absoluteDirection":"NORTHWEST","stayOn":false,"area":false,"bogusName":false,"lon":-71.0668891,"lat":48.4072886,"elevation":[]}]},{"startTime":1522684279000,"endTime":1522684587000,"departureDelay":0,"arrivalDelay":0,"realTime":false,"distance":1677.881246741078,"pathway":false,"mode":"BUS","route":"15","agencyName":"Société de Transport du Saguenay","agencyUrl":"http://ville.saguenay.ca/fr/services-aux-citoyens/transport-sts","agencyTimeZoneOffset":-14400000,"routeColor":"FF00FF","routeType":3,"routeId":"1:15","routeTextColor":"FFFFFF","interlineWithPreviousLeg":false,"tripBlockId":"32","headsign":"Terminus Chicoutimi","agencyId":"0","tripId":"1:218157","serviceDate":"20180402","from":{"name":"Saguenéens (no. 129)","stopId":"1:2000","stopCode":"2000","lon":-71.067064,"lat":48.407463,"arrival":1522684278000,"departure":1522684279000,"zoneId":"NA","stopIndex":16,"stopSequence":17,"vertexType":"TRANSIT"},"to":{"name":"École secondaire de l'Odyssé Dominique-Racine","stopId":"1:580","stopCode":"580","lon":-71.067703,"lat":48.412977,"arrival":1522684587000,"departure":1522684588000,"zoneId":"NA","stopIndex":24,"stopSequence":25,"vertexType":"TRANSIT"},"legGeometry":{"points":"eqmfHrhwpL_CfGYVQXS\\dK|HlFZbC\\p@zA\\rB@hBiArG{BNw@FiG}@iDwAECcCcBo@y@sEeGe@o@qAa@m@MoB?C@}BZwAc@oA_Bs@gDCKZ{Di@QECc@_@","length":34},"routeShortName":"15","routeLongName":"Term. Chic / Costco","rentedBike":false,"transitLeg":true,"duration":308.0,"steps":[]},{"startTime":1522684588000,"endTime":1522684781000,"departureDelay":0,"arrivalDelay":0,"realTime":false,"distance":245.35100000000003,"pathway":false,"mode":"WALK","route":"","agencyTimeZoneOffset":-14400000,"interlineWithPreviousLeg":false,"from":{"name":"École secondaire de l'Odyssé Dominique-Racine","stopId":"1:580","stopCode":"580","lon":-71.067703,"lat":48.412977,"arrival":1522684587000,"departure":1522684588000,"zoneId":"NA","stopIndex":24,"stopSequence":25,"vertexType":"TRANSIT"},"to":{"name":"Destination","lon":-71.069676,"lat":48.414304,"arrival":1522684781000,"orig":"","vertexType":"NORMAL"},"legGeometry":{"points":"gtnfHplwpL{@u@UIIP}AhEi@xAc@jATd@","length":8},"rentedBike":false,"transitLeg":false,"duration":193.0,"steps":[{"distance":52.222,"relativeDirection":"DEPART","streetName":"Rue Bégin","absoluteDirection":"NORTHEAST","stayOn":false,"area":false,"bogusName":false,"lon":-71.06776357747735,"lat":48.41300064951352,"elevation":[]},{"distance":174.902,"relativeDirection":"LEFT","streetName":"Rue Des Oblats Est","absoluteDirection":"NORTHWEST","stayOn":false,"area":false,"bogusName":false,"lon":-71.06744280000001,"lat":48.413416500000004,"elevation":[]},{"distance":18.227,"relativeDirection":"LEFT","streetName":"Rue Jolliet","absoluteDirection":"SOUTHWEST","stayOn":false,"area":false,"bogusName":false,"lon":-71.0693767,"lat":48.414325600000005,"elevation":[]}]}],"tooSloped":false},{"duration":643,"startTime":1522685938000,"endTime":1522686581000,"walkTime":333,"transitTime":308,"waitingTime":2,"walkDistance":422.04399999677327,"walkLimitExceeded":false,"elevationLost":0.0,"elevationGained":0.0,"transfers":0,"legs":[{"startTime":1522685938000,"endTime":1522686078000,"departureDelay":0,"arrivalDelay":0,"realTime":false,"distance":176.593,"pathway":false,"mode":"WALK","route":"","agencyTimeZoneOffset":-14400000,"interlineWithPreviousLeg":false,"from":{"name":"Origin","lon":-71.06754399,"lat":48.405981,"departure":1522685938000,"orig":"","vertexType":"NORMAL"},"to":{"name":"Saguenéens (no. 129)","stopId":"1:2000","stopCode":"2000","lon":-71.067064,"lat":48.407463,"arrival":1522686078000,"departure":1522686079000,"zoneId":"NA","stopIndex":16,"stopSequence":17,"vertexType":"TRANSIT"},"legGeometry":{"points":"aimfHtmwpLyBoAsBcCELQ`@","length":5},"rentedBike":false,"transitLeg":false,"duration":140.0,"steps":[{"distance":73.735,"relativeDirection":"DEPART","streetName":"Rue Jean Bourdon","absoluteDirection":"NORTHEAST","stayOn":false,"area":false,"bogusName":false,"lon":-71.06794446417851,"lat":48.406097721411676,"elevation":[]},{"distance":80.88,"relativeDirection":"CONTINUE","streetName":"path","absoluteDirection":"NORTHEAST","stayOn":false,"area":false,"bogusName":true,"lon":-71.0675429,"lat":48.4067049,"elevation":[]},{"distance":21.978,"relativeDirection":"LEFT","streetName":"Rue des Saguenéens","absoluteDirection":"NORTHWEST","stayOn":false,"area":false,"bogusName":false,"lon":-71.0668891,"lat":48.4072886,"elevation":[]}]},{"startTime":1522686079000,"endTime":1522686387000,"departureDelay":0,"arrivalDelay":0,"realTime":false,"distance":1677.881246741078,"pathway":false,"mode":"BUS","route":"15","agencyName":"Société de Transport du Saguenay","agencyUrl":"http://ville.saguenay.ca/fr/services-aux-citoyens/transport-sts","agencyTimeZoneOffset":-14400000,"routeColor":"FF00FF","routeType":3,"routeId":"1:15","routeTextColor":"FFFFFF","interlineWithPreviousLeg":false,"tripBlockId":"30","headsign":"Terminus Chicoutimi","agencyId":"0","tripId":"1:218098","serviceDate":"20180402","from":{"name":"Saguenéens (no. 129)","stopId":"1:2000","stopCode":"2000","lon":-71.067064,"lat":48.407463,"arrival":1522686078000,"departure":1522686079000,"zoneId":"NA","stopIndex":16,"stopSequence":17,"vertexType":"TRANSIT"},"to":{"name":"École secondaire de l'Odyssé Dominique-Racine","stopId":"1:580","stopCode":"580","lon":-71.067703,"lat":48.412977,"arrival":1522686387000,"departure":1522686388000,"zoneId":"NA","stopIndex":24,"stopSequence":25,"vertexType":"TRANSIT"},"legGeometry":{"points":"eqmfHrhwpL_CfGYVQXS\\dK|HlFZbC\\p@zA\\rB@hBiArG{BNw@FiG}@iDwAECcCcBo@y@sEeGe@o@qAa@m@MoB?C@}BZwAc@oA_Bs@gDCKZ{Di@QECc@_@","length":34},"routeShortName":"15","routeLongName":"Term. Chic / Costco","rentedBike":false,"transitLeg":true,"duration":308.0,"steps":[]},{"startTime":1522686388000,"endTime":1522686581000,"departureDelay":0,"arrivalDelay":0,"realTime":false,"distance":245.35100000000003,"pathway":false,"mode":"WALK","route":"","agencyTimeZoneOffset":-14400000,"interlineWithPreviousLeg":false,"from":{"name":"École secondaire de l'Odyssé Dominique-Racine","stopId":"1:580","stopCode":"580","lon":-71.067703,"lat":48.412977,"arrival":1522686387000,"departure":1522686388000,"zoneId":"NA","stopIndex":24,"stopSequence":25,"vertexType":"TRANSIT"},"to":{"name":"Destination","lon":-71.069676,"lat":48.414304,"arrival":1522686581000,"orig":"","vertexType":"NORMAL"},"legGeometry":{"points":"gtnfHplwpL{@u@UIIP}AhEi@xAc@jATd@","length":8},"rentedBike":false,"transitLeg":false,"duration":193.0,"steps":[{"distance":52.222,"relativeDirection":"DEPART","streetName":"Rue Bégin","absoluteDirection":"NORTHEAST","stayOn":false,"area":false,"bogusName":false,"lon":-71.06776357747735,"lat":48.41300064951352,"elevation":[]},{"distance":174.902,"relativeDirection":"LEFT","streetName":"Rue Des Oblats Est","absoluteDirection":"NORTHWEST","stayOn":false,"area":false,"bogusName":false,"lon":-71.06744280000001,"lat":48.413416500000004,"elevation":[]},{"distance":18.227,"relativeDirection":"LEFT","streetName":"Rue Jolliet","absoluteDirection":"SOUTHWEST","stayOn":false,"area":false,"bogusName":false,"lon":-71.0693767,"lat":48.414325600000005,"elevation":[]}]}],"tooSloped":false}]},"debugOutput":{"precalculationTime":46,"pathCalculationTime":20,"pathTimes":[13,3,4],"renderingTime":0,"totalTime":66,"timedOut":false},"elevationMetadata":{"ellipsoidToGeoidDifference":-28.885904201182168,"geoidElevation":false}}