{"requestParameters":{"date":"2018/04/02","walkSpeed":"1.33","walkReluctance":"2.0","fromPlace":"48.38959,-71.113168","maxWalkDistance":"3000","waitReluctance":"1.0","carSpeed":"33","numItineraries":"3","waitAtBeginningFactor":"0.4","mode":"TRANSIT,WALK","ignoreRealtimeUpdates":"false","stairsReluctance":"2.0","toPlace":"48.403893,-71.096865","time":"11:50:00"},"plan":{"date":1522684200000,"from":{"name":"Origin","lon":-71.113168,"lat":48.38959,"orig":"","vertexType":"NORMAL"},"to":{"name":"Destination","lon":-71.096865,"lat":48.403893,"orig":"","vertexType":"NORMAL"},"itineraries":[{"duration":1548,"startTime":1522684200000,"endTime":1522685748000,"walkTime":1548,"transitTime":0,"waitingTime":0,"walkDistance":2008.8984962390373,"walkLimitExceeded":false,"elevationLost":0.0,"elevationGained":0.0,"transfers":0,"legs":[{"startTime":1522684200000,"endTime":1522685748000,"departureDelay":0,"arrivalDelay":0,"realTime":false,"distance":2008.8500000000001,"pathway":false,"mode":"WALK","route":"","agencyTimeZoneOffset":-14400000,"interlineWithPreviousLeg":false,"from":{"name":"Origin","lon":-71.113168,"lat":48.38959,"departure":1522684200000,"orig":"","vertexType":"NORMAL"},"to":{"name":"Destination","lon":-71.096865,"lat":48.403893,"arrival":1522685748000,"orig":"","vertexType":"NORMAL"},"legGeometry":{"points":"wajfH|g`qL}ByBk@g@eBaBwCmDIKeAsAu@eAsD}EeCaDaAoAMMKOmAwA}C_DUI}CoD{@cAaCiC_@a@w@_ACECCkBsBIKSWgFaGCEQSOQe@i@GGyAeBwAcBiAoAg@m@MOwAaBIKg@k@_AeA{@eAg@i@cAkAqA_BRi@","length":46},"rentedBike":false,"transitLeg":false,"duration":1548.0,"steps":[{"distance":1990.1940000000002,"relativeDirection":"DEPART","streetName":"Boulevard Saint-Paul","absoluteDirection":"NORTHEAST","stayOn":false,"area":false,"bogusName":false,"lon":-71.11310662030074,"lat":48.389563760142984,"elevation":[]},{"distance":18.656,"relativeDirection":"RIGHT","streetName":"Boulevard Barrette","absoluteDirection":"SOUTHEAST","stayOn":false,"area":false,"bogusName":false,"lon":-71.0971116,"lat":48.4039529,"elevation":[]}]}],"tooSloped":false},{"duration":1023,"startTime":1522685555000,"endTime":1522686578000,"walkTime":177,"transitTime":844,"waitingTime":2,"walkDistance":230.80937593983748,"walkLimitExceeded":false,"elevationLost":0.0,"elevationGained":0.0,"transfers":0,"legs":[{"startTime":1522685555000,"endTime":1522685640000,"departureDelay":0,"arrivalDelay":0,"realTime":false,"distance":111.81099999999999,"pathway":false,"mode":"WALK","route":"","agencyTimeZoneOffset":-14400000,"interlineWithPreviousLeg":false,"from":{"name":"Origin","lon":-71.113168,"lat":48.38959,"departure":1522685555000,"orig":"","vertexType":"NORMAL"},"to":{"name":"boul. St-Paul / Blériot","stopId":"1:36","stopCode":"36","lon":-71.112219,"lat":48.390381,"arrival":1522685640000,"departure":1522685641000,"zoneId":"NA","stopIndex":5,"stopSequence":6,"vertexType":"TRANSIT"},"legGeometry":{"points":"wajfH|g`qL}ByBk@g@","length":3},"rentedBike":false,"transitLeg":false,"duration":85.0,"steps":[{"distance":111.81099999999999,"relativeDirection":"DEPART","streetName":"Boulevard Saint-Paul","absoluteDirection":"NORTHEAST","stayOn":false,"area":false,"bogusName":false,"lon":-71.11310662030074,"lat":48.389563760142984,"elevation":[]}]},{"startTime":1522685641000,"endTime":1522686485000,"departureDelay":0,"arrivalDelay":0,"realTime":false,"distance":2909.86890503791,"pathway":false,"mode":"BUS","route":"11","agencyName":"Société de Transport du Saguenay","agencyUrl":"http://ville.saguenay.ca/fr/services-aux-citoyens/transport-sts","agencyTimeZoneOffset":-14400000,"routeColor":"FF0000","routeType":3,"routeId":"1:11","routeTextColor":"FFFFFF","interlineWithPreviousLeg":false,"tripBlockId":"35","headsign":"Terminus Chicoutimi","agencyId":"0","tripId":"1:218253","serviceDate":"20180402","from":{"name":"boul. St-Paul / Blériot","stopId":"1:36","stopCode":"36","lon":-71.112219,"lat":48.390381,"arrival":1522685640000,"departure":1522685641000,"zoneId":"NA","stopIndex":5,"stopSequence":6,"vertexType":"TRANSIT"},"to":{"name":"boul. Barrette / Estacade","stopId":"1:478","stopCode":"478","lon":-71.098119,"lat":48.404568,"arrival":1522686485000,"departure":1522686486000,"zoneId":"NA","stopIndex":12,"stopSequence":13,"vertexType":"TRANSIT"},"legGeometry":{"points":"cgjfH~b`qLKIsFyFMQ}AuBuCgEmGaISV[|@Qj@K`@AFSlAYvBc@nCi@lCyE`T}@dEoLxh@GLIHI@KAgN{IhHu[p@aCjDyJfQie@`AmCJ[kXi[gKsLqMgOmAbDAVSl@","length":36},"routeShortName":"11","routeLongName":"Chic/Faubourg via St-Paul","rentedBike":false,"transitLeg":true,"duration":844.0,"steps":[]},{"startTime":1522686486000,"endTime":1522686578000,"departureDelay":0,"arrivalDelay":0,"realTime":false,"distance":118.99799999999999,"pathway":false,"mode":"WALK","route":"","agencyTimeZoneOffset":-14400000,"interlineWithPreviousLeg":false,"from":{"name":"boul. Barrette / Estacade","stopId":"1:478","stopCode":"478","lon":-71.098119,"lat":48.404568,"arrival":1522686485000,"departure":1522686486000,"zoneId":"NA","stopIndex":12,"stopSequence":13,"vertexType":"TRANSIT"},"to":{"name":"Destination","lon":-71.096865,"lat":48.403893,"arrival":1522686578000,"orig":"","vertexType":"NORMAL"},"legGeometry":{"points":"__mfHzj}pLhB{ERi@","length":3},"rentedBike":false,"transitLeg":false,"duration":92.0,"steps":[{"distance":118.99799999999999,"relativeDirection":"DEPART","streetName":"Boulevard Barrette","absoluteDirection":"SOUTHEAST","stayOn":false,"area":false,"bogusName":false,"lon":-71.09821286252294,"lat":48.40448187965961,"elevation":[]}]}],"tooSloped":false},{"duration":1023,"startTime":1522687355000,"endTime":1522688378000,"walkTime":177,"transitTime":844,"waitingTime":2,"walkDistance":230.80937593983748,"walkLimitExceeded":false,"elevationLost":0.0,"elevationGained":0.0,"transfers":0,"legs":[{"startTime":1522687355000,"endTime":1522687440000,"departureDelay":0,"arrivalDelay":0,"realTime":false,"distance":111.81099999999999,"pathway":false,"mode":"WALK","route":"","agencyTimeZoneOffset":-14400000,"interlineWithPreviousLeg":false,"from":{"name":"Origin","lon":-71.113168,"lat":48.38959,"departure":1522687355000,"orig":"","vertexType":"NORMAL"},"to":{"name":"boul. St-Paul / Blériot","stopId":"1:36","stopCode":"36","lon":-71.112219,"lat":48.390381,"arrival":1522687440000,"departure":1522687441000,"zoneId":"NA","stopIndex":5,"stopSequence":6,"vertexType":"TRANSIT"},"legGeometry":{"points":"wajfH|g`qL}ByBk@g@","length":3},"rentedBike":false,"transitLeg":false,"duration":85.0,"steps":[{"distance":111.81099999999999,"relativeDirection":"DEPART","streetName":"Boulevard Saint-Paul","absoluteDirection":"NORTHEAST","stayOn":false,"area":false,"bogusName":false,"lon":-71.11310662030074,"lat":48.389563760142984,"elevation":[]}]},{"startTime":1522687441000,"endTime":1522688285000,"departureDelay":0,"arrivalDelay":0,"realTime":false,"distance":2909.86890503791,"pathway":false,"mode":"BUS","route":"11","agencyName":"Société de Transport du Saguenay","agencyUrl":"http://ville.saguenay.ca/fr/services-aux-citoyens/transport-sts","agencyTimeZoneOffset":-14400000,"routeColor":"FF0000","routeType":3,"routeId":"1:11","routeTextColor":"FFFFFF","interlineWithPreviousLeg":false,"tripBlockId":"37","headsign":"Terminus Chicoutimi","agencyId":"0","tripId":"1:218315","serviceDate":"20180402","from":{"name":"boul. St-Paul / Blériot","stopId":"1:36","stopCode":"36","lon":-71.112219,"lat":48.390381,"arrival":1522687440000,"departure":1522687441000,"zoneId":"NA","stopIndex":5,"stopSequence":6,"vertexType":"TRANSIT"},"to":{"name":"boul. Barrette / Estacade","stopId":"1:478","stopCode":"478","lon":-71.098119,"lat":48.404568,"arrival":1522688285000,"departure":1522688286000,"zoneId":"NA","stopIndex":12,"stopSequence":13,"vertexType":"TRANSIT"},"legGeometry":{"points":"cgjfH~b`qLKIsFyFMQ}AuBuCgEmGaISV[|@Qj@K`@AFSlAYvBc@nCi@lCyE`T}@dEoLxh@GLIHI@KAgN{IhHu[p@aCjDyJfQie@`AmCJ[kXi[gKsLqMgOmAbDAVSl@","length":36},"routeShortName":"11","routeLongName":"Chic/Faubourg via St-Paul","rentedBike":false,"transitLeg":true,"duration":844.0,"steps":[]},{"startTime":1522688286000,"endTime":1522688378000,"departureDelay":0,"arrivalDelay":0,"realTime":false,"distance":118.99799999999999,"pathway":false,"mode":"WALK","route":"","agencyTimeZoneOffset":-14400000,"interlineWithPreviousLeg":false,"from":{"name":"boul. Barrette / Estacade","stopId":"1:478","stopCode":"478","lon":-71.098119,"lat":48.404568,"arrival":1522688285000,"departure":1522688286000,"zoneId":"NA","stopIndex":12,"stopSequence":13,"vertexType":"TRANSIT"},"to":{"name":"Destination","lon":-71.096865,"lat":48.403893,"arrival":1522688378000,"orig":"","vertexType":"NORMAL"},"legGeometry":{"points":"__mfHzj}pLhB{ERi@","length":3},"rentedBike":false,"transitLeg":false,"duration":92.0,"steps":[{"distance":118.99799999999999,"relativeDirection":"DEPART","streetName":"Boulevard Barrette","absoluteDirection":"SOUTHEAST","stayOn":false,"area":false,"bogusName":false,"lon":-71.09821286252294,"lat":48.40448187965961,"elevation":[]}]}],"tooSloped":false}]},"debugOutput":{"precalculationTime":8,"pathCalculationTime":13,"pathTimes":[4,4,5],"renderingTime":1,"totalTime":22,"timedOut":false},"elevationMetadata":{"ellipsoidToGeoidDifference":-28.885904201182168,"geoidElevation":false}}