{"requestParameters":{"date":"2018/04/02","walkSpeed":"1.33","walkReluctance":"2.0","fromPlace":"48.382684,-71.121015","maxWalkDistance":"3000","waitReluctance":"1.0","carSpeed":"33","numItineraries":"3","waitAtBeginningFactor":"0.4","mode":"TRANSIT,WALK","ignoreRealtimeUpdates":"false","stairsReluctance":"2.0","toPlace":"48.40001,-71.044398","time":"13:0:00"},"plan":{"date":1522688400000,"from":{"name":"Origin","lon":-71.121015,"lat":48.382684,"orig":"","vertexType":"NORMAL"},"to":{"name":"Destination","lon":-71.044398,"lat":48.40001,"orig":"","vertexType":"NORMAL"},"itineraries":[{"duration":5786,"startTime":1522688583000,"endTime":1522694369000,"walkTime":2877,"transitTime":2667,"waitingTime":242,"walkDistance":3751.3933909659436,"walkLimitExceeded":false,"elevationLost":0.0,"elevationGained":0.0,"transfers":1,"legs":[{"startTime":1522688583000,"endTime":1522689175000,"departureDelay":0,"arrivalDelay":0,"realTime":false,"distance":773.1320000000001,"pathway":false,"mode":"WALK","route":"","agencyTimeZoneOffset":-14400000,"interlineWithPreviousLeg":false,"from":{"name":"Origin","lon":-71.121015,"lat":48.382684,"departure":1522688583000,"orig":"","vertexType":"NORMAL"},"to":{"name":"boul. St-Paul (no. 2315)","stopId":"1:35","stopCode":"35","lon":-71.114414,"lat":48.388104,"arrival":1522689175000,"departure":1522689176000,"zoneId":"NA","stopIndex":4,"stopSequence":5,"vertexType":"TRANSIT"},"legGeometry":{"points":"{uhfHvvaqLuAaAi@]GEk@e@u@_BIQ}@wAmEqE_F_Fk@s@_DgEGGKKMc@oCiC","length":16},"rentedBike":false,"transitLeg":false,"duration":592.0,"steps":[{"distance":662.706,"relativeDirection":"DEPART","streetName":"Rue Saint-Paul","absoluteDirection":"NORTHEAST","stayOn":false,"area":false,"bogusName":false,"lon":-71.12059371416224,"lat":48.382543672798775,"elevation":[]},{"distance":110.426,"relativeDirection":"SLIGHTLY_RIGHT","streetName":"Boulevard Saint-Paul","absoluteDirection":"NORTHEAST","stayOn":false,"area":false,"bogusName":false,"lon":-71.1153551,"lat":48.3873406,"elevation":[]}]},{"startTime":1522689176000,"endTime":1522690860000,"departureDelay":0,"arrivalDelay":0,"realTime":false,"distance":7354.604512031245,"pathway":false,"mode":"BUS","route":"11","agencyName":"Société de Transport du Saguenay","agencyUrl":"http://ville.saguenay.ca/fr/services-aux-citoyens/transport-sts","agencyTimeZoneOffset":-14400000,"routeColor":"FF0000","routeType":3,"routeId":"1:11","routeTextColor":"FFFFFF","interlineWithPreviousLeg":false,"tripBlockId":"34","headsign":"Terminus Chicoutimi","agencyId":"0","tripId":"1:218220","serviceDate":"20180402","from":{"name":"boul. St-Paul (no. 2315)","stopId":"1:35","stopCode":"35","lon":-71.114414,"lat":48.388104,"arrival":1522689175000,"departure":1522689176000,"zoneId":"NA","stopIndex":4,"stopSequence":5,"vertexType":"TRANSIT"},"to":{"name":"Terminus Chicoutimi","stopId":"1:1289","stopCode":"1289","lon":-71.066163,"lat":48.428677,"arrival":1522690860000,"departure":1522691100000,"zoneId":"NA","stopIndex":30,"stopSequence":31,"vertexType":"TRANSIT"},"legGeometry":{"points":"yxifHpp`qLiMqLKIsFyFMQ}AuBuCgEmGaISV[|@Qj@K`@AFSlAYvBc@nCi@lCyE`T}@dEoLxh@GLIHI@KAgN{IhHu[p@aCjDyJfQie@`AmCJ[kXi[gKsLqMgOmAbDAVSl@y@vBeCuCoCaDkDuE_@g@{FwGOMnA}CnA_DJWu@iAW[S[yI{MmBqC{@wAQUw@gAsDiF_B_CQYa@cA[_AUy@YcBOgAYHu@\\M`@cAiBuAyBkHgL{C{E}AcCc@o@q@gAOWwCyCyGyG_IaIs@rBEHwAtDmBvEOd@[bBK~AIf@YHE@Q@O?OCI_@GMEKI_AB_A?Yo@IKCIEIIKOEKCKe@}BKs@CQAUE_A@yCFcDVsLDaCD_@kBKW?e@Q_BQNuEDuBXmNLgHmKm@}BW{AMCn@o@G??","length":127},"routeShortName":"11","routeLongName":"Chic/Faubourg via St-Paul","rentedBike":false,"transitLeg":true,"duration":1684.0,"steps":[]},{"startTime":1522691100000,"endTime":1522692083000,"departureDelay":0,"arrivalDelay":0,"realTime":false,"distance":6070.619475259282,"pathway":false,"mode":"BUS","route":"12","agencyName":"Société de Transport du Saguenay","agencyUrl":"http://ville.saguenay.ca/fr/services-aux-citoyens/transport-sts","agencyTimeZoneOffset":-14400000,"routeColor":"556B2F","routeType":3,"routeId":"1:12","routeTextColor":"FFFFFF","interlineWithPreviousLeg":false,"tripBlockId":"27","headsign":"Terminus UQAC","agencyId":"0","tripId":"1:218014","serviceDate":"20180402","from":{"name":"Terminus Chicoutimi","stopId":"1:1289","stopCode":"1289","lon":-71.066163,"lat":48.428677,"arrival":1522690860000,"departure":1522691100000,"zoneId":"NA","stopIndex":0,"stopSequence":1,"vertexType":"TRANSIT"},"to":{"name":"nouveau","stopId":"1:2297","stopCode":"2297","lon":-71.02468,"lat":48.413593,"arrival":1522692083000,"departure":1522692084000,"zoneId":"NA","stopIndex":25,"stopSequence":26,"vertexType":"TRANSIT"},"legGeometry":{"points":"evqfHpbwpLpFcj@IaKmFy^_DaZz@u]SeV}@aNs@gKToKd@gTnCyHkGuLqFqJ_DeFf@iIvGsKlIrH`JlH`EfDnOdIdGlGjL|BzBiLv@}L`b@fN","length":26},"routeShortName":"12","routeLongName":"Rivière du Moulin","rentedBike":false,"transitLeg":true,"duration":983.0,"steps":[]},{"startTime":1522692084000,"endTime":1522694369000,"departureDelay":0,"arrivalDelay":0,"realTime":false,"distance":2977.905,"pathway":false,"mode":"WALK","route":"","agencyTimeZoneOffset":-14400000,"interlineWithPreviousLeg":false,"from":{"name":"nouveau","stopId":"1:2297","stopCode":"2297","lon":-71.02468,"lat":48.413593,"arrival":1522692083000,"departure":1522692084000,"zoneId":"NA","stopIndex":25,"stopSequence":26,"vertexType":"TRANSIT"},"to":{"name":"Destination","lon":-71.044398,"lat":48.40001,"arrival":1522694369000,"orig":"","vertexType":"NORMAL"},"legGeometry":{"points":"axnfHb~npLTEp@Kj@tKxB|MHl@TrAf@xEB\\L`CDh@@^ZvEHpAx@Of@s@|A@b@Ov@B\\Kh@@|@Ot@e@XMRS^c@JeAZTFhBBVDpAu@^CDAFF\\JFNb@ZJFN?XRHTMRN^Rb@\\NdALFJj@Pf@?PE`@C~@Tf@RZ^ZPb@ZNZHP^Tb@Pl@Tr@|B`@p@d@z@b@bAhAL|Ap@jCd@DZBXOHo@?aADw@Pu@xByE\\eATOT@HP`@`CNnCElCRlBLjGx@`Aj@|@Rd@r@tAjClDn@bA@`AFbATr@v@Tf@QRO@A","length":98},"alerts":[{"alertHeaderText":"Unpaved surface"}],"rentedBike":false,"transitLeg":false,"duration":2285.0,"steps":[{"distance":40.223,"relativeDirection":"DEPART","streetName":"Boulevard du Saguenay Est","absoluteDirection":"SOUTH","stayOn":false,"area":false,"bogusName":false,"lon":-71.02449091813529,"lat":48.41361228978169,"elevation":[]},{"distance":674.7560000000001,"relativeDirection":"RIGHT","streetName":"Boulevard de l'Université","absoluteDirection":"WEST","stayOn":false,"area":false,"bogusName":false,"lon":-71.0244078,"lat":48.413254800000004,"elevation":[]},{"distance":62.209,"relativeDirection":"LEFT","streetName":"path","absoluteDirection":"SOUTH","stayOn":false,"area":false,"bogusName":true,"lon":-71.0332252,"lat":48.411744500000005,"elevation":[],"alerts":[{"alertHeaderText":"Unpaved surface"}]},{"distance":386.934,"relativeDirection":"RIGHT","streetName":"Sentier des Moulins","absoluteDirection":"SOUTH","stayOn":false,"area":false,"bogusName":false,"lon":-71.0328834,"lat":48.4112566,"elevation":[],"alerts":[{"alertHeaderText":"Unpaved surface"}]},{"distance":63.259,"relativeDirection":"RIGHT","streetName":"steps","absoluteDirection":"NORTH","stayOn":false,"area":false,"bogusName":true,"lon":-71.03298500000001,"lat":48.408708000000004,"elevation":[]},{"distance":1750.5240000000001,"relativeDirection":"LEFT","streetName":"path","absoluteDirection":"WEST","stayOn":true,"area":false,"bogusName":true,"lon":-71.0331419,"lat":48.4089727,"elevation":[]}]}],"tooSloped":false},{"duration":5786,"startTime":1522690383000,"endTime":1522696169000,"walkTime":2877,"transitTime":2667,"waitingTime":242,"walkDistance":3751.3933909659436,"walkLimitExceeded":false,"elevationLost":0.0,"elevationGained":0.0,"transfers":1,"legs":[{"startTime":1522690383000,"endTime":1522690975000,"departureDelay":0,"arrivalDelay":0,"realTime":false,"distance":773.1320000000001,"pathway":false,"mode":"WALK","route":"","agencyTimeZoneOffset":-14400000,"interlineWithPreviousLeg":false,"from":{"name":"Origin","lon":-71.121015,"lat":48.382684,"departure":1522690383000,"orig":"","vertexType":"NORMAL"},"to":{"name":"boul. St-Paul (no. 2315)","stopId":"1:35","stopCode":"35","lon":-71.114414,"lat":48.388104,"arrival":1522690975000,"departure":1522690976000,"zoneId":"NA","stopIndex":4,"stopSequence":5,"vertexType":"TRANSIT"},"legGeometry":{"points":"{uhfHvvaqLuAaAi@]GEk@e@u@_BIQ}@wAmEqE_F_Fk@s@_DgEGGKKMc@oCiC","length":16},"rentedBike":false,"transitLeg":false,"duration":592.0,"steps":[{"distance":662.706,"relativeDirection":"DEPART","streetName":"Rue Saint-Paul","absoluteDirection":"NORTHEAST","stayOn":false,"area":false,"bogusName":false,"lon":-71.12059371416224,"lat":48.382543672798775,"elevation":[]},{"distance":110.426,"relativeDirection":"SLIGHTLY_RIGHT","streetName":"Boulevard Saint-Paul","absoluteDirection":"NORTHEAST","stayOn":false,"area":false,"bogusName":false,"lon":-71.1153551,"lat":48.3873406,"elevation":[]}]},{"startTime":1522690976000,"endTime":1522692660000,"departureDelay":0,"arrivalDelay":0,"realTime":false,"distance":7354.604512031245,"pathway":false,"mode":"BUS","route":"11","agencyName":"Société de Transport du Saguenay","agencyUrl":"http://ville.saguenay.ca/fr/services-aux-citoyens/transport-sts","agencyTimeZoneOffset":-14400000,"routeColor":"FF0000","routeType":3,"routeId":"1:11","routeTextColor":"FFFFFF","interlineWithPreviousLeg":false,"tripBlockId":"36","headsign":"Terminus Chicoutimi","agencyId":"0","tripId":"1:218291","serviceDate":"20180402","from":{"name":"boul. St-Paul (no. 2315)","stopId":"1:35","stopCode":"35","lon":-71.114414,"lat":48.388104,"arrival":1522690975000,"departure":1522690976000,"zoneId":"NA","stopIndex":4,"stopSequence":5,"vertexType":"TRANSIT"},"to":{"name":"Terminus Chicoutimi","stopId":"1:1289","stopCode":"1289","lon":-71.066163,"lat":48.428677,"arrival":1522692660000,"departure":1522692900000,"zoneId":"NA","stopIndex":30,"stopSequence":31,"vertexType":"TRANSIT"},"legGeometry":{"points":"yxifHpp`qLiMqLKIsFyFMQ}AuBuCgEmGaISV[|@Qj@K`@AFSlAYvBc@nCi@lCyE`T}@dEoLxh@GLIHI@KAgN{IhHu[p@aCjDyJfQie@`AmCJ[kXi[gKsLqMgOmAbDAVSl@y@vBeCuCoCaDkDuE_@g@{FwGOMnA}CnA_DJWu@iAW[S[yI{MmBqC{@wAQUw@gAsDiF_B_CQYa@cA[_AUy@YcBOgAYHu@\\M`@cAiBuAyBkHgL{C{E}AcCc@o@q@gAOWwCyCyGyG_IaIs@rBEHwAtDmBvEOd@[bBK~AIf@YHE@Q@O?OCI_@GMEKI_AB_A?Yo@IKCIEIIKOEKCKe@}BKs@CQAUE_A@yCFcDVsLDaCD_@kBKW?e@Q_BQNuEDuBXmNLgHmKm@}BW{AMCn@o@G??","length":127},"routeShortName":"11","routeLongName":"Chic/Faubourg via St-Paul","rentedBike":false,"transitLeg":true,"duration":1684.0,"steps":[]},{"startTime":1522692900000,"endTime":1522693883000,"departureDelay":0,"arrivalDelay":0,"realTime":false,"distance":6070.619475259282,"pathway":false,"mode":"BUS","route":"12","agencyName":"Société de Transport du Saguenay","agencyUrl":"http://ville.saguenay.ca/fr/services-aux-citoyens/transport-sts","agencyTimeZoneOffset":-14400000,"routeColor":"556B2F","routeType":3,"routeId":"1:12","routeTextColor":"FFFFFF","interlineWithPreviousLeg":false,"tripBlockId":"28","headsign":"Terminus UQAC","agencyId":"0","tripId":"1:218041","serviceDate":"20180402","from":{"name":"Terminus Chicoutimi","stopId":"1:1289","stopCode":"1289","lon":-71.066163,"lat":48.428677,"arrival":1522692660000,"departure":1522692900000,"zoneId":"NA","stopIndex":0,"stopSequence":1,"vertexType":"TRANSIT"},"to":{"name":"nouveau","stopId":"1:2297","stopCode":"2297","lon":-71.02468,"lat":48.413593,"arrival":1522693883000,"departure":1522693884000,"zoneId":"NA","stopIndex":25,"stopSequence":26,"vertexType":"TRANSIT"},"legGeometry":{"points":"evqfHpbwpLpFcj@IaKmFy^_DaZz@u]SeV}@aNs@gKToKd@gTnCyHkGuLqFqJ_DeFf@iIvGsKlIrH`JlH`EfDnOdIdGlGjL|BzBiLv@}L`b@fN","length":26},"routeShortName":"12","routeLongName":"Rivière du Moulin","rentedBike":false,"transitLeg":true,"duration":983.0,"steps":[]},{"startTime":1522693884000,"endTime":1522696169000,"departureDelay":0,"arrivalDelay":0,"realTime":false,"distance":2977.905,"pathway":false,"mode":"WALK","route":"","agencyTimeZoneOffset":-14400000,"interlineWithPreviousLeg":false,"from":{"name":"nouveau","stopId":"1:2297","stopCode":"2297","lon":-71.02468,"lat":48.413593,"arrival":1522693883000,"departure":1522693884000,"zoneId":"NA","stopIndex":25,"stopSequence":26,"vertexType":"TRANSIT"},"to":{"name":"Destination","lon":-71.044398,"lat":48.40001,"arrival":1522696169000,"orig":"","vertexType":"NORMAL"},"legGeometry":{"points":"axnfHb~npLTEp@Kj@tKxB|MHl@TrAf@xEB\\L`CDh@@^ZvEHpAx@Of@s@|A@b@Ov@B\\Kh@@|@Ot@e@XMRS^c@JeAZTFhBBVDpAu@^CDAFF\\JFNb@ZJFN?XRHTMRN^Rb@\\NdALFJj@Pf@?PE`@C~@Tf@RZ^ZPb@ZNZHP^Tb@Pl@Tr@|B`@p@d@z@b@bAhAL|Ap@jCd@DZBXOHo@?aADw@Pu@xByE\\eATOT@HP`@`CNnCElCRlBLjGx@`Aj@|@Rd@r@tAjClDn@bA@`AFbATr@v@Tf@QRO@A","length":98},"alerts":[{"alertHeaderText":"Unpaved surface"}],"rentedBike":false,"transitLeg":false,"duration":2285.0,"steps":[{"distance":40.223,"relativeDirection":"DEPART","streetName":"Boulevard du Saguenay Est","absoluteDirection":"SOUTH","stayOn":false,"area":false,"bogusName":false,"lon":-71.02449091813529,"lat":48.41361228978169,"elevation":[]},{"distance":674.7560000000001,"relativeDirection":"RIGHT","streetName":"Boulevard de l'Université","absoluteDirection":"WEST","stayOn":false,"area":false,"bogusName":false,"lon":-71.0244078,"lat":48.413254800000004,"elevation":[]},{"distance":62.209,"relativeDirection":"LEFT","streetName":"path","absoluteDirection":"SOUTH","stayOn":false,"area":false,"bogusName":true,"lon":-71.0332252,"lat":48.411744500000005,"elevation":[],"alerts":[{"alertHeaderText":"Unpaved surface"}]},{"distance":386.934,"relativeDirection":"RIGHT","streetName":"Sentier des Moulins","absoluteDirection":"SOUTH","stayOn":false,"area":false,"bogusName":false,"lon":-71.0328834,"lat":48.4112566,"elevation":[],"alerts":[{"alertHeaderText":"Unpaved surface"}]},{"distance":63.259,"relativeDirection":"RIGHT","streetName":"steps","absoluteDirection":"NORTH","stayOn":false,"area":false,"bogusName":true,"lon":-71.03298500000001,"lat":48.408708000000004,"elevation":[]},{"distance":1750.5240000000001,"relativeDirection":"LEFT","streetName":"path","absoluteDirection":"WEST","stayOn":true,"area":false,"bogusName":true,"lon":-71.0331419,"lat":48.4089727,"elevation":[]}]}],"tooSloped":false},{"duration":6028,"startTime":1522691941000,"endTime":1522697969000,"walkTime":2805,"transitTime":2921,"waitingTime":302,"walkDistance":3653.703052619606,"walkLimitExceeded":false,"elevationLost":0.0,"elevationGained":0.0,"transfers":1,"legs":[{"startTime":1522691941000,"endTime":1522692461000,"departureDelay":0,"arrivalDelay":0,"realTime":false,"distance":675.427,"pathway":false,"mode":"WALK","route":"","agencyTimeZoneOffset":-14400000,"interlineWithPreviousLeg":false,"from":{"name":"Origin","lon":-71.121015,"lat":48.382684,"departure":1522691941000,"orig":"","vertexType":"NORMAL"},"to":{"name":"St-Paul / boul. Royaume","stopId":"1:1607","stopCode":"1607","lon":-71.115594,"lat":48.387321,"arrival":1522692461000,"departure":1522692462000,"zoneId":"NA","stopIndex":24,"stopSequence":25,"vertexType":"TRANSIT"},"legGeometry":{"points":"{uhfHvvaqLuAaAi@]GEk@e@u@_BIQ}@wAmEqE_F_Fk@s@_DgEGGKKITAD","length":16},"rentedBike":false,"transitLeg":false,"duration":520.0,"steps":[{"distance":662.706,"relativeDirection":"DEPART","streetName":"Rue Saint-Paul","absoluteDirection":"NORTHEAST","stayOn":false,"area":false,"bogusName":false,"lon":-71.12059371416224,"lat":48.382543672798775,"elevation":[]},{"distance":12.721,"relativeDirection":"LEFT","streetName":"Boulevard du Royaume Ouest","absoluteDirection":"NORTHWEST","stayOn":false,"area":false,"bogusName":false,"lon":-71.1153551,"lat":48.3873406,"elevation":[]}]},{"startTime":1522692462000,"endTime":1522692660000,"departureDelay":0,"arrivalDelay":0,"realTime":false,"distance":2300.5169255036058,"pathway":false,"mode":"BUS","route":"2","agencyName":"Société de Transport du Saguenay","agencyUrl":"http://ville.saguenay.ca/fr/services-aux-citoyens/transport-sts","agencyTimeZoneOffset":-14400000,"routeColor":"FF0000","routeType":3,"routeId":"1:2","routeTextColor":"FFFFFF","interlineWithPreviousLeg":false,"tripBlockId":"10","headsign":"Costco","agencyId":"0","tripId":"1:217441","serviceDate":"20180402","from":{"name":"St-Paul / boul. Royaume","stopId":"1:1607","stopCode":"1607","lon":-71.115594,"lat":48.387321,"arrival":1522692461000,"departure":1522692462000,"zoneId":"NA","stopIndex":24,"stopSequence":25,"vertexType":"TRANSIT"},"to":{"name":"COSTCO","stopId":"1:1710","stopCode":"1710","lon":-71.085767,"lat":48.382333,"arrival":1522692660000,"departure":1522692900000,"zoneId":"NA","stopIndex":28,"stopSequence":29,"vertexType":"TRANSIT"},"legGeometry":{"points":"ctifH`w`qLz@{B|G}WVyBfB_OrBsTDa]?sD`@uc@tBcJz@yDtI}UaCcC","length":13},"routeShortName":"2","routeLongName":"Chic/Jonq via Boul. Royaume","rentedBike":false,"transitLeg":true,"duration":198.0,"steps":[]},{"startTime":1522692900000,"endTime":1522694400000,"departureDelay":0,"arrivalDelay":0,"realTime":false,"distance":7720.38554651896,"pathway":false,"mode":"BUS","route":"175","agencyName":"Société de Transport du Saguenay","agencyUrl":"http://ville.saguenay.ca/fr/services-aux-citoyens/transport-sts","agencyTimeZoneOffset":-14400000,"routeColor":"FF00FF","routeType":3,"routeId":"1:175","routeTextColor":"FFFFFF","interlineWithPreviousLeg":true,"tripBlockId":"10","headsign":"Terminus Chicoutimi","agencyId":"0","tripId":"1:217442","serviceDate":"20180402","from":{"name":"COSTCO","stopId":"1:1710","stopCode":"1710","lon":-71.085767,"lat":48.382333,"arrival":1522692660000,"departure":1522692900000,"zoneId":"NA","stopIndex":0,"stopSequence":1,"vertexType":"TRANSIT"},"to":{"name":"Terminus Chicoutimi","stopId":"1:1289","stopCode":"1289","lon":-71.066163,"lat":48.428677,"arrival":1522694400000,"departure":1522694700000,"zoneId":"NA","stopIndex":27,"stopSequence":28,"vertexType":"TRANSIT"},"legGeometry":{"points":"euhfHt|zpL_BiBsCoDwCqDrCsGN_@uEoFoEiFUWSUqCwC]a@{ByC{@cAkJuKoAwA_CeCeExJ~AlB`@mAu@k@}@q@|C}Iw@}@aO_QkEsEiAoAgEsFkFsHqJ_N}FkImPkOuO{N_U_TcNgNcBcB{E`Jc@x@qG~@{BlAk@XgSrQqB_GAeFiEeEOt@gAeA_A_ATm@yAwAgBeBqDnL@nBF`@f@|C[dCuAfB]xAs@OmCmCmEkE]a@g@i@ZiGTmEl@oLaEe@cFk@?pH?tJDvBPjMB~Bo@PQDRbFKdGMhIOvIK|EQpHoCQEdC","length":83},"routeShortName":"175","routeLongName":"Term. Chic / Costco","rentedBike":false,"transitLeg":true,"duration":1500.0,"steps":[]},{"startTime":1522694700000,"endTime":1522695683000,"departureDelay":0,"arrivalDelay":0,"realTime":false,"distance":6070.619475259282,"pathway":false,"mode":"BUS","route":"12","agencyName":"Société de Transport du Saguenay","agencyUrl":"http://ville.saguenay.ca/fr/services-aux-citoyens/transport-sts","agencyTimeZoneOffset":-14400000,"routeColor":"556B2F","routeType":3,"routeId":"1:12","routeTextColor":"FFFFFF","interlineWithPreviousLeg":false,"tripBlockId":"27","headsign":"Terminus UQAC","agencyId":"0","tripId":"1:218016","serviceDate":"20180402","from":{"name":"Terminus Chicoutimi","stopId":"1:1289","stopCode":"1289","lon":-71.066163,"lat":48.428677,"arrival":1522694400000,"departure":1522694700000,"zoneId":"NA","stopIndex":0,"stopSequence":1,"vertexType":"TRANSIT"},"to":{"name":"nouveau","stopId":"1:2297","stopCode":"2297","lon":-71.02468,"lat":48.413593,"arrival":1522695683000,"departure":1522695684000,"zoneId":"NA","stopIndex":25,"stopSequence":26,"vertexType":"TRANSIT"},"legGeometry":{"points":"evqfHpbwpLpFcj@IaKmFy^_DaZz@u]SeV}@aNs@gKToKd@gTnCyHkGuLqFqJ_DeFf@iIvGsKlIrH`JlH`EfDnOdIdGlGjL|BzBiLv@}L`b@fN","length":26},"routeShortName":"12","routeLongName":"Rivière du Moulin","rentedBike":false,"transitLeg":true,"duration":983.0,"steps":[]},{"startTime":1522695684000,"endTime":1522697969000,"departureDelay":0,"arrivalDelay":0,"realTime":false,"distance":2977.905,"pathway":false,"mode":"WALK","route":"","agencyTimeZoneOffset":-14400000,"interlineWithPreviousLeg":false,"from":{"name":"nouveau","stopId":"1:2297","stopCode":"2297","lon":-71.02468,"lat":48.413593,"arrival":1522695683000,"departure":1522695684000,"zoneId":"NA","stopIndex":25,"stopSequence":26,"vertexType":"TRANSIT"},"to":{"name":"Destination","lon":-71.044398,"lat":48.40001,"arrival":1522697969000,"orig":"","vertexType":"NORMAL"},"legGeometry":{"points":"axnfHb~npLTEp@Kj@tKxB|MHl@TrAf@xEB\\L`CDh@@^ZvEHpAx@Of@s@|A@b@Ov@B\\Kh@@|@Ot@e@XMRS^c@JeAZTFhBBVDpAu@^CDAFF\\JFNb@ZJFN?XRHTMRN^Rb@\\NdALFJj@Pf@?PE`@C~@Tf@RZ^ZPb@ZNZHP^Tb@Pl@Tr@|B`@p@d@z@b@bAhAL|Ap@jCd@DZBXOHo@?aADw@Pu@xByE\\eATOT@HP`@`CNnCElCRlBLjGx@`Aj@|@Rd@r@tAjClDn@bA@`AFbATr@v@Tf@QRO@A","length":98},"alerts":[{"alertHeaderText":"Unpaved surface"}],"rentedBike":false,"transitLeg":false,"duration":2285.0,"steps":[{"distance":40.223,"relativeDirection":"DEPART","streetName":"Boulevard du Saguenay Est","absoluteDirection":"SOUTH","stayOn":false,"area":false,"bogusName":false,"lon":-71.02449091813529,"lat":48.41361228978169,"elevation":[]},{"distance":674.7560000000001,"relativeDirection":"RIGHT","streetName":"Boulevard de l'Université","absoluteDirection":"WEST","stayOn":false,"area":false,"bogusName":false,"lon":-71.0244078,"lat":48.413254800000004,"elevation":[]},{"distance":62.209,"relativeDirection":"LEFT","streetName":"path","absoluteDirection":"SOUTH","stayOn":false,"area":false,"bogusName":true,"lon":-71.0332252,"lat":48.411744500000005,"elevation":[],"alerts":[{"alertHeaderText":"Unpaved surface"}]},{"distance":386.934,"relativeDirection":"RIGHT","streetName":"Sentier des Moulins","absoluteDirection":"SOUTH","stayOn":false,"area":false,"bogusName":false,"lon":-71.0328834,"lat":48.4112566,"elevation":[],"alerts":[{"alertHeaderText":"Unpaved surface"}]},{"distance":63.259,"relativeDirection":"RIGHT","streetName":"steps","absoluteDirection":"NORTH","stayOn":false,"area":false,"bogusName":true,"lon":-71.03298500000001,"lat":48.408708000000004,"elevation":[]},{"distance":1750.5240000000001,"relativeDirection":"LEFT","streetName":"path","absoluteDirection":"WEST","stayOn":true,"area":false,"bogusName":true,"lon":-71.0331419,"lat":48.4089727,"elevation":[]}]}],"tooSloped":false}]},"debugOutput":{"precalculationTime":3,"pathCalculationTime":24,"pathTimes":[7,8,9],"renderingTime":0,"totalTime":27,"timedOut":false},"elevationMetadata":{"ellipsoidToGeoidDifference":-28.885904201182168,"geoidElevation":false}}