{"requestParameters":{"date":"2018/04/02","walkSpeed":"1.33","walkReluctance":"2.0","fromPlace":"48.354695,-71.055834","maxWalkDistance":"3000","waitReluctance":"1.0","carSpeed":"33","numItineraries":"3","waitAtBeginningFactor":"0.4","mode":"TRANSIT,WALK","ignoreRealtimeUpdates":"false","stairsReluctance":"2.0","toPlace":"48.409686,-71.123351","time":"7:30:00"},"plan":{"date":1522668600000,"from":{"name":"Origin","lon":-71.055834,"lat":48.354695,"orig":"","vertexType":"NORMAL"},"to":{"name":"Destination","lon":-71.123351,"lat":48.409686,"orig":"","vertexType":"NORMAL"},"itineraries":[{"duration":2808,"startTime":1522669191000,"endTime":1522671999000,"walkTime":236,"transitTime":1310,"waitingTime":1262,"walkDistance":305.8379624048869,"walkLimitExceeded":false,"elevationLost":0.0,"elevationGained":0.0,"transfers":1,"legs":[{"startTime":1522669191000,"endTime":1522669409000,"departureDelay":0,"arrivalDelay":0,"realTime":false,"distance":281.941,"pathway":false,"mode":"WALK","route":"","agencyTimeZoneOffset":-14400000,"interlineWithPreviousLeg":false,"from":{"name":"Origin","lon":-71.055834,"lat":48.354695,"departure":1522669191000,"orig":"","vertexType":"NORMAL"},"to":{"name":"boul. Royaume / ch. de l'Église","stopId":"1:1750","stopCode":"1750","lon":-71.055287,"lat":48.35702,"arrival":1522669409000,"departure":1522669410000,"zoneId":"NA","stopIndex":23,"stopSequence":24,"vertexType":"TRANSIT"},"legGeometry":{"points":"eicfHbeupL_D{CyBuBc@Wc@Oo@xB","length":6},"rentedBike":false,"transitLeg":false,"duration":218.0,"steps":[{"distance":229.748,"relativeDirection":"DEPART","streetName":"Chemin de l'Église","absoluteDirection":"NORTHEAST","stayOn":false,"area":false,"bogusName":false,"lon":-71.05633864058842,"lat":48.354912663720235,"elevation":[]},{"distance":52.193,"relativeDirection":"LEFT","streetName":"R 170","absoluteDirection":"NORTHWEST","stayOn":false,"area":false,"bogusName":false,"lon":-71.05476750000001,"lat":48.3566846,"elevation":[]}]},{"startTime":1522669410000,"endTime":1522670040000,"departureDelay":0,"arrivalDelay":0,"realTime":false,"distance":9878.718943413443,"pathway":false,"mode":"BUS","route":"64S","agencyName":"Société de Transport du Saguenay","agencyUrl":"http://ville.saguenay.ca/fr/services-aux-citoyens/transport-sts","agencyTimeZoneOffset":-14400000,"routeColor":"8B0000","routeType":3,"routeId":"1:64S","routeTextColor":"FFFFFF","interlineWithPreviousLeg":false,"headsign":"Terminus Jonquière","agencyId":"0","tripId":"1:218623","serviceDate":"20180402","from":{"name":"boul. Royaume / ch. de l'Église","stopId":"1:1750","stopCode":"1750","lon":-71.055287,"lat":48.35702,"arrival":1522669409000,"departure":1522669410000,"zoneId":"NA","stopIndex":23,"stopSequence":24,"vertexType":"TRANSIT"},"to":{"name":"Faubourg Sagamie","stopId":"1:1129","stopCode":"1129","lon":-71.167414,"lat":48.402974,"arrival":1522670040000,"departure":1522671300000,"zoneId":"NA","stopIndex":27,"stopSequence":28,"vertexType":"TRANSIT"},"legGeometry":{"points":"{ucfH~~tpLeFzO}@rB}@bBcCxCsAjAcAr@eClAsJdEoF~BsJdEsJbEAC{TpJuEbBy\\~IoZxJ_GfHEJwPld@gJf\\iJ~]_CpTeBfg@kAtTiAjLqAvMaPhi@sPbx@uFvXmAjOKzS~C`a@|A`Nz@`IEfCcDfJ[|@gAtDCz@Mx@eA|FUxAMlAStAQzAgA~HyCzWoB|Nk@`DiBbI}P~j@Z\\lC~Bn@j@`BzA","length":56},"routeShortName":"64S","routeLongName":"Term. Baie / Poly Jonq./Cégep","rentedBike":false,"transitLeg":true,"duration":630.0,"steps":[]},{"startTime":1522671300000,"endTime":1522671980000,"departureDelay":0,"arrivalDelay":0,"realTime":false,"distance":3989.8603890465256,"pathway":false,"mode":"BUS","route":"16","agencyName":"Société de Transport du Saguenay","agencyUrl":"http://ville.saguenay.ca/fr/services-aux-citoyens/transport-sts","agencyTimeZoneOffset":-14400000,"routeColor":"00FF00","routeType":3,"routeId":"1:16","routeTextColor":"000000","interlineWithPreviousLeg":false,"tripBlockId":"34","headsign":"Terminus Chicoutimi","agencyId":"0","tripId":"1:218210","serviceDate":"20180402","from":{"name":"Faubourg Sagamie","stopId":"1:1129","stopCode":"1129","lon":-71.167414,"lat":48.402974,"arrival":1522670040000,"departure":1522671300000,"zoneId":"NA","stopIndex":0,"stopSequence":1,"vertexType":"TRANSIT"},"to":{"name":"ch. de la Réserve / Silicium","stopId":"1:640","stopCode":"640","lon":-71.123,"lat":48.4097,"arrival":1522671980000,"departure":1522671981000,"zoneId":"NA","stopIndex":16,"stopSequence":17,"vertexType":"TRANSIT"},"legGeometry":{"points":"sulfHn{jqLq@g@J]kIkHbAoDzB{HhBoGxGiTd@{A`ByIXyCZcDaB_@aBoBeGmH[_@m@iClA_AlAuEj@yBt@iDDq@Z}EpAkDlAiAv@i@zB}AeA}H\\sCNgApDyKeE}EoEgF`@gAl@gB}GoImCqFeD_H}DcEiJqJgEeGqAyGk@kEg@_EmD}N","length":45},"routeShortName":"16","routeLongName":"Côte de la Réserve","rentedBike":false,"transitLeg":true,"duration":680.0,"steps":[]},{"startTime":1522671981000,"endTime":1522671999000,"departureDelay":0,"arrivalDelay":0,"realTime":false,"distance":23.862,"pathway":false,"mode":"WALK","route":"","agencyTimeZoneOffset":-14400000,"interlineWithPreviousLeg":false,"from":{"name":"ch. de la Réserve / Silicium","stopId":"1:640","stopCode":"640","lon":-71.123,"lat":48.4097,"arrival":1522671980000,"departure":1522671981000,"zoneId":"NA","stopIndex":16,"stopSequence":17,"vertexType":"TRANSIT"},"to":{"name":"Destination","lon":-71.123351,"lat":48.409686,"arrival":1522671999000,"orig":"","vertexType":"NORMAL"},"legGeometry":{"points":"_`nfHbfbqLPx@","length":2},"rentedBike":false,"transitLeg":false,"duration":18.0,"steps":[{"distance":23.862,"relativeDirection":"DEPART","streetName":"Chemin de la Réserve","absoluteDirection":"SOUTHWEST","stayOn":false,"area":false,"bogusName":false,"lon":-71.12305124611127,"lat":48.40976793221474,"elevation":[]}]}],"tooSloped":false},{"duration":2669,"startTime":1522685530000,"endTime":1522688199000,"walkTime":1265,"transitTime":894,"waitingTime":510,"walkDistance":1671.160962404887,"walkLimitExceeded":false,"elevationLost":0.0,"elevationGained":0.0,"transfers":1,"legs":[{"startTime":1522685530000,"endTime":1522685748000,"departureDelay":0,"arrivalDelay":0,"realTime":false,"distance":281.941,"pathway":false,"mode":"WALK","route":"","agencyTimeZoneOffset":-14400000,"interlineWithPreviousLeg":false,"from":{"name":"Origin","lon":-71.055834,"lat":48.354695,"departure":1522685530000,"orig":"","vertexType":"NORMAL"},"to":{"name":"boul. Royaume / ch. de l'Église","stopId":"1:1750","stopCode":"1750","lon":-71.055287,"lat":48.35702,"arrival":1522685748000,"departure":1522685749000,"zoneId":"NA","stopIndex":23,"stopSequence":24,"vertexType":"TRANSIT"},"legGeometry":{"points":"eicfHbeupL_D{CyBuBc@Wc@Oo@xB","length":6},"rentedBike":false,"transitLeg":false,"duration":218.0,"steps":[{"distance":229.748,"relativeDirection":"DEPART","streetName":"Chemin de l'Église","absoluteDirection":"NORTHEAST","stayOn":false,"area":false,"bogusName":false,"lon":-71.05633864058842,"lat":48.354912663720235,"elevation":[]},{"distance":52.193,"relativeDirection":"LEFT","streetName":"R 170","absoluteDirection":"NORTHWEST","stayOn":false,"area":false,"bogusName":false,"lon":-71.05476750000001,"lat":48.3566846,"elevation":[]}]},{"startTime":1522685749000,"endTime":1522686271000,"departureDelay":0,"arrivalDelay":0,"realTime":false,"distance":7570.555962128939,"pathway":false,"mode":"BUS","route":"20S","agencyName":"Société de Transport du Saguenay","agencyUrl":"http://ville.saguenay.ca/fr/services-aux-citoyens/transport-sts","agencyTimeZoneOffset":-14400000,"routeColor":"8B0000","routeType":3,"routeId":"1:20S","routeTextColor":"FFFFFF","interlineWithPreviousLeg":false,"tripBlockId":"105","headsign":"Cégep Jonq (Fabrique)","agencyId":"0","tripId":"1:218813","serviceDate":"20180402","from":{"name":"boul. Royaume / ch. de l'Église","stopId":"1:1750","stopCode":"1750","lon":-71.055287,"lat":48.35702,"arrival":1522685748000,"departure":1522685749000,"zoneId":"NA","stopIndex":23,"stopSequence":24,"vertexType":"TRANSIT"},"to":{"name":"boul. Royaume (no. 2121)","stopId":"1:33","stopCode":"33","lon":-71.138099,"lat":48.394083,"arrival":1522686271000,"departure":1522686271000,"zoneId":"NA","stopIndex":31,"stopSequence":32,"vertexType":"TRANSIT"},"legGeometry":{"points":"{ucfH~~tpLeFzO}@rB}@bBcCxCsAjAcAr@eClAsJdEoF~BsJdEsJbEAC{TpJmHjCiEhAHz@d@pGE~@I~@Kj@Od@_e@rkAUReFdMIXuKtX}@fC_AvC[jAi@`CUbBUxBUdCIlD]to@K`IEt@ElBQlEMrBWvDa@jEq@nFa@rC_AnFi@bCo@pCiAbEEFsC|IMViBdFOd@qCtHsFfOMZyBfGY~@GVU|@[fB_@hCIv@KlAIrAGlAAPA~A?lBJzDRvEB`ADzB@hABbBB|ECr@Ev@OpBSjBM|@Y`B]rAw@lCs@jBc@|@]j@}@xAc@p@eB`C_AhA","length":92},"routeShortName":"20S","routeLongName":"Term. Baie <--> Cegep Jonq","rentedBike":false,"transitLeg":true,"duration":522.0,"steps":[]},{"startTime":1522686271000,"endTime":1522687300000,"departureDelay":0,"arrivalDelay":0,"realTime":false,"distance":1365.3229999999999,"pathway":false,"mode":"WALK","route":"","agencyTimeZoneOffset":-14400000,"interlineWithPreviousLeg":false,"from":{"name":"boul. Royaume (no. 2121)","stopId":"1:33","stopCode":"33","lon":-71.138099,"lat":48.394083,"arrival":1522686271000,"departure":1522686271000,"zoneId":"NA","stopIndex":31,"stopSequence":32,"vertexType":"TRANSIT"},"to":{"name":"Hébert / Fréchette","stopId":"1:25","stopCode":"25","lon":-71.148414,"lat":48.402295,"arrival":1522687300000,"departure":1522687808000,"zoneId":"NA","stopIndex":8,"stopSequence":9,"vertexType":"TRANSIT"},"legGeometry":{"points":"}}jfHfdeqLyAhB}BtCaBtB[^GJ{AlBqB|CqA`CcB`EyAdEUz@U|@UHU`Be@lB[rBe@tCk@tDc@t@c@l@Gl@MlAKD_@E{AWWIiE{AcC{@CT","length":30},"rentedBike":false,"transitLeg":false,"duration":1029.0,"steps":[{"distance":313.10699999999997,"relativeDirection":"DEPART","streetName":"Boulevard du Royaume Ouest","absoluteDirection":"NORTHWEST","stayOn":false,"area":false,"bogusName":false,"lon":-71.13811038815592,"lat":48.39407701706976,"elevation":[]},{"distance":383.342,"relativeDirection":"CONTINUE","streetName":"Boulevard du Royaume","absoluteDirection":"NORTHWEST","stayOn":false,"area":false,"bogusName":false,"lon":-71.1407514,"lat":48.396280100000006,"elevation":[]},{"distance":375.316,"relativeDirection":"RIGHT","streetName":"bike path","absoluteDirection":"NORTH","stayOn":false,"area":false,"bogusName":true,"lon":-71.1447687,"lat":48.3984308,"elevation":[]},{"distance":7.247,"relativeDirection":"RIGHT","streetName":"path","absoluteDirection":"NORTH","stayOn":true,"area":false,"bogusName":true,"lon":-71.149219,"lat":48.399865500000004,"elevation":[]},{"distance":277.922,"relativeDirection":"SLIGHTLY_RIGHT","streetName":"Rue Fréchette","absoluteDirection":"NORTH","stayOn":false,"area":false,"bogusName":false,"lon":-71.14924930000001,"lat":48.399927500000004,"elevation":[]},{"distance":8.389,"relativeDirection":"LEFT","streetName":"Rue Hébert","absoluteDirection":"WEST","stayOn":false,"area":false,"bogusName":false,"lon":-71.1482835,"lat":48.402339700000006,"elevation":[]}]},{"startTime":1522687808000,"endTime":1522688180000,"departureDelay":0,"arrivalDelay":0,"realTime":false,"distance":2295.853589294706,"pathway":false,"mode":"BUS","route":"16","agencyName":"Société de Transport du Saguenay","agencyUrl":"http://ville.saguenay.ca/fr/services-aux-citoyens/transport-sts","agencyTimeZoneOffset":-14400000,"routeColor":"00FF00","routeType":3,"routeId":"1:16","routeTextColor":"000000","interlineWithPreviousLeg":false,"tripBlockId":"36","headsign":"Terminus Chicoutimi","agencyId":"0","tripId":"1:218289","serviceDate":"20180402","from":{"name":"Hébert / Fréchette","stopId":"1:25","stopCode":"25","lon":-71.148414,"lat":48.402295,"arrival":1522687300000,"departure":1522687808000,"zoneId":"NA","stopIndex":8,"stopSequence":9,"vertexType":"TRANSIT"},"to":{"name":"ch. de la Réserve / Silicium","stopId":"1:640","stopCode":"640","lon":-71.123,"lat":48.4097,"arrival":1522688180000,"departure":1522688181000,"zoneId":"NA","stopIndex":16,"stopSequence":17,"vertexType":"TRANSIT"},"legGeometry":{"points":"sqlfHndgqLZ}EpAkDlAiAv@i@zB}AeA}H\\sCNgApDyKeE}EoEgF`@gAl@gB}GoImCqFeD_H}DcEiJqJgEeGqAyGk@kEg@_EmD}N","length":24},"routeShortName":"16","routeLongName":"Côte de la Réserve","rentedBike":false,"transitLeg":true,"duration":372.0,"steps":[]},{"startTime":1522688181000,"endTime":1522688199000,"departureDelay":0,"arrivalDelay":0,"realTime":false,"distance":23.862,"pathway":false,"mode":"WALK","route":"","agencyTimeZoneOffset":-14400000,"interlineWithPreviousLeg":false,"from":{"name":"ch. de la Réserve / Silicium","stopId":"1:640","stopCode":"640","lon":-71.123,"lat":48.4097,"arrival":1522688180000,"departure":1522688181000,"zoneId":"NA","stopIndex":16,"stopSequence":17,"vertexType":"TRANSIT"},"to":{"name":"Destination","lon":-71.123351,"lat":48.409686,"arrival":1522688199000,"orig":"","vertexType":"NORMAL"},"legGeometry":{"points":"_`nfHbfbqLPx@","length":2},"rentedBike":false,"transitLeg":false,"duration":18.0,"steps":[{"distance":23.862,"relativeDirection":"DEPART","streetName":"Chemin de la Réserve","absoluteDirection":"SOUTHWEST","stayOn":false,"area":false,"bogusName":false,"lon":-71.12305124611127,"lat":48.40976793221474,"elevation":[]}]}],"tooSloped":false},{"duration":3256,"startTime":1522688543000,"endTime":1522691799000,"walkTime":98,"transitTime":1656,"waitingTime":1502,"walkDistance":129.752,"walkLimitExceeded":false,"elevationLost":0.0,"elevationGained":0.0,"transfers":2,"legs":[{"startTime":1522688543000,"endTime":1522688623000,"departureDelay":0,"arrivalDelay":0,"realTime":false,"distance":105.89,"pathway":false,"mode":"WALK","route":"","agencyTimeZoneOffset":-14400000,"interlineWithPreviousLeg":false,"from":{"name":"Origin","lon":-71.055834,"lat":48.354695,"departure":1522688543000,"orig":"","vertexType":"NORMAL"},"to":{"name":"ch. de l'Église (no. 3767)","stopId":"1:1749","stopCode":"1749","lon":-71.05546,"lat":48.355669,"arrival":1522688623000,"departure":1522688624000,"zoneId":"NA","stopIndex":24,"stopSequence":25,"vertexType":"TRANSIT"},"legGeometry":{"points":"eicfHbeupL_D{C","length":2},"rentedBike":false,"transitLeg":false,"duration":80.0,"steps":[{"distance":105.89,"relativeDirection":"DEPART","streetName":"Chemin de l'Église","absoluteDirection":"NORTHEAST","stayOn":false,"area":false,"bogusName":false,"lon":-71.05633864058842,"lat":48.354912663720235,"elevation":[]}]},{"startTime":1522688624000,"endTime":1522689000000,"departureDelay":0,"arrivalDelay":0,"realTime":false,"distance":3779.3863619050853,"pathway":false,"mode":"BUS","route":"60","agencyName":"Société de Transport du Saguenay","agencyUrl":"http://ville.saguenay.ca/fr/services-aux-citoyens/transport-sts","agencyTimeZoneOffset":-14400000,"routeColor":"00FFFF","routeType":3,"routeId":"1:60","routeTextColor":"000000","interlineWithPreviousLeg":false,"tripBlockId":"73","headsign":"Costco","agencyId":"0","tripId":"1:218620","serviceDate":"20180402","from":{"name":"ch. de l'Église (no. 3767)","stopId":"1:1749","stopCode":"1749","lon":-71.05546,"lat":48.355669,"arrival":1522688623000,"departure":1522688624000,"zoneId":"NA","stopIndex":24,"stopSequence":25,"vertexType":"TRANSIT"},"to":{"name":"COSTCO","stopId":"1:1710","stopCode":"1710","lon":-71.085767,"lat":48.382333,"arrival":1522689000000,"departure":1522689300000,"zoneId":"NA","stopIndex":29,"stopSequence":30,"vertexType":"TRANSIT"},"legGeometry":{"points":"cncfHd`upLk@o@{BoAc@Sm@lBcFzO}@rB}@bBcCxCsAjAcAr@eClAsJdEoF~BsJdEsJbE@D_VpLiDtAqA\\cAp@[XY^O^Mb@Ij@Er@CtAE~@I~@Kj@Od@_e@rkAUReFdMIXyCtHwBcC","length":38},"routeShortName":"60","routeLongName":"Portage des Roches Nord","rentedBike":false,"transitLeg":true,"duration":376.0,"steps":[]},{"startTime":1522689300000,"endTime":1522689900000,"departureDelay":0,"arrivalDelay":0,"realTime":false,"distance":6545.867623869018,"pathway":false,"mode":"BUS","route":"2","agencyName":"Société de Transport du Saguenay","agencyUrl":"http://ville.saguenay.ca/fr/services-aux-citoyens/transport-sts","agencyTimeZoneOffset":-14400000,"routeColor":"FF0000","routeType":3,"routeId":"1:2","routeTextColor":"FFFFFF","interlineWithPreviousLeg":false,"tripBlockId":"6","headsign":"Terminus Jonquière","agencyId":"0","tripId":"1:217298","serviceDate":"20180402","from":{"name":"COSTCO","stopId":"1:1710","stopCode":"1710","lon":-71.085767,"lat":48.382333,"arrival":1522689000000,"departure":1522689300000,"zoneId":"NA","stopIndex":0,"stopSequence":1,"vertexType":"TRANSIT"},"to":{"name":"Faubourg Sagamie","stopId":"1:1129","stopCode":"1129","lon":-71.167414,"lat":48.402974,"arrival":1522689900000,"departure":1522691100000,"zoneId":"NA","stopIndex":9,"stopSequence":10,"vertexType":"TRANSIT"},"legGeometry":{"points":"wthfHn}zpLeLkMxCaIbPzPkL|[eB~GwBlIa@bXIbQO`^aBhTiBlNUfBiI~ZeHzQeFxMqDtKAJ}ApJM~EWhIb@`NFlB_@fOsBvK_DrH_G|HiSfXwExNyEzZoHll@}GpYuL`_@PPZ^lC|Bn@j@bB|A","length":38},"routeShortName":"2","routeLongName":"Chic/Jonq via Boul. Royaume","rentedBike":false,"transitLeg":true,"duration":600.0,"steps":[]},{"startTime":1522691100000,"endTime":1522691780000,"departureDelay":0,"arrivalDelay":0,"realTime":false,"distance":3989.8603890465256,"pathway":false,"mode":"BUS","route":"16","agencyName":"Société de Transport du Saguenay","agencyUrl":"http://ville.saguenay.ca/fr/services-aux-citoyens/transport-sts","agencyTimeZoneOffset":-14400000,"routeColor":"00FF00","routeType":3,"routeId":"1:16","routeTextColor":"000000","interlineWithPreviousLeg":false,"tripBlockId":"37","headsign":"Terminus Chicoutimi","agencyId":"0","tripId":"1:218317","serviceDate":"20180402","from":{"name":"Faubourg Sagamie","stopId":"1:1129","stopCode":"1129","lon":-71.167414,"lat":48.402974,"arrival":1522689900000,"departure":1522691100000,"zoneId":"NA","stopIndex":0,"stopSequence":1,"vertexType":"TRANSIT"},"to":{"name":"ch. de la Réserve / Silicium","stopId":"1:640","stopCode":"640","lon":-71.123,"lat":48.4097,"arrival":1522691780000,"departure":1522691781000,"zoneId":"NA","stopIndex":16,"stopSequence":17,"vertexType":"TRANSIT"},"legGeometry":{"points":"sulfHn{jqLq@g@J]kIkHbAoDzB{HhBoGxGiTd@{A`ByIXyCZcDaB_@aBoBeGmH[_@m@iClA_AlAuEj@yBt@iDDq@Z}EpAkDlAiAv@i@zB}AeA}H\\sCNgApDyKeE}EoEgF`@gAl@gB}GoImCqFeD_H}DcEiJqJgEeGqAyGk@kEg@_EmD}N","length":45},"routeShortName":"16","routeLongName":"Côte de la Réserve","rentedBike":false,"transitLeg":true,"duration":680.0,"steps":[]},{"startTime":1522691781000,"endTime":1522691799000,"departureDelay":0,"arrivalDelay":0,"realTime":false,"distance":23.862,"pathway":false,"mode":"WALK","route":"","agencyTimeZoneOffset":-14400000,"interlineWithPreviousLeg":false,"from":{"name":"ch. de la Réserve / Silicium","stopId":"1:640","stopCode":"640","lon":-71.123,"lat":48.4097,"arrival":1522691780000,"departure":1522691781000,"zoneId":"NA","stopIndex":16,"stopSequence":17,"vertexType":"TRANSIT"},"to":{"name":"Destination","lon":-71.123351,"lat":48.409686,"arrival":1522691799000,"orig":"","vertexType":"NORMAL"},"legGeometry":{"points":"_`nfHbfbqLPx@","length":2},"rentedBike":false,"transitLeg":false,"duration":18.0,"steps":[{"distance":23.862,"relativeDirection":"DEPART","streetName":"Chemin de la Réserve","absoluteDirection":"SOUTHWEST","stayOn":false,"area":false,"bogusName":false,"lon":-71.12305124611127,"lat":48.40976793221474,"elevation":[]}]}],"tooSloped":false}]},"debugOutput":{"precalculationTime":2,"pathCalculationTime":18,"pathTimes":[7,6,5],"renderingTime":1,"totalTime":21,"timedOut":false},"elevationMetadata":{"ellipsoidToGeoidDifference":-28.885904201182168,"geoidElevation":false}}