{"requestParameters":{"date":"2018/04/02","walkSpeed":"1.33","walkReluctance":"2.0","fromPlace":"48.354753,-71.051247","maxWalkDistance":"3000","waitReluctance":"1.0","carSpeed":"33","numItineraries":"3","waitAtBeginningFactor":"0.4","mode":"TRANSIT,WALK","ignoreRealtimeUpdates":"false","stairsReluctance":"2.0","toPlace":"48.397775,-71.047089","time":"9:0:00"},"plan":{"date":1522674000000,"from":{"name":"Origin","lon":-71.051247,"lat":48.354753,"orig":"","vertexType":"NORMAL"},"to":{"name":"Destination","lon":-71.047089,"lat":48.397775,"orig":"","vertexType":"NORMAL"},"itineraries":[{"duration":3566,"startTime":1522685455000,"endTime":1522689021000,"walkTime":747,"transitTime":1666,"waitingTime":1153,"walkDistance":971.370812027661,"walkLimitExceeded":false,"elevationLost":0.0,"elevationGained":0.0,"transfers":2,"legs":[{"startTime":1522685455000,"endTime":1522685748000,"departureDelay":0,"arrivalDelay":0,"realTime":false,"distance":387.049,"pathway":false,"mode":"WALK","route":"","agencyTimeZoneOffset":-14400000,"interlineWithPreviousLeg":false,"from":{"name":"Origin","lon":-71.051247,"lat":48.354753,"departure":1522685455000,"orig":"","vertexType":"NORMAL"},"to":{"name":"boul. Royaume / ch. de l'Église","stopId":"1:1750","stopCode":"1750","lon":-71.055287,"lat":48.35702,"arrival":1522685748000,"departure":1522685749000,"zoneId":"NA","stopIndex":23,"stopSequence":24,"vertexType":"TRANSIT"},"legGeometry":{"points":"cjcfHlctpL_GzQk@bBWz@o@xB","length":5},"rentedBike":false,"transitLeg":false,"duration":293.0,"steps":[{"distance":387.049,"relativeDirection":"DEPART","streetName":"R 170","absoluteDirection":"NORTHWEST","stayOn":false,"area":false,"bogusName":false,"lon":-71.05094396541733,"lat":48.35506811714655,"elevation":[]}]},{"startTime":1522685749000,"endTime":1522686189000,"departureDelay":0,"arrivalDelay":0,"realTime":false,"distance":6352.568071950124,"pathway":false,"mode":"BUS","route":"20S","agencyName":"Société de Transport du Saguenay","agencyUrl":"http://ville.saguenay.ca/fr/services-aux-citoyens/transport-sts","agencyTimeZoneOffset":-14400000,"routeColor":"8B0000","routeType":3,"routeId":"1:20S","routeTextColor":"FFFFFF","interlineWithPreviousLeg":false,"tripBlockId":"105","headsign":"Cégep Jonq (Fabrique)","agencyId":"0","tripId":"1:218813","serviceDate":"20180402","from":{"name":"boul. Royaume / ch. de l'Église","stopId":"1:1750","stopCode":"1750","lon":-71.055287,"lat":48.35702,"arrival":1522685748000,"departure":1522685749000,"zoneId":"NA","stopIndex":23,"stopSequence":24,"vertexType":"TRANSIT"},"to":{"name":"boul. Royaume (no. 1590)","stopId":"1:396","stopCode":"396","lon":-71.122687,"lat":48.390958,"arrival":1522686189000,"departure":1522686189000,"zoneId":"NA","stopIndex":28,"stopSequence":29,"vertexType":"TRANSIT"},"legGeometry":{"points":"{ucfH~~tpLeFzO}@rB}@bBcCxCsAjAcAr@eClAsJdEoF~BsJdEsJbEAC{TpJmHjCiEhAHz@d@pGE~@I~@Kj@Od@_e@rkAUReFdMIXuKtX}@fC_AvC[jAi@`CUbBUxBUdCIlD]to@K`IEt@ElBQlEMrBWvDa@jEq@nFa@rC_AnFi@bCo@pCiAbEEFsC|IMViBdFOd@qCtHsFfOMZyBfGY~@GV","length":60},"routeShortName":"20S","routeLongName":"Term. Baie <--> Cegep Jonq","rentedBike":false,"transitLeg":true,"duration":440.0,"steps":[]},{"startTime":1522686189000,"endTime":1522686192000,"departureDelay":0,"arrivalDelay":0,"realTime":false,"distance":0.866,"pathway":false,"mode":"WALK","route":"","agencyTimeZoneOffset":-14400000,"interlineWithPreviousLeg":false,"from":{"name":"boul. Royaume (no. 1590)","stopId":"1:396","stopCode":"396","lon":-71.122687,"lat":48.390958,"arrival":1522686189000,"departure":1522686189000,"zoneId":"NA","stopIndex":28,"stopSequence":29,"vertexType":"TRANSIT"},"to":{"name":"boul. Royaume (no. 1590)","stopId":"1:269","stopCode":"269","lon":-71.12282,"lat":48.390783,"arrival":1522686192000,"departure":1522687008000,"zoneId":"NA","stopIndex":22,"stopSequence":23,"vertexType":"TRANSIT"},"legGeometry":{"points":"}ijfHfdbqL@A","length":2},"rentedBike":false,"transitLeg":false,"duration":3.0,"steps":[{"distance":0.866,"relativeDirection":"DEPART","streetName":"Boulevard du Royaume Ouest","absoluteDirection":"SOUTHEAST","stayOn":false,"area":false,"bogusName":false,"lon":-71.1227576370025,"lat":48.390873577765035,"elevation":[]}]},{"startTime":1522687008000,"endTime":1522687260000,"departureDelay":0,"arrivalDelay":0,"realTime":false,"distance":2958.619404666996,"pathway":false,"mode":"BUS","route":"2","agencyName":"Société de Transport du Saguenay","agencyUrl":"http://ville.saguenay.ca/fr/services-aux-citoyens/transport-sts","agencyTimeZoneOffset":-14400000,"routeColor":"FF0000","routeType":3,"routeId":"1:2","routeTextColor":"FFFFFF","interlineWithPreviousLeg":false,"tripBlockId":"10","headsign":"Costco","agencyId":"0","tripId":"1:217438","serviceDate":"20180402","from":{"name":"boul. Royaume (no. 1590)","stopId":"1:269","stopCode":"269","lon":-71.12282,"lat":48.390783,"arrival":1522686192000,"departure":1522687008000,"zoneId":"NA","stopIndex":22,"stopSequence":23,"vertexType":"TRANSIT"},"to":{"name":"COSTCO","stopId":"1:1710","stopCode":"1710","lon":-71.085767,"lat":48.382333,"arrival":1522687260000,"departure":1522687500000,"zoneId":"NA","stopIndex":28,"stopSequence":29,"vertexType":"TRANSIT"},"legGeometry":{"points":"gijfHtdbqLPcAxCqJtEsL|BaGbDgIz@{B|G}WVyBfB_OrBsTDa]?sD`@uc@tBcJz@yDtI}UaCcC","length":18},"routeShortName":"2","routeLongName":"Chic/Jonq via Boul. Royaume","rentedBike":false,"transitLeg":true,"duration":252.0,"steps":[]},{"startTime":1522687500000,"endTime":1522688100000,"departureDelay":0,"arrivalDelay":0,"realTime":false,"distance":3532.3490999365067,"pathway":false,"mode":"BUS","route":"175","agencyName":"Société de Transport du Saguenay","agencyUrl":"http://ville.saguenay.ca/fr/services-aux-citoyens/transport-sts","agencyTimeZoneOffset":-14400000,"routeColor":"FF00FF","routeType":3,"routeId":"1:175","routeTextColor":"FFFFFF","interlineWithPreviousLeg":true,"tripBlockId":"10","headsign":"Terminus Chicoutimi","agencyId":"0","tripId":"1:217439","serviceDate":"20180402","from":{"name":"COSTCO","stopId":"1:1710","stopCode":"1710","lon":-71.085767,"lat":48.382333,"arrival":1522687260000,"departure":1522687500000,"zoneId":"NA","stopIndex":0,"stopSequence":1,"vertexType":"TRANSIT"},"to":{"name":"Place Royaume","stopId":"1:1801","stopCode":"1801","lon":-71.057017,"lat":48.405588,"arrival":1522688100000,"departure":1522688100000,"zoneId":"NA","stopIndex":10,"stopSequence":11,"vertexType":"TRANSIT"},"legGeometry":{"points":"euhfHt|zpL_BiBsCoDwCqDrCsGN_@uEoFoEiFUWSUqCwC]a@{ByC{@cAkJuKoAwA_CeCeExJ~AlB`@mAu@k@}@q@|C}Iw@}@aO_QkEsEiAoAgEsFkFsHqJ_N}FkImPkOuO{N","length":33},"routeShortName":"175","routeLongName":"Term. Chic / Costco","rentedBike":false,"transitLeg":true,"duration":600.0,"steps":[]},{"startTime":1522688100000,"endTime":1522688485000,"departureDelay":0,"arrivalDelay":0,"realTime":false,"distance":509.0619999999999,"pathway":false,"mode":"WALK","route":"","agencyTimeZoneOffset":-14400000,"interlineWithPreviousLeg":false,"from":{"name":"Place Royaume","stopId":"1:1801","stopCode":"1801","lon":-71.057017,"lat":48.405588,"arrival":1522688100000,"departure":1522688100000,"zoneId":"NA","stopIndex":10,"stopSequence":11,"vertexType":"TRANSIT"},"to":{"name":"Place du Royaume (Saguenéens)","stopId":"1:1294","stopCode":"1294","lon":-71.057691,"lat":48.402355,"arrival":1522688485000,"departure":1522688820000,"zoneId":"NA","stopIndex":24,"stopSequence":25,"vertexType":"TRANSIT"},"legGeometry":{"points":"memfHriupLZXXZXV\\ZXXVV`@wAZXTTTT\\ZXVXVXXXVXV\\ZHUd@qAL[h@`AZl@FLLi@`@eC","length":26},"rentedBike":false,"transitLeg":false,"duration":385.0,"steps":[{"distance":375.43999999999994,"relativeDirection":"DEPART","streetName":"parking aisle","absoluteDirection":"SOUTHWEST","stayOn":false,"area":false,"bogusName":true,"lon":-71.0570537,"lat":48.405519700000006,"elevation":[]},{"distance":63.614000000000004,"relativeDirection":"RIGHT","streetName":"service road","absoluteDirection":"SOUTHWEST","stayOn":true,"area":false,"bogusName":true,"lon":-71.0579793,"lat":48.402928200000005,"elevation":[]},{"distance":70.008,"relativeDirection":"LEFT","streetName":"Rue des Saguenéens","absoluteDirection":"SOUTHEAST","stayOn":false,"area":false,"bogusName":false,"lon":-71.0586019,"lat":48.4025327,"elevation":[]}]},{"startTime":1522688820000,"endTime":1522688954000,"departureDelay":0,"arrivalDelay":0,"realTime":false,"distance":1257.9782126801708,"pathway":false,"mode":"BUS","route":"15","agencyName":"Société de Transport du Saguenay","agencyUrl":"http://ville.saguenay.ca/fr/services-aux-citoyens/transport-sts","agencyTimeZoneOffset":-14400000,"routeColor":"FF00FF","routeType":3,"routeId":"1:15","routeTextColor":"FFFFFF","interlineWithPreviousLeg":false,"tripBlockId":"31","headsign":"Talbot / Barrette","agencyId":"0","tripId":"1:218134","serviceDate":"20180402","from":{"name":"Place du Royaume (Saguenéens)","stopId":"1:1294","stopCode":"1294","lon":-71.057691,"lat":48.402355,"arrival":1522688485000,"departure":1522688820000,"zoneId":"NA","stopIndex":24,"stopSequence":25,"vertexType":"TRANSIT"},"to":{"name":"Roitelets (no. 1724)","stopId":"1:1547","stopCode":"1547","lon":-71.047286,"lat":48.397165,"arrival":1522688954000,"departure":1522688955000,"zoneId":"NA","stopIndex":28,"stopSequence":29,"vertexType":"TRANSIT"},"legGeometry":{"points":"_rlfHjmupLbCaO?qLa@uJzF`ApF~@~@PzAgEeDcBf@qAWcKUqEx@Ef@ExDVjDxAFB","length":17},"routeShortName":"15","routeLongName":"Term. Chic / Costco","rentedBike":false,"transitLeg":true,"duration":134.0,"steps":[]},{"startTime":1522688955000,"endTime":1522689021000,"departureDelay":0,"arrivalDelay":0,"realTime":false,"distance":74.319,"pathway":false,"mode":"WALK","route":"","agencyTimeZoneOffset":-14400000,"interlineWithPreviousLeg":false,"from":{"name":"Roitelets (no. 1724)","stopId":"1:1547","stopCode":"1547","lon":-71.047286,"lat":48.397165,"arrival":1522688954000,"departure":1522688955000,"zoneId":"NA","stopIndex":28,"stopSequence":29,"vertexType":"TRANSIT"},"to":{"name":"Destination","lon":-71.047089,"lat":48.397775,"arrival":1522689021000,"orig":"","vertexType":"NORMAL"},"legGeometry":{"points":"iqkfHxlspLMIALc@UcA[","length":5},"rentedBike":false,"transitLeg":false,"duration":66.0,"steps":[{"distance":8.383,"relativeDirection":"DEPART","streetName":"bike path","absoluteDirection":"NORTHEAST","stayOn":false,"area":false,"bogusName":true,"lon":-71.04732188793874,"lat":48.397176481197455,"elevation":[]},{"distance":5.473,"relativeDirection":"LEFT","streetName":"path","absoluteDirection":"WEST","stayOn":true,"area":false,"bogusName":true,"lon":-71.0472726,"lat":48.397244400000005,"elevation":[]},{"distance":60.463,"relativeDirection":"RIGHT","streetName":"Rue Des Roitelets","absoluteDirection":"NORTH","stayOn":false,"area":false,"bogusName":false,"lon":-71.04734350000001,"lat":48.3972588,"elevation":[]}]}],"tooSloped":false},{"duration":2475,"startTime":1522688346000,"endTime":1522690821000,"walkTime":744,"transitTime":1094,"waitingTime":637,"walkDistance":970.504812027661,"walkLimitExceeded":false,"elevationLost":0.0,"elevationGained":0.0,"transfers":2,"legs":[{"startTime":1522688346000,"endTime":1522688639000,"departureDelay":0,"arrivalDelay":0,"realTime":false,"distance":387.049,"pathway":false,"mode":"WALK","route":"","agencyTimeZoneOffset":-14400000,"interlineWithPreviousLeg":false,"from":{"name":"Origin","lon":-71.051247,"lat":48.354753,"departure":1522688346000,"orig":"","vertexType":"NORMAL"},"to":{"name":"boul. Royaume / ch. de l'Église","stopId":"1:1750","stopCode":"1750","lon":-71.055287,"lat":48.35702,"arrival":1522688639000,"departure":1522688640000,"zoneId":"NA","stopIndex":25,"stopSequence":26,"vertexType":"TRANSIT"},"legGeometry":{"points":"cjcfHlctpL_GzQk@bBWz@o@xB","length":5},"rentedBike":false,"transitLeg":false,"duration":293.0,"steps":[{"distance":387.049,"relativeDirection":"DEPART","streetName":"R 170","absoluteDirection":"NORTHWEST","stayOn":false,"area":false,"bogusName":false,"lon":-71.05094396541733,"lat":48.35506811714655,"elevation":[]}]},{"startTime":1522688640000,"endTime":1522689000000,"departureDelay":0,"arrivalDelay":0,"realTime":false,"distance":3628.618913781781,"pathway":false,"mode":"BUS","route":"60","agencyName":"Société de Transport du Saguenay","agencyUrl":"http://ville.saguenay.ca/fr/services-aux-citoyens/transport-sts","agencyTimeZoneOffset":-14400000,"routeColor":"00FFFF","routeType":3,"routeId":"1:60","routeTextColor":"000000","interlineWithPreviousLeg":false,"tripBlockId":"73","headsign":"Costco","agencyId":"0","tripId":"1:218620","serviceDate":"20180402","from":{"name":"boul. Royaume / ch. de l'Église","stopId":"1:1750","stopCode":"1750","lon":-71.055287,"lat":48.35702,"arrival":1522688639000,"departure":1522688640000,"zoneId":"NA","stopIndex":25,"stopSequence":26,"vertexType":"TRANSIT"},"to":{"name":"COSTCO","stopId":"1:1710","stopCode":"1710","lon":-71.085767,"lat":48.382333,"arrival":1522689000000,"departure":1522689300000,"zoneId":"NA","stopIndex":29,"stopSequence":30,"vertexType":"TRANSIT"},"legGeometry":{"points":"}ucfH~~tpLcFzO}@rB}@bBcCxCsAjAcAr@eClAsJdEoF~BsJdEsJbE@D_VpLiDtAqA\\cAp@[XY^O^Mb@Ij@Er@CtAE~@I~@Kj@Od@_e@rkAUReFdMIXyCtHwBcC","length":34},"routeShortName":"60","routeLongName":"Portage des Roches Nord","rentedBike":false,"transitLeg":true,"duration":360.0,"steps":[]},{"startTime":1522689300000,"endTime":1522689900000,"departureDelay":0,"arrivalDelay":0,"realTime":false,"distance":3532.3490999365067,"pathway":false,"mode":"BUS","route":"175","agencyName":"Société de Transport du Saguenay","agencyUrl":"http://ville.saguenay.ca/fr/services-aux-citoyens/transport-sts","agencyTimeZoneOffset":-14400000,"routeColor":"FF00FF","routeType":3,"routeId":"1:175","routeTextColor":"FFFFFF","interlineWithPreviousLeg":false,"tripBlockId":"9","headsign":"Terminus Chicoutimi","agencyId":"0","tripId":"1:217405","serviceDate":"20180402","from":{"name":"COSTCO","stopId":"1:1710","stopCode":"1710","lon":-71.085767,"lat":48.382333,"arrival":1522689000000,"departure":1522689300000,"zoneId":"NA","stopIndex":0,"stopSequence":1,"vertexType":"TRANSIT"},"to":{"name":"Place Royaume","stopId":"1:1801","stopCode":"1801","lon":-71.057017,"lat":48.405588,"arrival":1522689900000,"departure":1522689900000,"zoneId":"NA","stopIndex":10,"stopSequence":11,"vertexType":"TRANSIT"},"legGeometry":{"points":"euhfHt|zpL_BiBsCoDwCqDrCsGN_@uEoFoEiFUWSUqCwC]a@{ByC{@cAkJuKoAwA_CeCeExJ~AlB`@mAu@k@}@q@|C}Iw@}@aO_QkEsEiAoAgEsFkFsHqJ_N}FkImPkOuO{N","length":33},"routeShortName":"175","routeLongName":"Term. Chic / Costco","rentedBike":false,"transitLeg":true,"duration":600.0,"steps":[]},{"startTime":1522689900000,"endTime":1522690285000,"departureDelay":0,"arrivalDelay":0,"realTime":false,"distance":509.0619999999999,"pathway":false,"mode":"WALK","route":"","agencyTimeZoneOffset":-14400000,"interlineWithPreviousLeg":false,"from":{"name":"Place Royaume","stopId":"1:1801","stopCode":"1801","lon":-71.057017,"lat":48.405588,"arrival":1522689900000,"departure":1522689900000,"zoneId":"NA","stopIndex":10,"stopSequence":11,"vertexType":"TRANSIT"},"to":{"name":"Place du Royaume (Saguenéens)","stopId":"1:1294","stopCode":"1294","lon":-71.057691,"lat":48.402355,"arrival":1522690285000,"departure":1522690620000,"zoneId":"NA","stopIndex":24,"stopSequence":25,"vertexType":"TRANSIT"},"legGeometry":{"points":"memfHriupLZXXZXV\\ZXXVV`@wAZXTTTT\\ZXVXVXXXVXV\\ZHUd@qAL[h@`AZl@FLLi@`@eC","length":26},"rentedBike":false,"transitLeg":false,"duration":385.0,"steps":[{"distance":375.43999999999994,"relativeDirection":"DEPART","streetName":"parking aisle","absoluteDirection":"SOUTHWEST","stayOn":false,"area":false,"bogusName":true,"lon":-71.0570537,"lat":48.405519700000006,"elevation":[]},{"distance":63.614000000000004,"relativeDirection":"RIGHT","streetName":"service road","absoluteDirection":"SOUTHWEST","stayOn":true,"area":false,"bogusName":true,"lon":-71.0579793,"lat":48.402928200000005,"elevation":[]},{"distance":70.008,"relativeDirection":"LEFT","streetName":"Rue des Saguenéens","absoluteDirection":"SOUTHEAST","stayOn":false,"area":false,"bogusName":false,"lon":-71.0586019,"lat":48.4025327,"elevation":[]}]},{"startTime":1522690620000,"endTime":1522690754000,"departureDelay":0,"arrivalDelay":0,"realTime":false,"distance":1257.9782126801708,"pathway":false,"mode":"BUS","route":"15","agencyName":"Société de Transport du Saguenay","agencyUrl":"http://ville.saguenay.ca/fr/services-aux-citoyens/transport-sts","agencyTimeZoneOffset":-14400000,"routeColor":"FF00FF","routeType":3,"routeId":"1:15","routeTextColor":"FFFFFF","interlineWithPreviousLeg":false,"tripBlockId":"33","headsign":"Talbot / Barrette","agencyId":"0","tripId":"1:218185","serviceDate":"20180402","from":{"name":"Place du Royaume (Saguenéens)","stopId":"1:1294","stopCode":"1294","lon":-71.057691,"lat":48.402355,"arrival":1522690285000,"departure":1522690620000,"zoneId":"NA","stopIndex":24,"stopSequence":25,"vertexType":"TRANSIT"},"to":{"name":"Roitelets (no. 1724)","stopId":"1:1547","stopCode":"1547","lon":-71.047286,"lat":48.397165,"arrival":1522690754000,"departure":1522690755000,"zoneId":"NA","stopIndex":28,"stopSequence":29,"vertexType":"TRANSIT"},"legGeometry":{"points":"_rlfHjmupLbCaO?qLa@uJzF`ApF~@~@PzAgEeDcBf@qAWcKUqEx@Ef@ExDVjDxAFB","length":17},"routeShortName":"15","routeLongName":"Term. Chic / Costco","rentedBike":false,"transitLeg":true,"duration":134.0,"steps":[]},{"startTime":1522690755000,"endTime":1522690821000,"departureDelay":0,"arrivalDelay":0,"realTime":false,"distance":74.319,"pathway":false,"mode":"WALK","route":"","agencyTimeZoneOffset":-14400000,"interlineWithPreviousLeg":false,"from":{"name":"Roitelets (no. 1724)","stopId":"1:1547","stopCode":"1547","lon":-71.047286,"lat":48.397165,"arrival":1522690754000,"departure":1522690755000,"zoneId":"NA","stopIndex":28,"stopSequence":29,"vertexType":"TRANSIT"},"to":{"name":"Destination","lon":-71.047089,"lat":48.397775,"arrival":1522690821000,"orig":"","vertexType":"NORMAL"},"legGeometry":{"points":"iqkfHxlspLMIALc@UcA[","length":5},"rentedBike":false,"transitLeg":false,"duration":66.0,"steps":[{"distance":8.383,"relativeDirection":"DEPART","streetName":"bike path","absoluteDirection":"NORTHEAST","stayOn":false,"area":false,"bogusName":true,"lon":-71.04732188793874,"lat":48.397176481197455,"elevation":[]},{"distance":5.473,"relativeDirection":"LEFT","streetName":"path","absoluteDirection":"WEST","stayOn":true,"area":false,"bogusName":true,"lon":-71.0472726,"lat":48.397244400000005,"elevation":[]},{"distance":60.463,"relativeDirection":"RIGHT","streetName":"Rue Des Roitelets","absoluteDirection":"NORTH","stayOn":false,"area":false,"bogusName":false,"lon":-71.04734350000001,"lat":48.3972588,"elevation":[]}]}],"tooSloped":false},{"duration":3289,"startTime":1522688111000,"endTime":1522691400000,"walkTime":1629,"transitTime":1216,"waitingTime":444,"walkDistance":2108.9450977398724,"walkLimitExceeded":false,"elevationLost":0.0,"elevationGained":0.0,"transfers":1,"legs":[{"startTime":1522688111000,"endTime":1522688420000,"departureDelay":0,"arrivalDelay":0,"realTime":false,"distance":408.13,"pathway":false,"mode":"WALK","route":"","agencyTimeZoneOffset":-14400000,"interlineWithPreviousLeg":false,"from":{"name":"Origin","lon":-71.051247,"lat":48.354753,"departure":1522688111000,"orig":"","vertexType":"NORMAL"},"to":{"name":"boul. Royaume / ch. de l'Église","stopId":"1:1712","stopCode":"1712","lon":-71.055658,"lat":48.35698,"arrival":1522688420000,"departure":1522688421000,"zoneId":"NA","stopIndex":6,"stopSequence":7,"vertexType":"TRANSIT"},"legGeometry":{"points":"cjcfHlctpL_GzQk@bBWz@o@xBSn@","length":6},"rentedBike":false,"transitLeg":false,"duration":309.0,"steps":[{"distance":408.13,"relativeDirection":"DEPART","streetName":"R 170","absoluteDirection":"NORTHWEST","stayOn":false,"area":false,"bogusName":false,"lon":-71.05094396541733,"lat":48.35506811714655,"elevation":[]}]},{"startTime":1522688421000,"endTime":1522688690000,"departureDelay":0,"arrivalDelay":0,"realTime":false,"distance":4337.021578832454,"pathway":false,"mode":"BUS","route":"20S","agencyName":"Société de Transport du Saguenay","agencyUrl":"http://ville.saguenay.ca/fr/services-aux-citoyens/transport-sts","agencyTimeZoneOffset":-14400000,"routeColor":"8B0000","routeType":3,"routeId":"1:20S","routeTextColor":"FFFFFF","interlineWithPreviousLeg":false,"tripBlockId":"105","headsign":"Terminus La Baie","agencyId":"0","tripId":"1:218814","serviceDate":"20180402","from":{"name":"boul. Royaume / ch. de l'Église","stopId":"1:1712","stopCode":"1712","lon":-71.055658,"lat":48.35698,"arrival":1522688420000,"departure":1522688421000,"zoneId":"NA","stopIndex":6,"stopSequence":7,"vertexType":"TRANSIT"},"to":{"name":"ch. St-Anicet (no. 7132)","stopId":"1:1963","stopCode":"1963","lon":-71.00238,"lat":48.343323,"arrival":1522688690000,"departure":1522688690000,"zoneId":"NA","stopIndex":9,"stopSequence":10,"vertexType":"TRANSIT"},"legGeometry":{"points":"ovcfHn`upL|cA}`D~@wCbXcs@b@_B`@kCP{BDoBCaCIaBkA{O_@yHBC@EBCBE@C@E@E@G@E?E?G?E?G?GAEAEAGAEAECCCEACCCCCEACACAC?EAs@oHcCy[eBcU","length":44},"routeShortName":"20S","routeLongName":"Term. Baie <--> Cegep Jonq","rentedBike":false,"transitLeg":true,"duration":269.0,"steps":[]},{"startTime":1522688690000,"endTime":1522688696000,"departureDelay":0,"arrivalDelay":0,"realTime":false,"distance":4.869,"pathway":false,"mode":"WALK","route":"","agencyTimeZoneOffset":-14400000,"interlineWithPreviousLeg":false,"from":{"name":"ch. St-Anicet (no. 7132)","stopId":"1:1963","stopCode":"1963","lon":-71.00238,"lat":48.343323,"arrival":1522688690000,"departure":1522688690000,"zoneId":"NA","stopIndex":9,"stopSequence":10,"vertexType":"TRANSIT"},"to":{"name":"ch. St-Anicet (no. 7132)","stopId":"1:292","stopCode":"292","lon":-71.002358,"lat":48.343464,"arrival":1522688696000,"departure":1522689138000,"zoneId":"NA","stopIndex":20,"stopSequence":21,"vertexType":"TRANSIT"},"legGeometry":{"points":"eaafH`tjpLAM","length":2},"rentedBike":false,"transitLeg":false,"duration":6.0,"steps":[{"distance":4.869,"relativeDirection":"DEPART","streetName":"Chemin Saint-Anicet","absoluteDirection":"EAST","stayOn":false,"area":false,"bogusName":false,"lon":-71.00240191742498,"lat":48.343391113591004,"elevation":[]}]},{"startTime":1522689138000,"endTime":1522690085000,"departureDelay":0,"arrivalDelay":0,"realTime":false,"distance":12841.733357516057,"pathway":false,"mode":"BUS","route":"6","agencyName":"Société de Transport du Saguenay","agencyUrl":"http://ville.saguenay.ca/fr/services-aux-citoyens/transport-sts","agencyTimeZoneOffset":-14400000,"routeColor":"FF0000","routeType":3,"routeId":"1:6","routeTextColor":"FFFFFF","interlineWithPreviousLeg":false,"tripBlockId":"25","headsign":"Terminus UQAC","agencyId":"0","tripId":"1:217940","serviceDate":"20180402","from":{"name":"ch. St-Anicet (no. 7132)","stopId":"1:292","stopCode":"292","lon":-71.002358,"lat":48.343464,"arrival":1522688696000,"departure":1522689138000,"zoneId":"NA","stopIndex":20,"stopSequence":21,"vertexType":"TRANSIT"},"to":{"name":"boul. Université / Murdock","stopId":"1:59","stopCode":"59","lon":-71.049971,"lat":48.411755,"arrival":1522690085000,"departure":1522690086000,"zoneId":"NA","stopIndex":52,"stopSequence":53,"vertexType":"TRANSIT"},"legGeometry":{"points":"eaafHrsjpL`BnThCz\\V|HCBCBCDABCDAFAD?DAF?Dy@j@iDt@]F]AYEUM{HiIMQIKgCmCqF}FwQsR}MuNcN{NcDkD_EgEmNeO}WcYsHcImPgQqY{Z_@_@}IiJuAyAAAaMmMco@kp@qBuBaGpOgCrGgAjCgAxCwK|YoCrH}FvO{GxQmErLkEpL}EtMeAlCaB|CMRqApBmErFeAtAs@jAu@`Bm@bBOh@]zAeCpNUlA_A`EkArDmCdHgG`PwIdUkP|b@uBrFu@hBw@bBg@z@i@z@m@~@WXYZ}InJeDdDy@j@yAn@@^h@bI`@jDdC~Nb@~DpExr@TlC`A`Ob@dIFlFE~BCv@Cn@Gl@_@fIgBpGwAvC","length":101},"routeShortName":"6","routeLongName":"Term. Chic/Term. Baie via ch.Plateau","rentedBike":false,"transitLeg":true,"duration":947.0,"steps":[]},{"startTime":1522690086000,"endTime":1522691400000,"departureDelay":0,"arrivalDelay":0,"realTime":false,"distance":1695.8069999999998,"pathway":false,"mode":"WALK","route":"","agencyTimeZoneOffset":-14400000,"interlineWithPreviousLeg":false,"from":{"name":"boul. Université / Murdock","stopId":"1:59","stopCode":"59","lon":-71.049971,"lat":48.411755,"arrival":1522690085000,"departure":1522690086000,"zoneId":"NA","stopIndex":52,"stopSequence":53,"vertexType":"TRANSIT"},"to":{"name":"Destination","lon":-71.047089,"lat":48.397775,"arrival":1522691400000,"orig":"","vertexType":"NORMAL"},"legGeometry":{"points":"_lnfHx}spLZ}@VPxBeHF_@`@o@XMd@KJD~Av@j@XFBpAp@pG|Cl@V@@lB|@j@FL?j@GbCk@|A]vEsA^KBA|C{@pCeAbDsAj@WxCuAzAg@PEt@QbAMr@GnAAvAHx@JfAZ","length":39},"rentedBike":false,"transitLeg":false,"duration":1314.0,"steps":[{"distance":183.259,"relativeDirection":"DEPART","streetName":"Boulevard de l'Université","absoluteDirection":"SOUTHEAST","stayOn":false,"area":false,"bogusName":false,"lon":-71.05004245459075,"lat":48.41168714240219,"elevation":[]},{"distance":62.949,"relativeDirection":"SLIGHTLY_RIGHT","streetName":"link","absoluteDirection":"SOUTHEAST","stayOn":false,"area":false,"bogusName":true,"lon":-71.04819570000001,"lat":48.410774100000005,"elevation":[]},{"distance":1449.5989999999997,"relativeDirection":"SLIGHTLY_RIGHT","streetName":"Rue Des Roitelets","absoluteDirection":"SOUTH","stayOn":false,"area":false,"bogusName":false,"lon":-71.0478246,"lat":48.4102837,"elevation":[]}]}],"tooSloped":false}]},"debugOutput":{"precalculationTime":11,"pathCalculationTime":19,"pathTimes":[10,6,3],"renderingTime":1,"totalTime":31,"timedOut":false},"elevationMetadata":{"ellipsoidToGeoidDifference":-28.885904201182168,"geoidElevation":false}}