{"requestParameters":{"date":"2018/04/02","walkSpeed":"1.33","walkReluctance":"2.0","fromPlace":"48.412614,-71.072839","maxWalkDistance":"3000","waitReluctance":"1.0","carSpeed":"33","numItineraries":"3","waitAtBeginningFactor":"0.4","mode":"TRANSIT,WALK","ignoreRealtimeUpdates":"false","stairsReluctance":"2.0","toPlace":"48.425326,-71.051911","time":"7:0:00"},"plan":{"date":1522666800000,"from":{"name":"Origin","lon":-71.072839,"lat":48.412614,"orig":"","vertexType":"NORMAL"},"to":{"name":"Destination","lon":-71.051911,"lat":48.425326,"orig":"","vertexType":"NORMAL"},"itineraries":[{"duration":891,"startTime":1522667759000,"endTime":1522668650000,"walkTime":635,"transitTime":254,"waitingTime":2,"walkDistance":808.0654962358102,"walkLimitExceeded":false,"elevationLost":0.0,"elevationGained":0.0,"transfers":0,"legs":[{"startTime":1522667759000,"endTime":1522668179000,"departureDelay":0,"arrivalDelay":0,"realTime":false,"distance":544.192,"pathway":false,"mode":"WALK","route":"","agencyTimeZoneOffset":-14400000,"interlineWithPreviousLeg":false,"from":{"name":"Origin","lon":-71.072839,"lat":48.412614,"departure":1522667759000,"orig":"","vertexType":"NORMAL"},"to":{"name":"École secondaire de l'Odyssé Dominique-Racine","stopId":"1:580","stopCode":"580","lon":-71.067703,"lat":48.412977,"arrival":1522668179000,"departure":1522668180000,"zoneId":"NA","stopIndex":35,"stopSequence":36,"vertexType":"TRANSIT"},"legGeometry":{"points":"spnfHrjxpLiCcFuBeE{BuEb@kAh@yA|AiEHQTHz@t@","length":10},"rentedBike":false,"transitLeg":false,"duration":420.0,"steps":[{"distance":317.068,"relativeDirection":"DEPART","streetName":"Rue Jolliet","absoluteDirection":"NORTHEAST","stayOn":false,"area":false,"bogusName":false,"lon":-71.07257496837762,"lat":48.41242203320495,"elevation":[]},{"distance":174.902,"relativeDirection":"RIGHT","streetName":"Rue Des Oblats Est","absoluteDirection":"SOUTHEAST","stayOn":false,"area":false,"bogusName":false,"lon":-71.0693767,"lat":48.414325600000005,"elevation":[]},{"distance":52.222,"relativeDirection":"RIGHT","streetName":"Rue Bégin","absoluteDirection":"SOUTH","stayOn":false,"area":false,"bogusName":false,"lon":-71.06744280000001,"lat":48.413416500000004,"elevation":[]}]},{"startTime":1522668180000,"endTime":1522668434000,"departureDelay":0,"arrivalDelay":0,"realTime":false,"distance":1679.265999257755,"pathway":false,"mode":"BUS","route":"105S","agencyName":"Société de Transport du Saguenay","agencyUrl":"http://ville.saguenay.ca/fr/services-aux-citoyens/transport-sts","agencyTimeZoneOffset":-14400000,"routeColor":"8B0000","routeType":3,"routeId":"1:105S","routeTextColor":"FFFFFF","interlineWithPreviousLeg":false,"tripBlockId":"39","headsign":"Terminus Chicoutimi","agencyId":"0","tripId":"1:218335","serviceDate":"20180402","from":{"name":"École secondaire de l'Odyssé Dominique-Racine","stopId":"1:580","stopCode":"580","lon":-71.067703,"lat":48.412977,"arrival":1522668179000,"departure":1522668180000,"zoneId":"NA","stopIndex":35,"stopSequence":36,"vertexType":"TRANSIT"},"to":{"name":"Bégin / Jacques-Cartier","stopId":"1:561","stopCode":"561","lon":-71.05511,"lat":48.425555,"arrival":1522668434000,"departure":1522668435000,"zoneId":"NA","stopIndex":42,"stopSequence":43,"vertexType":"TRANSIT"},"legGeometry":{"points":"ktnfH~lwpLsAkAoBwB_EcE{A_BoAmAk@o@cCaCkIkIaJaJUUiCwCw@q@aD_D}MyMmEkE]a@","length":17},"routeShortName":"105S","routeLongName":"Terminus Chicoutimi via Bégin","rentedBike":false,"transitLeg":true,"duration":254.0,"steps":[]},{"startTime":1522668435000,"endTime":1522668650000,"departureDelay":0,"arrivalDelay":0,"realTime":false,"distance":263.7250000000001,"pathway":false,"mode":"WALK","route":"","agencyTimeZoneOffset":-14400000,"interlineWithPreviousLeg":false,"from":{"name":"Bégin / Jacques-Cartier","stopId":"1:561","stopCode":"561","lon":-71.05511,"lat":48.425555,"arrival":1522668434000,"departure":1522668435000,"zoneId":"NA","stopIndex":42,"stopSequence":43,"vertexType":"TRANSIT"},"to":{"name":"Destination","lon":-71.051911,"lat":48.425326,"arrival":1522668650000,"orig":"","vertexType":"NORMAL"},"legGeometry":{"points":"ybqfHv}tpLa@a@EOK]E[Ai@\\iAJc@@GNgB@g@FyAHuBVF","length":14},"rentedBike":false,"transitLeg":false,"duration":215.0,"steps":[{"distance":22.777,"relativeDirection":"DEPART","streetName":"Rue Bégin","absoluteDirection":"NORTHEAST","stayOn":false,"area":false,"bogusName":false,"lon":-71.05515571766598,"lat":48.425575326522214,"elevation":[]},{"distance":45.819,"relativeDirection":"SLIGHTLY_RIGHT","streetName":"link","absoluteDirection":"NORTHEAST","stayOn":false,"area":false,"bogusName":true,"lon":-71.05498390000001,"lat":48.425745500000005,"elevation":[]},{"distance":181.16,"relativeDirection":"SLIGHTLY_RIGHT","streetName":"Rue Jacques-Cartier Est","absoluteDirection":"SOUTHEAST","stayOn":false,"area":false,"bogusName":false,"lon":-71.054406,"lat":48.425870200000006,"elevation":[]},{"distance":13.969,"relativeDirection":"RIGHT","streetName":"service road","absoluteDirection":"SOUTH","stayOn":false,"area":false,"bogusName":false,"lon":-71.05205670000001,"lat":48.4254766,"elevation":[]}]}],"tooSloped":false},{"duration":1070,"startTime":1522667966000,"endTime":1522669036000,"walkTime":635,"transitTime":433,"waitingTime":2,"walkDistance":808.0654962358102,"walkLimitExceeded":false,"elevationLost":0.0,"elevationGained":0.0,"transfers":0,"legs":[{"startTime":1522667966000,"endTime":1522668386000,"departureDelay":0,"arrivalDelay":0,"realTime":false,"distance":544.192,"pathway":false,"mode":"WALK","route":"","agencyTimeZoneOffset":-14400000,"interlineWithPreviousLeg":false,"from":{"name":"Origin","lon":-71.072839,"lat":48.412614,"departure":1522667966000,"orig":"","vertexType":"NORMAL"},"to":{"name":"École secondaire de l'Odyssé Dominique-Racine","stopId":"1:580","stopCode":"580","lon":-71.067703,"lat":48.412977,"arrival":1522668386000,"departure":1522668387000,"zoneId":"NA","stopIndex":24,"stopSequence":25,"vertexType":"TRANSIT"},"legGeometry":{"points":"spnfHrjxpLiCcFuBeE{BuEb@kAh@yA|AiEHQTHz@t@","length":10},"rentedBike":false,"transitLeg":false,"duration":420.0,"steps":[{"distance":317.068,"relativeDirection":"DEPART","streetName":"Rue Jolliet","absoluteDirection":"NORTHEAST","stayOn":false,"area":false,"bogusName":false,"lon":-71.07257496837762,"lat":48.41242203320495,"elevation":[]},{"distance":174.902,"relativeDirection":"RIGHT","streetName":"Rue Des Oblats Est","absoluteDirection":"SOUTHEAST","stayOn":false,"area":false,"bogusName":false,"lon":-71.0693767,"lat":48.414325600000005,"elevation":[]},{"distance":52.222,"relativeDirection":"RIGHT","streetName":"Rue Bégin","absoluteDirection":"SOUTH","stayOn":false,"area":false,"bogusName":false,"lon":-71.06744280000001,"lat":48.413416500000004,"elevation":[]}]},{"startTime":1522668387000,"endTime":1522668820000,"departureDelay":0,"arrivalDelay":0,"realTime":false,"distance":2191.1030622977682,"pathway":false,"mode":"BUS","route":"15","agencyName":"Société de Transport du Saguenay","agencyUrl":"http://ville.saguenay.ca/fr/services-aux-citoyens/transport-sts","agencyTimeZoneOffset":-14400000,"routeColor":"FF00FF","routeType":3,"routeId":"1:15","routeTextColor":"FFFFFF","interlineWithPreviousLeg":false,"tripBlockId":"30","headsign":"Terminus Chicoutimi","agencyId":"0","tripId":"1:218088","serviceDate":"20180402","from":{"name":"École secondaire de l'Odyssé Dominique-Racine","stopId":"1:580","stopCode":"580","lon":-71.067703,"lat":48.412977,"arrival":1522668386000,"departure":1522668387000,"zoneId":"NA","stopIndex":24,"stopSequence":25,"vertexType":"TRANSIT"},"to":{"name":"Bégin / Jacques-Cartier","stopId":"1:561","stopCode":"561","lon":-71.05511,"lat":48.425555,"arrival":1522668820000,"departure":1522668821000,"zoneId":"NA","stopIndex":33,"stopSequence":34,"vertexType":"TRANSIT"},"legGeometry":{"points":"ktnfH~lwpLsAkAoBwB_EcE{A_BoAmAk@o@cCaCkIkIaJaJUUwBaCj@wCjAsCzGoG_CoHL{D_@kAqD{CQr@iAcAy@w@L{@wAuA_B_B_EpLDh@NbBVvCIxBg@`Am@l@Sb@a@rAqDqDmEkE]a@","length":37},"routeShortName":"15","routeLongName":"Term. Chic / Costco","rentedBike":false,"transitLeg":true,"duration":433.0,"steps":[]},{"startTime":1522668821000,"endTime":1522669036000,"departureDelay":0,"arrivalDelay":0,"realTime":false,"distance":263.7250000000001,"pathway":false,"mode":"WALK","route":"","agencyTimeZoneOffset":-14400000,"interlineWithPreviousLeg":false,"from":{"name":"Bégin / Jacques-Cartier","stopId":"1:561","stopCode":"561","lon":-71.05511,"lat":48.425555,"arrival":1522668820000,"departure":1522668821000,"zoneId":"NA","stopIndex":33,"stopSequence":34,"vertexType":"TRANSIT"},"to":{"name":"Destination","lon":-71.051911,"lat":48.425326,"arrival":1522669036000,"orig":"","vertexType":"NORMAL"},"legGeometry":{"points":"ybqfHv}tpLa@a@EOK]E[Ai@\\iAJc@@GNgB@g@FyAHuBVF","length":14},"rentedBike":false,"transitLeg":false,"duration":215.0,"steps":[{"distance":22.777,"relativeDirection":"DEPART","streetName":"Rue Bégin","absoluteDirection":"NORTHEAST","stayOn":false,"area":false,"bogusName":false,"lon":-71.05515571766598,"lat":48.425575326522214,"elevation":[]},{"distance":45.819,"relativeDirection":"SLIGHTLY_RIGHT","streetName":"link","absoluteDirection":"NORTHEAST","stayOn":false,"area":false,"bogusName":true,"lon":-71.05498390000001,"lat":48.425745500000005,"elevation":[]},{"distance":181.16,"relativeDirection":"SLIGHTLY_RIGHT","streetName":"Rue Jacques-Cartier Est","absoluteDirection":"SOUTHEAST","stayOn":false,"area":false,"bogusName":false,"lon":-71.054406,"lat":48.425870200000006,"elevation":[]},{"distance":13.969,"relativeDirection":"RIGHT","streetName":"service road","absoluteDirection":"SOUTH","stayOn":false,"area":false,"bogusName":false,"lon":-71.05205670000001,"lat":48.4254766,"elevation":[]}]}],"tooSloped":false},{"duration":1421,"startTime":1522667640000,"endTime":1522669061000,"walkTime":595,"transitTime":824,"waitingTime":2,"walkDistance":754.3492105219854,"walkLimitExceeded":false,"elevationLost":0.0,"elevationGained":0.0,"transfers":0,"legs":[{"startTime":1522667640000,"endTime":1522668020000,"departureDelay":0,"arrivalDelay":0,"realTime":false,"distance":490.49,"pathway":false,"mode":"WALK","route":"","agencyTimeZoneOffset":-14400000,"interlineWithPreviousLeg":false,"from":{"name":"Origin","lon":-71.072839,"lat":48.412614,"departure":1522667640000,"orig":"","vertexType":"NORMAL"},"to":{"name":"Jolliet / Garnier","stopId":"1:429","stopCode":"429","lon":-71.077656,"lat":48.410118,"arrival":1522668020000,"departure":1522668021000,"zoneId":"NA","stopIndex":20,"stopSequence":21,"vertexType":"TRANSIT"},"legGeometry":{"points":"spnfHrjxpL`AjB@R^jF`@rFPxBjBjBh@f@dCxBTT","length":10},"rentedBike":false,"transitLeg":false,"duration":380.0,"steps":[{"distance":490.49,"relativeDirection":"DEPART","streetName":"Rue Jolliet","absoluteDirection":"SOUTHWEST","stayOn":false,"area":false,"bogusName":false,"lon":-71.07257496837762,"lat":48.41242203320495,"elevation":[]}]},{"startTime":1522668021000,"endTime":1522668845000,"departureDelay":0,"arrivalDelay":0,"realTime":false,"distance":3600.14122730855,"pathway":false,"mode":"BUS","route":"14","agencyName":"Société de Transport du Saguenay","agencyUrl":"http://ville.saguenay.ca/fr/services-aux-citoyens/transport-sts","agencyTimeZoneOffset":-14400000,"routeColor":"C0C000","routeType":3,"routeId":"1:14","routeTextColor":"000000","interlineWithPreviousLeg":false,"tripBlockId":"31","headsign":"Terminus Chicoutimi","agencyId":"0","tripId":"1:218123","serviceDate":"20180402","from":{"name":"Jolliet / Garnier","stopId":"1:429","stopCode":"429","lon":-71.077656,"lat":48.410118,"arrival":1522668020000,"departure":1522668021000,"zoneId":"NA","stopIndex":20,"stopSequence":21,"vertexType":"TRANSIT"},"to":{"name":"Bégin / Jacques-Cartier","stopId":"1:561","stopCode":"561","lon":-71.05511,"lat":48.425555,"arrival":1522668845000,"departure":1522668846000,"zoneId":"NA","stopIndex":33,"stopSequence":34,"vertexType":"TRANSIT"},"legGeometry":{"points":"ibnfHpjypLSUgAhDiAfD}@zDyAcA_@Um@U{AWgB_Au@s@EEsBkCqFgF{IiI][aBhE}@}@oBmBwE{EwE{Ej@mBZeAa@SyEQg@CPcALuCx@{b@t@{[XoDd@sBl@iB~@gA`G{F{A{D_@sBFqDOq@iG{FGIoCkCgBgBsDpLHzBBT`@~COnBQf@gAjAg@bBuDmDmFgF","length":53},"routeShortName":"14","routeLongName":"Coopérative","rentedBike":false,"transitLeg":true,"duration":824.0,"steps":[]},{"startTime":1522668846000,"endTime":1522669061000,"departureDelay":0,"arrivalDelay":0,"realTime":false,"distance":263.7250000000001,"pathway":false,"mode":"WALK","route":"","agencyTimeZoneOffset":-14400000,"interlineWithPreviousLeg":false,"from":{"name":"Bégin / Jacques-Cartier","stopId":"1:561","stopCode":"561","lon":-71.05511,"lat":48.425555,"arrival":1522668845000,"departure":1522668846000,"zoneId":"NA","stopIndex":33,"stopSequence":34,"vertexType":"TRANSIT"},"to":{"name":"Destination","lon":-71.051911,"lat":48.425326,"arrival":1522669061000,"orig":"","vertexType":"NORMAL"},"legGeometry":{"points":"ybqfHv}tpLa@a@EOK]E[Ai@\\iAJc@@GNgB@g@FyAHuBVF","length":14},"rentedBike":false,"transitLeg":false,"duration":215.0,"steps":[{"distance":22.777,"relativeDirection":"DEPART","streetName":"Rue Bégin","absoluteDirection":"NORTHEAST","stayOn":false,"area":false,"bogusName":false,"lon":-71.05515571766598,"lat":48.425575326522214,"elevation":[]},{"distance":45.819,"relativeDirection":"SLIGHTLY_RIGHT","streetName":"link","absoluteDirection":"NORTHEAST","stayOn":false,"area":false,"bogusName":true,"lon":-71.05498390000001,"lat":48.425745500000005,"elevation":[]},{"distance":181.16,"relativeDirection":"SLIGHTLY_RIGHT","streetName":"Rue Jacques-Cartier Est","absoluteDirection":"SOUTHEAST","stayOn":false,"area":false,"bogusName":false,"lon":-71.054406,"lat":48.425870200000006,"elevation":[]},{"distance":13.969,"relativeDirection":"RIGHT","streetName":"service road","absoluteDirection":"SOUTH","stayOn":false,"area":false,"bogusName":false,"lon":-71.05205670000001,"lat":48.4254766,"elevation":[]}]}],"tooSloped":false}]},"debugOutput":{"precalculationTime":31,"pathCalculationTime":24,"pathTimes":[15,3,6],"renderingTime":1,"totalTime":56,"timedOut":false},"elevationMetadata":{"ellipsoidToGeoidDifference":-28.885904201182168,"geoidElevation":false}}