{"requestParameters":{"date":"2018/04/02","walkSpeed":"1.33","walkReluctance":"2.0","fromPlace":"48.321775,-71.124672","maxWalkDistance":"3000","waitReluctance":"1.0","carSpeed":"33","numItineraries":"3","waitAtBeginningFactor":"0.4","mode":"TRANSIT,WALK","ignoreRealtimeUpdates":"false","stairsReluctance":"2.0","toPlace":"48.306777,-71.11220699","time":"16:45:00"},"plan":{"date":1522701900000,"from":{"name":"Origin","lon":-71.124672,"lat":48.321775,"orig":"","vertexType":"NORMAL"},"to":{"name":"Destination","lon":-71.11220699,"lat":48.306777,"orig":"","vertexType":"NORMAL"},"itineraries":[{"duration":1307,"startTime":1522701900000,"endTime":1522703207000,"walkTime":1307,"transitTime":0,"waitingTime":0,"walkDistance":1721.5160225560994,"walkLimitExceeded":false,"elevationLost":0.0,"elevationGained":0.0,"transfers":0,"legs":[{"startTime":1522701900000,"endTime":1522703207000,"departureDelay":0,"arrivalDelay":0,"realTime":false,"distance":1721.5069999999996,"pathway":false,"mode":"WALK","route":"","agencyTimeZoneOffset":-14400000,"interlineWithPreviousLeg":false,"from":{"name":"Origin","lon":-71.124672,"lat":48.321775,"departure":1522701900000,"orig":"","vertexType":"NORMAL"},"to":{"name":"Destination","lon":-71.11220699,"lat":48.306777,"arrival":1522703207000,"orig":"","vertexType":"NORMAL"},"legGeometry":{"points":"mw{eHjscqLpJwX?CbDiJ@CzEmNpBuFFQlHuSf@yA@AXq@`@q@zAiCj@s@PMBCjGcFp@y@d@u@jAwC^w@LY","length":23},"rentedBike":false,"transitLeg":false,"duration":1307.0,"steps":[{"distance":1721.5069999999996,"relativeDirection":"DEPART","streetName":"Rue du Boulevard","absoluteDirection":"SOUTHEAST","stayOn":false,"area":false,"bogusName":false,"lon":-71.13029191764069,"lat":48.31623456917295,"elevation":[]}]}],"tooSloped":false},{"duration":246,"startTime":1522703661000,"endTime":1522703907000,"walkTime":156,"transitTime":88,"waitingTime":2,"walkDistance":198.19833082602446,"walkLimitExceeded":false,"elevationLost":0.0,"elevationGained":0.0,"transfers":0,"legs":[{"startTime":1522703661000,"endTime":1522703671000,"departureDelay":0,"arrivalDelay":0,"realTime":false,"distance":11.79,"pathway":false,"mode":"WALK","route":"","agencyTimeZoneOffset":-14400000,"interlineWithPreviousLeg":false,"from":{"name":"Origin","lon":-71.124672,"lat":48.321775,"departure":1522703661000,"orig":"","vertexType":"NORMAL"},"to":{"name":"Boulevard (no. 1557)","stopId":"1:2127","stopCode":"2127","lon":-71.130498,"lat":48.316221,"arrival":1522703671000,"departure":1522703672000,"zoneId":"NA","stopIndex":8,"stopSequence":9,"vertexType":"TRANSIT"},"legGeometry":{"points":"mw{eHjscqLKV?@","length":3},"rentedBike":false,"transitLeg":false,"duration":10.0,"steps":[{"distance":11.79,"relativeDirection":"DEPART","streetName":"Rue du Boulevard","absoluteDirection":"NORTHWEST","stayOn":false,"area":false,"bogusName":false,"lon":-71.13029191764069,"lat":48.31623456917295,"elevation":[]}]},{"startTime":1522703672000,"endTime":1522703760000,"departureDelay":0,"arrivalDelay":0,"realTime":false,"distance":1776.1606211812295,"pathway":false,"mode":"BUS","route":"62","agencyName":"Société de Transport du Saguenay","agencyUrl":"http://ville.saguenay.ca/fr/services-aux-citoyens/transport-sts","agencyTimeZoneOffset":-14400000,"routeColor":"00FFFF","routeType":3,"routeId":"1:62","routeTextColor":"000000","interlineWithPreviousLeg":false,"tripBlockId":"95","headsign":"Costco","agencyId":"0","tripId":"1:218719","serviceDate":"20180402","from":{"name":"Boulevard (no. 1557)","stopId":"1:2127","stopCode":"2127","lon":-71.130498,"lat":48.316221,"arrival":1522703671000,"departure":1522703672000,"zoneId":"NA","stopIndex":8,"stopSequence":9,"vertexType":"TRANSIT"},"to":{"name":"Notre-Dame / Gauthier","stopId":"1:1737","stopCode":"1737","lon":-71.110501,"lat":48.307493,"arrival":1522703760000,"departure":1522703761000,"zoneId":"NA","stopIndex":14,"stopSequence":15,"vertexType":"TRANSIT"},"legGeometry":{"points":"uw{eHhtcqL`KqYbDiJpIeV|IcWv@{Bh@cAf@u@Z]l@e@dBsAjCwBv@u@nA{BdCaGOOqAoBwA{B[i@","length":19},"routeShortName":"62","routeLongName":"Portage des Roches Sud","rentedBike":false,"transitLeg":true,"duration":88.0,"steps":[]},{"startTime":1522703761000,"endTime":1522703907000,"departureDelay":0,"arrivalDelay":0,"realTime":false,"distance":186.376,"pathway":false,"mode":"WALK","route":"","agencyTimeZoneOffset":-14400000,"interlineWithPreviousLeg":false,"from":{"name":"Notre-Dame / Gauthier","stopId":"1:1737","stopCode":"1737","lon":-71.110501,"lat":48.307493,"arrival":1522703760000,"departure":1522703761000,"zoneId":"NA","stopIndex":14,"stopSequence":15,"vertexType":"TRANSIT"},"to":{"name":"Destination","lon":-71.11220699,"lat":48.306777,"arrival":1522703907000,"orig":"","vertexType":"NORMAL"},"legGeometry":{"points":"cazeHdx_qLFLNVvDbG[v@","length":5},"rentedBike":false,"transitLeg":false,"duration":146.0,"steps":[{"distance":160.031,"relativeDirection":"DEPART","streetName":"Rue Notre-Dame","absoluteDirection":"SOUTHWEST","stayOn":false,"area":false,"bogusName":false,"lon":-71.11058814414332,"lat":48.30754888257977,"elevation":[]},{"distance":26.345,"relativeDirection":"RIGHT","streetName":"Rue du Boulevard","absoluteDirection":"NORTHWEST","stayOn":false,"area":false,"bogusName":false,"lon":-71.1120744,"lat":48.306503000000006,"elevation":[]}]}],"tooSloped":false}]},"debugOutput":{"precalculationTime":2,"pathCalculationTime":8,"pathTimes":[0,3,5],"renderingTime":1,"totalTime":11,"timedOut":false},"elevationMetadata":{"ellipsoidToGeoidDifference":-28.885904201182168,"geoidElevation":false}}