{"requestParameters":{"date":"2018/04/02","walkSpeed":"1.33","walkReluctance":"2.0","fromPlace":"48.412858,-71.072517","maxWalkDistance":"3000","waitReluctance":"1.0","carSpeed":"33","numItineraries":"3","waitAtBeginningFactor":"0.4","mode":"TRANSIT,WALK","ignoreRealtimeUpdates":"false","stairsReluctance":"2.0","toPlace":"48.40924,-71.05257199","time":"16:0:00"},"plan":{"date":1522699200000,"from":{"name":"Origin","lon":-71.072517,"lat":48.412858,"orig":"","vertexType":"NORMAL"},"to":{"name":"Destination","lon":-71.05257199,"lat":48.40924,"orig":"","vertexType":"NORMAL"},"itineraries":[{"duration":1154,"startTime":1522699438000,"endTime":1522700592000,"walkTime":953,"transitTime":199,"waitingTime":2,"walkDistance":1218.7135488650963,"walkLimitExceeded":false,"elevationLost":0.0,"elevationGained":0.0,"transfers":0,"legs":[{"startTime":1522699438000,"endTime":1522700099000,"departureDelay":0,"arrivalDelay":0,"realTime":false,"distance":854.6139999999999,"pathway":false,"mode":"WALK","route":"","agencyTimeZoneOffset":-14400000,"interlineWithPreviousLeg":false,"from":{"name":"Origin","lon":-71.072517,"lat":48.412858,"departure":1522699438000,"orig":"","vertexType":"NORMAL"},"to":{"name":"Champs-Élysées / Bégin","stopId":"1:566","stopCode":"566","lon":-71.064237,"lat":48.415762,"arrival":1522700099000,"departure":1522700100000,"zoneId":"NA","stopIndex":7,"stopSequence":8,"vertexType":"TRANSIT"},"legGeometry":{"points":"}qnfHjhxpL_B{CuBeE{BuEb@kAh@yA|AiEHQ_BwBsCqCw@w@CCGGsCqCMOo@m@j@kB","length":17},"rentedBike":false,"transitLeg":false,"duration":661.0,"steps":[{"distance":281.22299999999996,"relativeDirection":"DEPART","streetName":"Rue Jolliet","absoluteDirection":"NORTHEAST","stayOn":false,"area":false,"bogusName":false,"lon":-71.0722163013047,"lat":48.412639376146196,"elevation":[]},{"distance":174.902,"relativeDirection":"RIGHT","streetName":"Rue Des Oblats Est","absoluteDirection":"SOUTHEAST","stayOn":false,"area":false,"bogusName":false,"lon":-71.0693767,"lat":48.414325600000005,"elevation":[]},{"distance":352.20399999999995,"relativeDirection":"LEFT","streetName":"Rue Bégin","absoluteDirection":"NORTHEAST","stayOn":false,"area":false,"bogusName":false,"lon":-71.06744280000001,"lat":48.413416500000004,"elevation":[]},{"distance":46.285,"relativeDirection":"RIGHT","streetName":"Rue des Champs-Élysées","absoluteDirection":"SOUTHEAST","stayOn":false,"area":false,"bogusName":false,"lon":-71.0647342,"lat":48.416021,"elevation":[]}]},{"startTime":1522700100000,"endTime":1522700299000,"departureDelay":0,"arrivalDelay":0,"realTime":false,"distance":1094.765474814512,"pathway":false,"mode":"BUS","route":"12","agencyName":"Société de Transport du Saguenay","agencyUrl":"http://ville.saguenay.ca/fr/services-aux-citoyens/transport-sts","agencyTimeZoneOffset":-14400000,"routeColor":"556B2F","routeType":3,"routeId":"1:12","routeTextColor":"FFFFFF","interlineWithPreviousLeg":false,"tripBlockId":"26","headsign":"Terminus Chicoutimi","agencyId":"0","tripId":"1:217983","serviceDate":"20180402","from":{"name":"Champs-Élysées / Bégin","stopId":"1:566","stopCode":"566","lon":-71.064237,"lat":48.415762,"arrival":1522700099000,"departure":1522700100000,"zoneId":"NA","stopIndex":7,"stopSequence":8,"vertexType":"TRANSIT"},"to":{"name":"Place du Saguenay (Champs-Élysées)","stopId":"1:571","stopCode":"571","lon":-71.055824,"lat":48.408307,"arrival":1522700299000,"departure":1522700300000,"zoneId":"NA","stopIndex":12,"stopSequence":13,"vertexType":"TRANSIT"},"legGeometry":{"points":"oeofHnvvpLlAgIdCmFbAqDtBeCjFm@`Gs@hFo@xAmBrGcP","length":10},"routeShortName":"12","routeLongName":"Rivière du Moulin","rentedBike":false,"transitLeg":true,"duration":199.0,"steps":[]},{"startTime":1522700300000,"endTime":1522700592000,"departureDelay":0,"arrivalDelay":0,"realTime":false,"distance":363.88,"pathway":false,"mode":"WALK","route":"","agencyTimeZoneOffset":-14400000,"interlineWithPreviousLeg":false,"from":{"name":"Place du Saguenay (Champs-Élysées)","stopId":"1:571","stopCode":"571","lon":-71.055824,"lat":48.408307,"arrival":1522700299000,"departure":1522700300000,"zoneId":"NA","stopIndex":12,"stopSequence":13,"vertexType":"TRANSIT"},"to":{"name":"Destination","lon":-71.05257199,"lat":48.40924,"arrival":1522700592000,"orig":"","vertexType":"NORMAL"},"legGeometry":{"points":"iwmfHnaupLl@}AFQNa@qFaFEW?WD]L]n@kBHO{@{@","length":12},"rentedBike":false,"transitLeg":false,"duration":292.0,"steps":[{"distance":66.05199999999999,"relativeDirection":"DEPART","streetName":"Rue des Champs-Élysées","absoluteDirection":"SOUTHEAST","stayOn":false,"area":false,"bogusName":false,"lon":-71.05575512063196,"lat":48.408370203803415,"elevation":[]},{"distance":158.108,"relativeDirection":"LEFT","streetName":"Boulevard Talbot","absoluteDirection":"NORTHEAST","stayOn":false,"area":false,"bogusName":false,"lon":-71.05502820000001,"lat":48.4080238,"elevation":[]},{"distance":139.72,"relativeDirection":"RIGHT","streetName":"service road","absoluteDirection":"EAST","stayOn":false,"area":false,"bogusName":true,"lon":-71.0538959,"lat":48.4092308,"elevation":[]}]}],"tooSloped":false},{"duration":1825,"startTime":1522699200000,"endTime":1522701025000,"walkTime":1825,"transitTime":0,"waitingTime":0,"walkDistance":2343.0000751789325,"walkLimitExceeded":false,"elevationLost":0.0,"elevationGained":0.0,"transfers":0,"legs":[{"startTime":1522699200000,"endTime":1522701025000,"departureDelay":0,"arrivalDelay":0,"realTime":false,"distance":2342.7199999999993,"pathway":false,"mode":"WALK","route":"","agencyTimeZoneOffset":-14400000,"interlineWithPreviousLeg":false,"from":{"name":"Origin","lon":-71.072517,"lat":48.412858,"departure":1522699200000,"orig":"","vertexType":"NORMAL"},"to":{"name":"Destination","lon":-71.05257199,"lat":48.40924,"arrival":1522701025000,"orig":"","vertexType":"NORMAL"},"legGeometry":{"points":"}qnfHjhxpL_B{CuBeE{BuEb@kAh@yA|AiEHQ_BwBsCqCw@w@CCGGsCqCMOo@m@j@kB??FQNi@bA}FnAoDd@qA??hAcDXa@^e@bAq@~@OxCc@LABA|Fs@B?hAMvC_@`@a@n@}A?A`@}@lCcHd@aAL]Na@\\}@l@}AFQNa@qFaFEW?WD]L]n@kBHO{@{@","length":56},"rentedBike":false,"transitLeg":false,"duration":1825.0,"steps":[{"distance":281.22299999999996,"relativeDirection":"DEPART","streetName":"Rue Jolliet","absoluteDirection":"NORTHEAST","stayOn":false,"area":false,"bogusName":false,"lon":-71.0722163013047,"lat":48.412639376146196,"elevation":[]},{"distance":174.902,"relativeDirection":"RIGHT","streetName":"Rue Des Oblats Est","absoluteDirection":"SOUTHEAST","stayOn":false,"area":false,"bogusName":false,"lon":-71.0693767,"lat":48.414325600000005,"elevation":[]},{"distance":352.20399999999995,"relativeDirection":"LEFT","streetName":"Rue Bégin","absoluteDirection":"NORTHEAST","stayOn":false,"area":false,"bogusName":false,"lon":-71.06744280000001,"lat":48.413416500000004,"elevation":[]},{"distance":1236.5629999999999,"relativeDirection":"RIGHT","streetName":"Rue des Champs-Élysées","absoluteDirection":"SOUTHEAST","stayOn":false,"area":false,"bogusName":false,"lon":-71.0647342,"lat":48.416021,"elevation":[]},{"distance":158.108,"relativeDirection":"LEFT","streetName":"Boulevard Talbot","absoluteDirection":"NORTHEAST","stayOn":false,"area":false,"bogusName":false,"lon":-71.05502820000001,"lat":48.4080238,"elevation":[]},{"distance":139.72,"relativeDirection":"RIGHT","streetName":"service road","absoluteDirection":"EAST","stayOn":false,"area":false,"bogusName":true,"lon":-71.0538959,"lat":48.4092308,"elevation":[]}]}],"tooSloped":false},{"duration":1154,"startTime":1522701238000,"endTime":1522702392000,"walkTime":953,"transitTime":199,"waitingTime":2,"walkDistance":1218.7135488650963,"walkLimitExceeded":false,"elevationLost":0.0,"elevationGained":0.0,"transfers":0,"legs":[{"startTime":1522701238000,"endTime":1522701899000,"departureDelay":0,"arrivalDelay":0,"realTime":false,"distance":854.6139999999999,"pathway":false,"mode":"WALK","route":"","agencyTimeZoneOffset":-14400000,"interlineWithPreviousLeg":false,"from":{"name":"Origin","lon":-71.072517,"lat":48.412858,"departure":1522701238000,"orig":"","vertexType":"NORMAL"},"to":{"name":"Champs-Élysées / Bégin","stopId":"1:566","stopCode":"566","lon":-71.064237,"lat":48.415762,"arrival":1522701899000,"departure":1522701900000,"zoneId":"NA","stopIndex":7,"stopSequence":8,"vertexType":"TRANSIT"},"legGeometry":{"points":"}qnfHjhxpL_B{CuBeE{BuEb@kAh@yA|AiEHQ_BwBsCqCw@w@CCGGsCqCMOo@m@j@kB","length":17},"rentedBike":false,"transitLeg":false,"duration":661.0,"steps":[{"distance":281.22299999999996,"relativeDirection":"DEPART","streetName":"Rue Jolliet","absoluteDirection":"NORTHEAST","stayOn":false,"area":false,"bogusName":false,"lon":-71.0722163013047,"lat":48.412639376146196,"elevation":[]},{"distance":174.902,"relativeDirection":"RIGHT","streetName":"Rue Des Oblats Est","absoluteDirection":"SOUTHEAST","stayOn":false,"area":false,"bogusName":false,"lon":-71.0693767,"lat":48.414325600000005,"elevation":[]},{"distance":352.20399999999995,"relativeDirection":"LEFT","streetName":"Rue Bégin","absoluteDirection":"NORTHEAST","stayOn":false,"area":false,"bogusName":false,"lon":-71.06744280000001,"lat":48.413416500000004,"elevation":[]},{"distance":46.285,"relativeDirection":"RIGHT","streetName":"Rue des Champs-Élysées","absoluteDirection":"SOUTHEAST","stayOn":false,"area":false,"bogusName":false,"lon":-71.0647342,"lat":48.416021,"elevation":[]}]},{"startTime":1522701900000,"endTime":1522702099000,"departureDelay":0,"arrivalDelay":0,"realTime":false,"distance":1094.765474814512,"pathway":false,"mode":"BUS","route":"12","agencyName":"Société de Transport du Saguenay","agencyUrl":"http://ville.saguenay.ca/fr/services-aux-citoyens/transport-sts","agencyTimeZoneOffset":-14400000,"routeColor":"556B2F","routeType":3,"routeId":"1:12","routeTextColor":"FFFFFF","interlineWithPreviousLeg":false,"tripBlockId":"29","headsign":"Terminus Chicoutimi","agencyId":"0","tripId":"1:218072","serviceDate":"20180402","from":{"name":"Champs-Élysées / Bégin","stopId":"1:566","stopCode":"566","lon":-71.064237,"lat":48.415762,"arrival":1522701899000,"departure":1522701900000,"zoneId":"NA","stopIndex":7,"stopSequence":8,"vertexType":"TRANSIT"},"to":{"name":"Place du Saguenay (Champs-Élysées)","stopId":"1:571","stopCode":"571","lon":-71.055824,"lat":48.408307,"arrival":1522702099000,"departure":1522702100000,"zoneId":"NA","stopIndex":12,"stopSequence":13,"vertexType":"TRANSIT"},"legGeometry":{"points":"oeofHnvvpLlAgIdCmFbAqDtBeCjFm@`Gs@hFo@xAmBrGcP","length":10},"routeShortName":"12","routeLongName":"Rivière du Moulin","rentedBike":false,"transitLeg":true,"duration":199.0,"steps":[]},{"startTime":1522702100000,"endTime":1522702392000,"departureDelay":0,"arrivalDelay":0,"realTime":false,"distance":363.88,"pathway":false,"mode":"WALK","route":"","agencyTimeZoneOffset":-14400000,"interlineWithPreviousLeg":false,"from":{"name":"Place du Saguenay (Champs-Élysées)","stopId":"1:571","stopCode":"571","lon":-71.055824,"lat":48.408307,"arrival":1522702099000,"departure":1522702100000,"zoneId":"NA","stopIndex":12,"stopSequence":13,"vertexType":"TRANSIT"},"to":{"name":"Destination","lon":-71.05257199,"lat":48.40924,"arrival":1522702392000,"orig":"","vertexType":"NORMAL"},"legGeometry":{"points":"iwmfHnaupLl@}AFQNa@qFaFEW?WD]L]n@kBHO{@{@","length":12},"rentedBike":false,"transitLeg":false,"duration":292.0,"steps":[{"distance":66.05199999999999,"relativeDirection":"DEPART","streetName":"Rue des Champs-Élysées","absoluteDirection":"SOUTHEAST","stayOn":false,"area":false,"bogusName":false,"lon":-71.05575512063196,"lat":48.408370203803415,"elevation":[]},{"distance":158.108,"relativeDirection":"LEFT","streetName":"Boulevard Talbot","absoluteDirection":"NORTHEAST","stayOn":false,"area":false,"bogusName":false,"lon":-71.05502820000001,"lat":48.4080238,"elevation":[]},{"distance":139.72,"relativeDirection":"RIGHT","streetName":"service road","absoluteDirection":"EAST","stayOn":false,"area":false,"bogusName":true,"lon":-71.0538959,"lat":48.4092308,"elevation":[]}]}],"tooSloped":false}]},"debugOutput":{"precalculationTime":33,"pathCalculationTime":36,"pathTimes":[17,10,9],"renderingTime":0,"totalTime":69,"timedOut":false},"elevationMetadata":{"ellipsoidToGeoidDifference":-28.885904201182168,"geoidElevation":false}}