{"requestParameters":{"date":"2018/04/02","walkSpeed":"1.33","walkReluctance":"2.0","fromPlace":"48.305421,-71.108362","maxWalkDistance":"3000","waitReluctance":"1.0","carSpeed":"33","numItineraries":"3","waitAtBeginningFactor":"0.4","mode":"TRANSIT,WALK","ignoreRealtimeUpdates":"false","stairsReluctance":"2.0","toPlace":"48.419401,-71.05914799","time":"18:30:00"},"plan":{"date":1522708200000,"from":{"name":"Origin","lon":-71.108362,"lat":48.305421,"orig":"","vertexType":"NORMAL"},"to":{"name":"Destination","lon":-71.05914799,"lat":48.419401,"orig":"","vertexType":"NORMAL"},"itineraries":[{"duration":3425,"startTime":1522708922000,"endTime":1522712347000,"walkTime":874,"transitTime":1649,"waitingTime":902,"walkDistance":1139.5747819528615,"walkLimitExceeded":false,"elevationLost":0.0,"elevationGained":0.0,"transfers":1,"legs":[{"startTime":1522708922000,"endTime":1522709159000,"departureDelay":0,"arrivalDelay":0,"realTime":false,"distance":308.97,"pathway":false,"mode":"WALK","route":"","agencyTimeZoneOffset":-14400000,"interlineWithPreviousLeg":false,"from":{"name":"Origin","lon":-71.108362,"lat":48.305421,"departure":1522708922000,"orig":"","vertexType":"NORMAL"},"to":{"name":"Notre-Dame / Gauthier","stopId":"1:1737","stopCode":"1737","lon":-71.110501,"lat":48.307493,"arrival":1522709159000,"departure":1522709160000,"zoneId":"NA","stopIndex":14,"stopSequence":15,"vertexType":"TRANSIT"},"legGeometry":{"points":"iqyeHjq_qLYX{FdAuAh@_Av@u@|@OWGM","length":8},"rentedBike":false,"transitLeg":false,"duration":237.0,"steps":[{"distance":18.384,"relativeDirection":"DEPART","streetName":"Rue Gauthier","absoluteDirection":"NORTHWEST","stayOn":false,"area":false,"bogusName":false,"lon":-71.109491,"lat":48.305011,"elevation":[]},{"distance":270.934,"relativeDirection":"SLIGHTLY_RIGHT","streetName":"Rue Gauthier","absoluteDirection":"NORTH","stayOn":true,"area":false,"bogusName":false,"lon":-71.10962880000001,"lat":48.3051486,"elevation":[]},{"distance":19.652,"relativeDirection":"RIGHT","streetName":"Rue Notre-Dame","absoluteDirection":"NORTHEAST","stayOn":false,"area":false,"bogusName":false,"lon":-71.1107748,"lat":48.3074231,"elevation":[]}]},{"startTime":1522709160000,"endTime":1522710000000,"departureDelay":0,"arrivalDelay":0,"realTime":false,"distance":10677.93000402605,"pathway":false,"mode":"BUS","route":"62","agencyName":"Société de Transport du Saguenay","agencyUrl":"http://ville.saguenay.ca/fr/services-aux-citoyens/transport-sts","agencyTimeZoneOffset":-14400000,"routeColor":"00FFFF","routeType":3,"routeId":"1:62","routeTextColor":"000000","interlineWithPreviousLeg":false,"tripBlockId":"23","headsign":"Costco","agencyId":"0","tripId":"1:217896","serviceDate":"20180402","from":{"name":"Notre-Dame / Gauthier","stopId":"1:1737","stopCode":"1737","lon":-71.110501,"lat":48.307493,"arrival":1522709159000,"departure":1522709160000,"zoneId":"NA","stopIndex":14,"stopSequence":15,"vertexType":"TRANSIT"},"to":{"name":"COSTCO","stopId":"1:1710","stopCode":"1710","lon":-71.085767,"lat":48.382333,"arrival":1522710000000,"departure":1522710900000,"zoneId":"NA","stopIndex":30,"stopSequence":31,"vertexType":"TRANSIT"},"legGeometry":{"points":"aazeHbx_qLkF{IyAwDSe@U_@o@eAkDwDoF}Fa@u@iIeQ}Qi`@_@s@a@y@}@_D_Im]y@eCgCwGsDyI]}@_@y@Sc@QSW[mBuAk@Y_@KiAe@a_@_KsUsEcAg@a@YEEcFyFsUsWmB_CqB_CeFoGmAuBi@oAEKiAsBsA{A_As@gEeCy@k@iBkBgGuG[Ya@_@qFuEg@e@qAeB{BcDq@{@iAsAgYc[qJkKyN{Ok@o@{BoAc@Sm@lBcFzO}@rB}@bBcCxCsAjAcAr@eClAsJdEoF~BsJdEsJbEAC{TpJmHjCiEhAHz@d@pGE~@I~@Kj@Od@_e@rkAUReFdMIXyCtHwBcC","length":89},"routeShortName":"62","routeLongName":"Portage des Roches Sud","rentedBike":false,"transitLeg":true,"duration":840.0,"steps":[]},{"startTime":1522710900000,"endTime":1522711709000,"departureDelay":0,"arrivalDelay":0,"realTime":false,"distance":4786.245368767243,"pathway":false,"mode":"BUS","route":"175","agencyName":"Société de Transport du Saguenay","agencyUrl":"http://ville.saguenay.ca/fr/services-aux-citoyens/transport-sts","agencyTimeZoneOffset":-14400000,"routeColor":"FF00FF","routeType":3,"routeId":"1:175","routeTextColor":"FFFFFF","interlineWithPreviousLeg":false,"tripBlockId":"9","headsign":"Terminus Chicoutimi","agencyId":"0","tripId":"1:217417","serviceDate":"20180402","from":{"name":"COSTCO","stopId":"1:1710","stopCode":"1710","lon":-71.085767,"lat":48.382333,"arrival":1522710000000,"departure":1522710900000,"zoneId":"NA","stopIndex":0,"stopSequence":1,"vertexType":"TRANSIT"},"to":{"name":"Polyclinique du Saguenay (boul. Université)","stopId":"1:61","stopCode":"61","lon":-71.053728,"lat":48.415424,"arrival":1522711709000,"departure":1522711710000,"zoneId":"NA","stopIndex":13,"stopSequence":14,"vertexType":"TRANSIT"},"legGeometry":{"points":"euhfHt|zpL_BiBsCoDwCqDrCsGN_@uEoFoEiFUWSUqCwC]a@{ByC{@cAkJuKoAwA_CeCeExJ~AlB`@mAu@k@}@q@|C}Iw@}@aO_QkEsEiAoAgEsFkFsHqJ_N}FkImPkOuO{N_U_TcNgNcBcB{E`Jc@x@qG~@{BlA","length":40},"routeShortName":"175","routeLongName":"Term. Chic / Costco","rentedBike":false,"transitLeg":true,"duration":809.0,"steps":[]},{"startTime":1522711710000,"endTime":1522712347000,"departureDelay":0,"arrivalDelay":0,"realTime":false,"distance":830.5419999999999,"pathway":false,"mode":"WALK","route":"","agencyTimeZoneOffset":-14400000,"interlineWithPreviousLeg":false,"from":{"name":"Polyclinique du Saguenay (boul. Université)","stopId":"1:61","stopCode":"61","lon":-71.053728,"lat":48.415424,"arrival":1522711709000,"departure":1522711710000,"zoneId":"NA","stopIndex":13,"stopSequence":14,"vertexType":"TRANSIT"},"to":{"name":"Destination","lon":-71.05914799,"lat":48.419401,"arrival":1522712347000,"orig":"","vertexType":"NORMAL"},"legGeometry":{"points":"gcofHbutpLaBvAKH}BrBGFSN{DbDqFpEMLeE`Ew@t@Pd@b@`BKdAjCpB\\gA","length":16},"rentedBike":false,"transitLeg":false,"duration":637.0,"steps":[{"distance":624.8489999999999,"relativeDirection":"DEPART","streetName":"Boulevard de l'Université","absoluteDirection":"NORTHWEST","stayOn":false,"area":false,"bogusName":false,"lon":-71.05377815383544,"lat":48.415404134793874,"elevation":[]},{"distance":17.037,"relativeDirection":"LEFT","streetName":"link","absoluteDirection":"SOUTHWEST","stayOn":false,"area":false,"bogusName":true,"lon":-71.0581466,"lat":48.420216100000005,"elevation":[]},{"distance":188.656,"relativeDirection":"CONTINUE","streetName":"service road","absoluteDirection":"SOUTHWEST","stayOn":false,"area":false,"bogusName":false,"lon":-71.0583302,"lat":48.420123200000006,"elevation":[]}]}],"tooSloped":false}]},"debugOutput":{"precalculationTime":30,"pathCalculationTime":8,"pathTimes":[5],"renderingTime":0,"totalTime":38,"timedOut":false},"elevationMetadata":{"ellipsoidToGeoidDifference":-28.885904201182168,"geoidElevation":false}}