{"requestParameters":{"date":"2018/04/02","walkSpeed":"1.33","walkReluctance":"2.0","fromPlace":"48.442828,-71.075639","maxWalkDistance":"3000","waitReluctance":"1.0","carSpeed":"33","numItineraries":"3","waitAtBeginningFactor":"0.4","mode":"TRANSIT,WALK","ignoreRealtimeUpdates":"false","stairsReluctance":"2.0","toPlace":"48.443416,-71.07852499","time":"19:0:00"},"plan":{"date":1522710000000,"from":{"name":"Origin","lon":-71.075639,"lat":48.442828,"orig":"","vertexType":"NORMAL"},"to":{"name":"Destination","lon":-71.07852499,"lat":48.443416,"orig":"","vertexType":"NORMAL"},"itineraries":[{"duration":300,"startTime":1522710000000,"endTime":1522710300000,"walkTime":300,"transitTime":0,"waitingTime":0,"walkDistance":384.6360526292863,"walkLimitExceeded":false,"elevationLost":0.0,"elevationGained":0.0,"transfers":0,"legs":[{"startTime":1522710000000,"endTime":1522710300000,"departureDelay":0,"arrivalDelay":0,"realTime":false,"distance":384.565,"pathway":false,"mode":"WALK","route":"","agencyTimeZoneOffset":-14400000,"interlineWithPreviousLeg":false,"from":{"name":"Origin","lon":-71.075639,"lat":48.442828,"departure":1522710000000,"orig":"","vertexType":"NORMAL"},"to":{"name":"Destination","lon":-71.07852499,"lat":48.443416,"arrival":1522710300000,"orig":"","vertexType":"NORMAL"},"legGeometry":{"points":"sntfHx}xpLcA~Bw@dB_CdIk@fBPRbAuD","length":7},"rentedBike":false,"transitLeg":false,"duration":300.0,"steps":[{"distance":294.637,"relativeDirection":"DEPART","streetName":"Boulevard Sainte-Geneviève","absoluteDirection":"NORTHWEST","stayOn":false,"area":false,"bogusName":false,"lon":-71.07564729859405,"lat":48.442821253898046,"elevation":[]},{"distance":89.928,"relativeDirection":"UTURN_LEFT","streetName":"Boulevard Sainte-Geneviève","absoluteDirection":"SOUTHEAST","stayOn":true,"area":false,"bogusName":false,"lon":-71.0790497,"lat":48.4442132,"elevation":[]}]}],"tooSloped":false},{"duration":263,"startTime":1522711131000,"endTime":1522711394000,"walkTime":223,"transitTime":38,"waitingTime":2,"walkDistance":281.6035639073362,"walkLimitExceeded":false,"elevationLost":0.0,"elevationGained":0.0,"transfers":0,"legs":[{"startTime":1522711131000,"endTime":1522711199000,"departureDelay":0,"arrivalDelay":0,"realTime":false,"distance":87.62599999999999,"pathway":false,"mode":"WALK","route":"","agencyTimeZoneOffset":-14400000,"interlineWithPreviousLeg":false,"from":{"name":"Origin","lon":-71.075639,"lat":48.442828,"departure":1522711131000,"orig":"","vertexType":"NORMAL"},"to":{"name":"boul. Ste-Geneviève / Champs","stopId":"1:705","stopCode":"705","lon":-71.074706,"lat":48.442337,"arrival":1522711199000,"departure":1522711200000,"zoneId":"NA","stopIndex":1,"stopSequence":2,"vertexType":"TRANSIT"},"legGeometry":{"points":"sntfHx}xpLLWzAwC","length":3},"rentedBike":false,"transitLeg":false,"duration":68.0,"steps":[{"distance":87.62599999999999,"relativeDirection":"DEPART","streetName":"Boulevard Sainte-Geneviève","absoluteDirection":"SOUTHEAST","stayOn":false,"area":false,"bogusName":false,"lon":-71.07564729859405,"lat":48.442821253898046,"elevation":[]}]},{"startTime":1522711200000,"endTime":1522711238000,"departureDelay":0,"arrivalDelay":0,"realTime":false,"distance":485.8328219499299,"pathway":false,"mode":"BUS","route":"21","agencyName":"Société de Transport du Saguenay","agencyUrl":"http://ville.saguenay.ca/fr/services-aux-citoyens/transport-sts","agencyTimeZoneOffset":-14400000,"routeColor":"556B2F","routeType":3,"routeId":"1:21","routeTextColor":"FFFFFF","interlineWithPreviousLeg":false,"tripBlockId":"2","headsign":"Terminus Chicoutimi","agencyId":"0","tripId":"1:217180","serviceDate":"20180402","from":{"name":"boul. Ste-Geneviève / Champs","stopId":"1:705","stopCode":"705","lon":-71.074706,"lat":48.442337,"arrival":1522711199000,"departure":1522711200000,"zoneId":"NA","stopIndex":1,"stopSequence":2,"vertexType":"TRANSIT"},"to":{"name":"Place de la Colline (boul. Ste-Geneviève)","stopId":"1:706","stopCode":"706","lon":-71.080094,"lat":48.44485,"arrival":1522711238000,"departure":1522711239000,"zoneId":"NA","stopIndex":2,"stopSequence":3,"vertexType":"TRANSIT"},"legGeometry":{"points":"iktfHhxxpLuAnCmBlE}@|B_BvFoC`J","length":6},"routeShortName":"21","routeLongName":"Boul. Ste-Geneviève/Élie","rentedBike":false,"transitLeg":true,"duration":38.0,"steps":[]},{"startTime":1522711239000,"endTime":1522711394000,"departureDelay":0,"arrivalDelay":0,"realTime":false,"distance":193.902,"pathway":false,"mode":"WALK","route":"","agencyTimeZoneOffset":-14400000,"interlineWithPreviousLeg":false,"from":{"name":"Place de la Colline (boul. Ste-Geneviève)","stopId":"1:706","stopCode":"706","lon":-71.080094,"lat":48.44485,"arrival":1522711238000,"departure":1522711239000,"zoneId":"NA","stopIndex":2,"stopSequence":3,"vertexType":"TRANSIT"},"to":{"name":"Destination","lon":-71.07852499,"lat":48.443416,"arrival":1522711394000,"orig":"","vertexType":"NORMAL"},"legGeometry":{"points":"a{tfHxyypLdBkFPRbAuD","length":4},"rentedBike":false,"transitLeg":false,"duration":155.0,"steps":[{"distance":193.902,"relativeDirection":"DEPART","streetName":"Boulevard Sainte-Geneviève","absoluteDirection":"SOUTHEAST","stayOn":false,"area":false,"bogusName":false,"lon":-71.08012797466124,"lat":48.44481509343017,"elevation":[]}]}],"tooSloped":false}]},"debugOutput":{"precalculationTime":14,"pathCalculationTime":15,"pathTimes":[1,8,6],"renderingTime":0,"totalTime":29,"timedOut":false},"elevationMetadata":{"ellipsoidToGeoidDifference":-28.885904201182168,"geoidElevation":false}}