{"requestParameters":{"date":"2018/04/02","walkSpeed":"1.33","walkReluctance":"2.0","fromPlace":"48.335041,-71.076326","maxWalkDistance":"3000","waitReluctance":"1.0","carSpeed":"33","numItineraries":"3","waitAtBeginningFactor":"0.4","mode":"TRANSIT,WALK","ignoreRealtimeUpdates":"false","stairsReluctance":"2.0","toPlace":"48.412522,-71.05130499","time":"10:0:00"},"plan":{"date":1522677600000,"from":{"name":"Origin","lon":-71.076326,"lat":48.335041,"orig":"","vertexType":"NORMAL"},"to":{"name":"Destination","lon":-71.05130499,"lat":48.412522,"orig":"","vertexType":"NORMAL"},"itineraries":[{"duration":4787,"startTime":1522683523000,"endTime":1522688310000,"walkTime":2317,"transitTime":1652,"waitingTime":818,"walkDistance":3058.0004360878243,"walkLimitExceeded":false,"elevationLost":0.0,"elevationGained":0.0,"transfers":1,"legs":[{"startTime":1522683523000,"endTime":1522685748000,"departureDelay":0,"arrivalDelay":0,"realTime":false,"distance":2946.55,"pathway":false,"mode":"WALK","route":"","agencyTimeZoneOffset":-14400000,"interlineWithPreviousLeg":false,"from":{"name":"Origin","lon":-71.076326,"lat":48.335041,"departure":1522683523000,"orig":"","vertexType":"NORMAL"},"to":{"name":"boul. Royaume / ch. de l'Église","stopId":"1:1750","stopCode":"1750","lon":-71.055287,"lat":48.35702,"arrival":1522685748000,"departure":1522685749000,"zoneId":"NA","stopIndex":23,"stopSequence":24,"vertexType":"TRANSIT"},"legGeometry":{"points":"wo_fHtgypLoPkRoEwGYm@a@{@u@}AcBuAiJ}Fu@_AuDuEeMqL}EcGwNiQmKeLsJgKqF}FqGkGyBuBc@Wc@Oo@xB","length":21},"rentedBike":false,"transitLeg":false,"duration":2225.0,"steps":[{"distance":2894.357,"relativeDirection":"DEPART","streetName":"Chemin de l'Église","absoluteDirection":"NORTHEAST","stayOn":false,"area":false,"bogusName":false,"lon":-71.077226374265,"lat":48.33548185935467,"elevation":[]},{"distance":52.193,"relativeDirection":"LEFT","streetName":"R 170","absoluteDirection":"NORTHWEST","stayOn":false,"area":false,"bogusName":false,"lon":-71.05476750000001,"lat":48.3566846,"elevation":[]}]},{"startTime":1522685749000,"endTime":1522686189000,"departureDelay":0,"arrivalDelay":0,"realTime":false,"distance":6352.568071950124,"pathway":false,"mode":"BUS","route":"20S","agencyName":"Société de Transport du Saguenay","agencyUrl":"http://ville.saguenay.ca/fr/services-aux-citoyens/transport-sts","agencyTimeZoneOffset":-14400000,"routeColor":"8B0000","routeType":3,"routeId":"1:20S","routeTextColor":"FFFFFF","interlineWithPreviousLeg":false,"tripBlockId":"105","headsign":"Cégep Jonq (Fabrique)","agencyId":"0","tripId":"1:218813","serviceDate":"20180402","from":{"name":"boul. Royaume / ch. de l'Église","stopId":"1:1750","stopCode":"1750","lon":-71.055287,"lat":48.35702,"arrival":1522685748000,"departure":1522685749000,"zoneId":"NA","stopIndex":23,"stopSequence":24,"vertexType":"TRANSIT"},"to":{"name":"boul. Royaume (no. 1590)","stopId":"1:396","stopCode":"396","lon":-71.122687,"lat":48.390958,"arrival":1522686189000,"departure":1522686189000,"zoneId":"NA","stopIndex":28,"stopSequence":29,"vertexType":"TRANSIT"},"legGeometry":{"points":"{ucfH~~tpLeFzO}@rB}@bBcCxCsAjAcAr@eClAsJdEoF~BsJdEsJbEAC{TpJmHjCiEhAHz@d@pGE~@I~@Kj@Od@_e@rkAUReFdMIXuKtX}@fC_AvC[jAi@`CUbBUxBUdCIlD]to@K`IEt@ElBQlEMrBWvDa@jEq@nFa@rC_AnFi@bCo@pCiAbEEFsC|IMViBdFOd@qCtHsFfOMZyBfGY~@GV","length":60},"routeShortName":"20S","routeLongName":"Term. Baie <--> Cegep Jonq","rentedBike":false,"transitLeg":true,"duration":440.0,"steps":[]},{"startTime":1522686189000,"endTime":1522686192000,"departureDelay":0,"arrivalDelay":0,"realTime":false,"distance":0.866,"pathway":false,"mode":"WALK","route":"","agencyTimeZoneOffset":-14400000,"interlineWithPreviousLeg":false,"from":{"name":"boul. Royaume (no. 1590)","stopId":"1:396","stopCode":"396","lon":-71.122687,"lat":48.390958,"arrival":1522686189000,"departure":1522686189000,"zoneId":"NA","stopIndex":28,"stopSequence":29,"vertexType":"TRANSIT"},"to":{"name":"boul. Royaume (no. 1590)","stopId":"1:269","stopCode":"269","lon":-71.12282,"lat":48.390783,"arrival":1522686192000,"departure":1522687008000,"zoneId":"NA","stopIndex":22,"stopSequence":23,"vertexType":"TRANSIT"},"legGeometry":{"points":"}ijfHfdbqL@A","length":2},"rentedBike":false,"transitLeg":false,"duration":3.0,"steps":[{"distance":0.866,"relativeDirection":"DEPART","streetName":"Boulevard du Royaume Ouest","absoluteDirection":"SOUTHEAST","stayOn":false,"area":false,"bogusName":false,"lon":-71.1227576370025,"lat":48.390873577765035,"elevation":[]}]},{"startTime":1522687008000,"endTime":1522687260000,"departureDelay":0,"arrivalDelay":0,"realTime":false,"distance":2958.619404666996,"pathway":false,"mode":"BUS","route":"2","agencyName":"Société de Transport du Saguenay","agencyUrl":"http://ville.saguenay.ca/fr/services-aux-citoyens/transport-sts","agencyTimeZoneOffset":-14400000,"routeColor":"FF0000","routeType":3,"routeId":"1:2","routeTextColor":"FFFFFF","interlineWithPreviousLeg":false,"tripBlockId":"10","headsign":"Costco","agencyId":"0","tripId":"1:217438","serviceDate":"20180402","from":{"name":"boul. Royaume (no. 1590)","stopId":"1:269","stopCode":"269","lon":-71.12282,"lat":48.390783,"arrival":1522686192000,"departure":1522687008000,"zoneId":"NA","stopIndex":22,"stopSequence":23,"vertexType":"TRANSIT"},"to":{"name":"COSTCO","stopId":"1:1710","stopCode":"1710","lon":-71.085767,"lat":48.382333,"arrival":1522687260000,"departure":1522687500000,"zoneId":"NA","stopIndex":28,"stopSequence":29,"vertexType":"TRANSIT"},"legGeometry":{"points":"gijfHtdbqLPcAxCqJtEsL|BaGbDgIz@{B|G}WVyBfB_OrBsTDa]?sD`@uc@tBcJz@yDtI}UaCcC","length":18},"routeShortName":"2","routeLongName":"Chic/Jonq via Boul. Royaume","rentedBike":false,"transitLeg":true,"duration":252.0,"steps":[]},{"startTime":1522687500000,"endTime":1522688220000,"departureDelay":0,"arrivalDelay":0,"realTime":false,"distance":4320.1052013272,"pathway":false,"mode":"BUS","route":"175","agencyName":"Société de Transport du Saguenay","agencyUrl":"http://ville.saguenay.ca/fr/services-aux-citoyens/transport-sts","agencyTimeZoneOffset":-14400000,"routeColor":"FF00FF","routeType":3,"routeId":"1:175","routeTextColor":"FFFFFF","interlineWithPreviousLeg":true,"tripBlockId":"10","headsign":"Terminus Chicoutimi","agencyId":"0","tripId":"1:217439","serviceDate":"20180402","from":{"name":"COSTCO","stopId":"1:1710","stopCode":"1710","lon":-71.085767,"lat":48.382333,"arrival":1522687260000,"departure":1522687500000,"zoneId":"NA","stopIndex":0,"stopSequence":1,"vertexType":"TRANSIT"},"to":{"name":"missingStopName","stopId":"1:1812","stopCode":"1812","lon":-71.051352,"lat":48.411592,"arrival":1522688220000,"departure":1522688221000,"zoneId":"NA","stopIndex":11,"stopSequence":12,"vertexType":"TRANSIT"},"legGeometry":{"points":"euhfHt|zpL_BiBsCoDwCqDrCsGN_@uEoFoEiFUWSUqCwC]a@{ByC{@cAkJuKoAwA_CeCeExJ~AlB`@mAu@k@}@q@|C}Iw@}@aO_QkEsEiAoAgEsFkFsHqJ_N}FkImPkOuO{N_U_TcNgN","length":35},"routeShortName":"175","routeLongName":"Term. Chic / Costco","rentedBike":false,"transitLeg":true,"duration":720.0,"steps":[]},{"startTime":1522688221000,"endTime":1522688310000,"departureDelay":0,"arrivalDelay":0,"realTime":false,"distance":110.51,"pathway":false,"mode":"WALK","route":"","agencyTimeZoneOffset":-14400000,"interlineWithPreviousLeg":false,"from":{"name":"missingStopName","stopId":"1:1812","stopCode":"1812","lon":-71.051352,"lat":48.411592,"arrival":1522688220000,"departure":1522688221000,"zoneId":"NA","stopIndex":11,"stopSequence":12,"vertexType":"TRANSIT"},"to":{"name":"Destination","lon":-71.05130499,"lat":48.412522,"arrival":1522688310000,"orig":"","vertexType":"NORMAL"},"legGeometry":{"points":"wknfHtftpLy@}@MKUYOb@_@`A","length":6},"rentedBike":false,"transitLeg":false,"duration":89.0,"steps":[{"distance":64.444,"relativeDirection":"DEPART","streetName":"Boulevard Talbot","absoluteDirection":"NORTHEAST","stayOn":false,"area":false,"bogusName":false,"lon":-71.05146038442705,"lat":48.41164093434771,"elevation":[]},{"distance":46.066,"relativeDirection":"LEFT","streetName":"Boulevard de l'Université","absoluteDirection":"NORTHWEST","stayOn":false,"area":false,"bogusName":false,"lon":-71.05096660000001,"lat":48.4121189,"elevation":[]}]}],"tooSloped":false},{"duration":2040,"startTime":1522688070000,"endTime":1522690110000,"walkTime":352,"transitTime":1386,"waitingTime":302,"walkDistance":459.0329624048868,"walkLimitExceeded":false,"elevationLost":0.0,"elevationGained":0.0,"transfers":1,"legs":[{"startTime":1522688070000,"endTime":1522688333000,"departureDelay":0,"arrivalDelay":0,"realTime":false,"distance":348.488,"pathway":false,"mode":"WALK","route":"","agencyTimeZoneOffset":-14400000,"interlineWithPreviousLeg":false,"from":{"name":"Origin","lon":-71.076326,"lat":48.335041,"departure":1522688070000,"orig":"","vertexType":"NORMAL"},"to":{"name":"ch. de l'Église (no. 4913)","stopId":"1:1743","stopCode":"1743","lon":-71.080007,"lat":48.332951,"arrival":1522688333000,"departure":1522688334000,"zoneId":"NA","stopIndex":19,"stopSequence":20,"vertexType":"TRANSIT"},"legGeometry":{"points":"wo_fHtgypLxNnP","length":2},"rentedBike":false,"transitLeg":false,"duration":263.0,"steps":[{"distance":348.488,"relativeDirection":"DEPART","streetName":"Chemin de l'Église","absoluteDirection":"SOUTHWEST","stayOn":false,"area":false,"bogusName":false,"lon":-71.077226374265,"lat":48.33548185935467,"elevation":[]}]},{"startTime":1522688334000,"endTime":1522689000000,"departureDelay":0,"arrivalDelay":0,"realTime":false,"distance":6891.0433182540855,"pathway":false,"mode":"BUS","route":"60","agencyName":"Société de Transport du Saguenay","agencyUrl":"http://ville.saguenay.ca/fr/services-aux-citoyens/transport-sts","agencyTimeZoneOffset":-14400000,"routeColor":"00FFFF","routeType":3,"routeId":"1:60","routeTextColor":"000000","interlineWithPreviousLeg":false,"tripBlockId":"73","headsign":"Costco","agencyId":"0","tripId":"1:218620","serviceDate":"20180402","from":{"name":"ch. de l'Église (no. 4913)","stopId":"1:1743","stopCode":"1743","lon":-71.080007,"lat":48.332951,"arrival":1522688333000,"departure":1522688334000,"zoneId":"NA","stopIndex":19,"stopSequence":20,"vertexType":"TRANSIT"},"to":{"name":"COSTCO","stopId":"1:1710","stopCode":"1710","lon":-71.085767,"lat":48.382333,"arrival":1522689000000,"departure":1522689300000,"zoneId":"NA","stopIndex":29,"stopSequence":30,"vertexType":"TRANSIT"},"legGeometry":{"points":"c`_fHnyypLsUsWmB_CqB_CeFoGmAuBi@oAEKiAsBsA{A_As@gEeCy@k@iBkBgGuG[Ya@_@qFuEg@e@qAeB{BcDq@{@iAsAgYc[qJkKyN{Ok@o@{BoAc@Sm@lBcFzO}@rB}@bBcCxCsAjAcAr@eClAsJdEoF~BsJdEsJbE@D_VpLiDtAqA\\cAp@[XY^O^Mb@Ij@Er@CtAE~@I~@Kj@Od@_e@rkAUReFdMIXyCtHwBcC","length":63},"routeShortName":"60","routeLongName":"Portage des Roches Nord","rentedBike":false,"transitLeg":true,"duration":666.0,"steps":[]},{"startTime":1522689300000,"endTime":1522690020000,"departureDelay":0,"arrivalDelay":0,"realTime":false,"distance":4320.1052013272,"pathway":false,"mode":"BUS","route":"175","agencyName":"Société de Transport du Saguenay","agencyUrl":"http://ville.saguenay.ca/fr/services-aux-citoyens/transport-sts","agencyTimeZoneOffset":-14400000,"routeColor":"FF00FF","routeType":3,"routeId":"1:175","routeTextColor":"FFFFFF","interlineWithPreviousLeg":false,"tripBlockId":"9","headsign":"Terminus Chicoutimi","agencyId":"0","tripId":"1:217405","serviceDate":"20180402","from":{"name":"COSTCO","stopId":"1:1710","stopCode":"1710","lon":-71.085767,"lat":48.382333,"arrival":1522689000000,"departure":1522689300000,"zoneId":"NA","stopIndex":0,"stopSequence":1,"vertexType":"TRANSIT"},"to":{"name":"missingStopName","stopId":"1:1812","stopCode":"1812","lon":-71.051352,"lat":48.411592,"arrival":1522690020000,"departure":1522690021000,"zoneId":"NA","stopIndex":11,"stopSequence":12,"vertexType":"TRANSIT"},"legGeometry":{"points":"euhfHt|zpL_BiBsCoDwCqDrCsGN_@uEoFoEiFUWSUqCwC]a@{ByC{@cAkJuKoAwA_CeCeExJ~AlB`@mAu@k@}@q@|C}Iw@}@aO_QkEsEiAoAgEsFkFsHqJ_N}FkImPkOuO{N_U_TcNgN","length":35},"routeShortName":"175","routeLongName":"Term. Chic / Costco","rentedBike":false,"transitLeg":true,"duration":720.0,"steps":[]},{"startTime":1522690021000,"endTime":1522690110000,"departureDelay":0,"arrivalDelay":0,"realTime":false,"distance":110.51,"pathway":false,"mode":"WALK","route":"","agencyTimeZoneOffset":-14400000,"interlineWithPreviousLeg":false,"from":{"name":"missingStopName","stopId":"1:1812","stopCode":"1812","lon":-71.051352,"lat":48.411592,"arrival":1522690020000,"departure":1522690021000,"zoneId":"NA","stopIndex":11,"stopSequence":12,"vertexType":"TRANSIT"},"to":{"name":"Destination","lon":-71.05130499,"lat":48.412522,"arrival":1522690110000,"orig":"","vertexType":"NORMAL"},"legGeometry":{"points":"wknfHtftpLy@}@MKUYOb@_@`A","length":6},"rentedBike":false,"transitLeg":false,"duration":89.0,"steps":[{"distance":64.444,"relativeDirection":"DEPART","streetName":"Boulevard Talbot","absoluteDirection":"NORTHEAST","stayOn":false,"area":false,"bogusName":false,"lon":-71.05146038442705,"lat":48.41164093434771,"elevation":[]},{"distance":46.066,"relativeDirection":"LEFT","streetName":"Boulevard de l'Université","absoluteDirection":"NORTHWEST","stayOn":false,"area":false,"bogusName":false,"lon":-71.05096660000001,"lat":48.4121189,"elevation":[]}]}],"tooSloped":false},{"duration":4005,"startTime":1522686179000,"endTime":1522690184000,"walkTime":2345,"transitTime":1216,"waitingTime":444,"walkDistance":3102.0224736829373,"walkLimitExceeded":false,"elevationLost":0.0,"elevationGained":0.0,"transfers":1,"legs":[{"startTime":1522686179000,"endTime":1522688420000,"departureDelay":0,"arrivalDelay":0,"realTime":false,"distance":2967.6310000000003,"pathway":false,"mode":"WALK","route":"","agencyTimeZoneOffset":-14400000,"interlineWithPreviousLeg":false,"from":{"name":"Origin","lon":-71.076326,"lat":48.335041,"departure":1522686179000,"orig":"","vertexType":"NORMAL"},"to":{"name":"boul. Royaume / ch. de l'Église","stopId":"1:1712","stopCode":"1712","lon":-71.055658,"lat":48.35698,"arrival":1522688420000,"departure":1522688421000,"zoneId":"NA","stopIndex":6,"stopSequence":7,"vertexType":"TRANSIT"},"legGeometry":{"points":"wo_fHtgypLoPkRoEwGYm@a@{@u@}AcBuAiJ}Fu@_AuDuEeMqL}EcGwNiQmKeLsJgKqF}FqGkGyBuBc@Wc@Oo@xBSn@","length":22},"rentedBike":false,"transitLeg":false,"duration":2241.0,"steps":[{"distance":2894.357,"relativeDirection":"DEPART","streetName":"Chemin de l'Église","absoluteDirection":"NORTHEAST","stayOn":false,"area":false,"bogusName":false,"lon":-71.077226374265,"lat":48.33548185935467,"elevation":[]},{"distance":73.274,"relativeDirection":"LEFT","streetName":"R 170","absoluteDirection":"NORTHWEST","stayOn":false,"area":false,"bogusName":false,"lon":-71.05476750000001,"lat":48.3566846,"elevation":[]}]},{"startTime":1522688421000,"endTime":1522688690000,"departureDelay":0,"arrivalDelay":0,"realTime":false,"distance":4337.021578832454,"pathway":false,"mode":"BUS","route":"20S","agencyName":"Société de Transport du Saguenay","agencyUrl":"http://ville.saguenay.ca/fr/services-aux-citoyens/transport-sts","agencyTimeZoneOffset":-14400000,"routeColor":"8B0000","routeType":3,"routeId":"1:20S","routeTextColor":"FFFFFF","interlineWithPreviousLeg":false,"tripBlockId":"105","headsign":"Terminus La Baie","agencyId":"0","tripId":"1:218814","serviceDate":"20180402","from":{"name":"boul. Royaume / ch. de l'Église","stopId":"1:1712","stopCode":"1712","lon":-71.055658,"lat":48.35698,"arrival":1522688420000,"departure":1522688421000,"zoneId":"NA","stopIndex":6,"stopSequence":7,"vertexType":"TRANSIT"},"to":{"name":"ch. St-Anicet (no. 7132)","stopId":"1:1963","stopCode":"1963","lon":-71.00238,"lat":48.343323,"arrival":1522688690000,"departure":1522688690000,"zoneId":"NA","stopIndex":9,"stopSequence":10,"vertexType":"TRANSIT"},"legGeometry":{"points":"ovcfHn`upL|cA}`D~@wCbXcs@b@_B`@kCP{BDoBCaCIaBkA{O_@yHBC@EBCBE@C@E@E@G@E?E?G?E?G?GAEAEAGAEAECCCEACCCCCEACACAC?EAs@oHcCy[eBcU","length":44},"routeShortName":"20S","routeLongName":"Term. Baie <--> Cegep Jonq","rentedBike":false,"transitLeg":true,"duration":269.0,"steps":[]},{"startTime":1522688690000,"endTime":1522688696000,"departureDelay":0,"arrivalDelay":0,"realTime":false,"distance":4.869,"pathway":false,"mode":"WALK","route":"","agencyTimeZoneOffset":-14400000,"interlineWithPreviousLeg":false,"from":{"name":"ch. St-Anicet (no. 7132)","stopId":"1:1963","stopCode":"1963","lon":-71.00238,"lat":48.343323,"arrival":1522688690000,"departure":1522688690000,"zoneId":"NA","stopIndex":9,"stopSequence":10,"vertexType":"TRANSIT"},"to":{"name":"ch. St-Anicet (no. 7132)","stopId":"1:292","stopCode":"292","lon":-71.002358,"lat":48.343464,"arrival":1522688696000,"departure":1522689138000,"zoneId":"NA","stopIndex":20,"stopSequence":21,"vertexType":"TRANSIT"},"legGeometry":{"points":"eaafH`tjpLAM","length":2},"rentedBike":false,"transitLeg":false,"duration":6.0,"steps":[{"distance":4.869,"relativeDirection":"DEPART","streetName":"Chemin Saint-Anicet","absoluteDirection":"EAST","stayOn":false,"area":false,"bogusName":false,"lon":-71.00240191742498,"lat":48.343391113591004,"elevation":[]}]},{"startTime":1522689138000,"endTime":1522690085000,"departureDelay":0,"arrivalDelay":0,"realTime":false,"distance":12841.733357516057,"pathway":false,"mode":"BUS","route":"6","agencyName":"Société de Transport du Saguenay","agencyUrl":"http://ville.saguenay.ca/fr/services-aux-citoyens/transport-sts","agencyTimeZoneOffset":-14400000,"routeColor":"FF0000","routeType":3,"routeId":"1:6","routeTextColor":"FFFFFF","interlineWithPreviousLeg":false,"tripBlockId":"25","headsign":"Terminus UQAC","agencyId":"0","tripId":"1:217940","serviceDate":"20180402","from":{"name":"ch. St-Anicet (no. 7132)","stopId":"1:292","stopCode":"292","lon":-71.002358,"lat":48.343464,"arrival":1522688696000,"departure":1522689138000,"zoneId":"NA","stopIndex":20,"stopSequence":21,"vertexType":"TRANSIT"},"to":{"name":"boul. Université / Murdock","stopId":"1:59","stopCode":"59","lon":-71.049971,"lat":48.411755,"arrival":1522690085000,"departure":1522690086000,"zoneId":"NA","stopIndex":52,"stopSequence":53,"vertexType":"TRANSIT"},"legGeometry":{"points":"eaafHrsjpL`BnThCz\\V|HCBCBCDABCDAFAD?DAF?Dy@j@iDt@]F]AYEUM{HiIMQIKgCmCqF}FwQsR}MuNcN{NcDkD_EgEmNeO}WcYsHcImPgQqY{Z_@_@}IiJuAyAAAaMmMco@kp@qBuBaGpOgCrGgAjCgAxCwK|YoCrH}FvO{GxQmErLkEpL}EtMeAlCaB|CMRqApBmErFeAtAs@jAu@`Bm@bBOh@]zAeCpNUlA_A`EkArDmCdHgG`PwIdUkP|b@uBrFu@hBw@bBg@z@i@z@m@~@WXYZ}InJeDdDy@j@yAn@@^h@bI`@jDdC~Nb@~DpExr@TlC`A`Ob@dIFlFE~BCv@Cn@Gl@_@fIgBpGwAvC","length":101},"routeShortName":"6","routeLongName":"Term. Chic/Term. Baie via ch.Plateau","rentedBike":false,"transitLeg":true,"duration":947.0,"steps":[]},{"startTime":1522690086000,"endTime":1522690184000,"departureDelay":0,"arrivalDelay":0,"realTime":false,"distance":129.483,"pathway":false,"mode":"WALK","route":"","agencyTimeZoneOffset":-14400000,"interlineWithPreviousLeg":false,"from":{"name":"boul. Université / Murdock","stopId":"1:59","stopCode":"59","lon":-71.049971,"lat":48.411755,"arrival":1522690085000,"departure":1522690086000,"zoneId":"NA","stopIndex":52,"stopSequence":53,"vertexType":"TRANSIT"},"to":{"name":"Destination","lon":-71.05130499,"lat":48.412522,"arrival":1522690184000,"orig":"","vertexType":"NORMAL"},"legGeometry":{"points":"_lnfHx}spLoAhDELOb@_@`A","length":5},"rentedBike":false,"transitLeg":false,"duration":98.0,"steps":[{"distance":129.483,"relativeDirection":"DEPART","streetName":"Boulevard de l'Université","absoluteDirection":"NORTHWEST","stayOn":false,"area":false,"bogusName":false,"lon":-71.05004245459075,"lat":48.41168714240219,"elevation":[]}]}],"tooSloped":false}]},"debugOutput":{"precalculationTime":22,"pathCalculationTime":8,"pathTimes":[2,3,3],"renderingTime":0,"totalTime":30,"timedOut":false},"elevationMetadata":{"ellipsoidToGeoidDifference":-28.885904201182168,"geoidElevation":false}}