{"requestParameters":{"date":"2018/04/02","walkSpeed":"1.33","walkReluctance":"2.0","fromPlace":"48.313547,-71.100665","maxWalkDistance":"3000","waitReluctance":"1.0","carSpeed":"33","numItineraries":"3","waitAtBeginningFactor":"0.4","mode":"TRANSIT,WALK","ignoreRealtimeUpdates":"false","stairsReluctance":"2.0","toPlace":"48.309501,-71.113396","time":"12:55:00"},"plan":{"date":1522688100000,"from":{"name":"Origin","lon":-71.100665,"lat":48.313547,"orig":"","vertexType":"NORMAL"},"to":{"name":"Destination","lon":-71.113396,"lat":48.309501,"orig":"","vertexType":"NORMAL"},"itineraries":[{"duration":999,"startTime":1522688100000,"endTime":1522689099000,"walkTime":999,"transitTime":0,"waitingTime":0,"walkDistance":1299.5721353333722,"walkLimitExceeded":false,"elevationLost":0.0,"elevationGained":0.0,"transfers":0,"legs":[{"startTime":1522688100000,"endTime":1522689099000,"departureDelay":0,"arrivalDelay":0,"realTime":false,"distance":1299.4180000000001,"pathway":false,"mode":"WALK","route":"","agencyTimeZoneOffset":-14400000,"interlineWithPreviousLeg":false,"from":{"name":"Origin","lon":-71.100665,"lat":48.313547,"departure":1522688100000,"orig":"","vertexType":"NORMAL"},"to":{"name":"Destination","lon":-71.113396,"lat":48.309501,"arrival":1522689099000,"orig":"","vertexType":"NORMAL"},"legGeometry":{"points":"sh{eHv|}pLpApCrH`Pb@fAbGdGhClCtAvBxBjGmBrEg@[s@pBSdDe@jB{AtDl@vB`A~B","length":16},"rentedBike":false,"transitLeg":false,"duration":999.0,"steps":[{"distance":821.077,"relativeDirection":"DEPART","streetName":"Rue Notre-Dame","absoluteDirection":"SOUTHWEST","stayOn":false,"area":false,"bogusName":false,"lon":-71.10107365227361,"lat":48.31386735305247,"elevation":[]},{"distance":99.132,"relativeDirection":"RIGHT","streetName":"Rue de la Fabrique","absoluteDirection":"NORTHWEST","stayOn":false,"area":false,"bogusName":false,"lon":-71.1088568,"lat":48.3087084,"elevation":[]},{"distance":25.022,"relativeDirection":"RIGHT","streetName":"Rue Lapointe","absoluteDirection":"NORTHEAST","stayOn":false,"area":false,"bogusName":false,"lon":-71.1099185,"lat":48.3092526,"elevation":[]},{"distance":354.187,"relativeDirection":"LEFT","streetName":"rue de la Moisson","absoluteDirection":"NORTHWEST","stayOn":false,"area":false,"bogusName":false,"lon":-71.1097728,"lat":48.3094557,"elevation":[]}]}],"tooSloped":false}]},"debugOutput":{"precalculationTime":2,"pathCalculationTime":8,"pathTimes":[1,3,4],"renderingTime":0,"totalTime":10,"timedOut":false},"elevationMetadata":{"ellipsoidToGeoidDifference":-28.885904201182168,"geoidElevation":false}}