{"requestParameters":{"date":"2018/04/02","walkSpeed":"1.33","walkReluctance":"2.0","fromPlace":"48.428606,-71.03448","maxWalkDistance":"3000","waitReluctance":"1.0","carSpeed":"33","numItineraries":"3","waitAtBeginningFactor":"0.4","mode":"TRANSIT,WALK","ignoreRealtimeUpdates":"false","stairsReluctance":"2.0","toPlace":"48.428891,-71.052981","time":"7:50:00"},"plan":{"date":1522669800000,"from":{"name":"Origin","lon":-71.03448,"lat":48.428606,"orig":"","vertexType":"NORMAL"},"to":{"name":"Destination","lon":-71.052981,"lat":48.428891,"orig":"","vertexType":"NORMAL"},"itineraries":[{"duration":1154,"startTime":1522669800000,"endTime":1522670954000,"walkTime":1154,"transitTime":0,"waitingTime":0,"walkDistance":1496.9213608975974,"walkLimitExceeded":false,"elevationLost":0.0,"elevationGained":0.0,"transfers":0,"legs":[{"startTime":1522669800000,"endTime":1522670954000,"departureDelay":0,"arrivalDelay":0,"realTime":false,"distance":1496.7769999999998,"pathway":false,"mode":"WALK","route":"","agencyTimeZoneOffset":-14400000,"interlineWithPreviousLeg":false,"from":{"name":"Origin","lon":-71.03448,"lat":48.428606,"departure":1522669800000,"orig":"","vertexType":"NORMAL"},"to":{"name":"Destination","lon":-71.052981,"lat":48.428891,"arrival":1522670954000,"orig":"","vertexType":"NORMAL"},"legGeometry":{"points":"suqfHf|ppLJLZ\\HX?`@?RIvGA|CKpIG`@OVOtA@j@@rCBlFAxB?xDiCFAp@EpAEx@CZIjAQtBCZElA?`@?|@?ZAzA?jDAjC?f@AtHBp@Hl@l@bBl@v@NPf@|@Bn@JfC?@","length":43},"rentedBike":false,"transitLeg":false,"duration":1154.0,"steps":[{"distance":370.411,"relativeDirection":"DEPART","streetName":"Rue Nil-Tremblay","absoluteDirection":"SOUTHWEST","stayOn":false,"area":false,"bogusName":false,"lon":-71.03443216316184,"lat":48.4285812267341,"elevation":[]},{"distance":305.726,"relativeDirection":"SLIGHTLY_LEFT","streetName":"Rue Léonidas-Bélanger","absoluteDirection":"WEST","stayOn":false,"area":false,"bogusName":false,"lon":-71.03922080000001,"lat":48.428575900000006,"elevation":[]},{"distance":77.062,"relativeDirection":"RIGHT","streetName":"Rue du Bon-Conseil","absoluteDirection":"NORTH","stayOn":false,"area":false,"bogusName":false,"lon":-71.04334750000001,"lat":48.428622000000004,"elevation":[]},{"distance":18.327,"relativeDirection":"LEFT","streetName":"Boulevard du Saguenay Est","absoluteDirection":"WEST","stayOn":false,"area":false,"bogusName":false,"lon":-71.0433845,"lat":48.429314600000005,"elevation":[]},{"distance":725.2510000000001,"relativeDirection":"CONTINUE","streetName":"Rue Racine Est","absoluteDirection":"WEST","stayOn":false,"area":false,"bogusName":false,"lon":-71.04363190000001,"lat":48.4293294,"elevation":[]}]}],"tooSloped":false},{"duration":595,"startTime":1522670606000,"endTime":1522671201000,"walkTime":390,"transitTime":203,"waitingTime":2,"walkDistance":491.24379698864783,"walkLimitExceeded":false,"elevationLost":0.0,"elevationGained":0.0,"transfers":0,"legs":[{"startTime":1522670606000,"endTime":1522670739000,"departureDelay":0,"arrivalDelay":0,"realTime":false,"distance":168.0,"pathway":false,"mode":"WALK","route":"","agencyTimeZoneOffset":-14400000,"interlineWithPreviousLeg":false,"from":{"name":"Origin","lon":-71.03448,"lat":48.428606,"departure":1522670606000,"orig":"","vertexType":"NORMAL"},"to":{"name":"boul. Saguenay / Jean-Langevin","stopId":"1:1993","stopCode":"1993","lon":-71.034592,"lat":48.430034,"arrival":1522670739000,"departure":1522670740000,"zoneId":"NA","stopIndex":27,"stopSequence":28,"vertexType":"TRANSIT"},"legGeometry":{"points":"suqfHf|ppLm@w@STEDg@Ty@NkBR","length":7},"rentedBike":false,"transitLeg":false,"duration":133.0,"steps":[{"distance":32.818,"relativeDirection":"DEPART","streetName":"Rue Nil-Tremblay","absoluteDirection":"NORTHEAST","stayOn":false,"area":false,"bogusName":false,"lon":-71.03443216316184,"lat":48.4285812267341,"elevation":[]},{"distance":135.18200000000002,"relativeDirection":"LEFT","streetName":"Rue Jean-Langevin","absoluteDirection":"NORTHWEST","stayOn":false,"area":false,"bogusName":false,"lon":-71.0341585,"lat":48.4288139,"elevation":[]}]},{"startTime":1522670740000,"endTime":1522670943000,"departureDelay":0,"arrivalDelay":0,"realTime":false,"distance":1534.100298980356,"pathway":false,"mode":"BUS","route":"12","agencyName":"Société de Transport du Saguenay","agencyUrl":"http://ville.saguenay.ca/fr/services-aux-citoyens/transport-sts","agencyTimeZoneOffset":-14400000,"routeColor":"556B2F","routeType":3,"routeId":"1:12","routeTextColor":"FFFFFF","interlineWithPreviousLeg":false,"tripBlockId":"29","headsign":"Terminus Chicoutimi","agencyId":"0","tripId":"1:218054","serviceDate":"20180402","from":{"name":"boul. Saguenay / Jean-Langevin","stopId":"1:1993","stopCode":"1993","lon":-71.034592,"lat":48.430034,"arrival":1522670739000,"departure":1522670740000,"zoneId":"NA","stopIndex":27,"stopSequence":28,"vertexType":"TRANSIT"},"to":{"name":"Réserve Navale (boul. Saguenay)","stopId":"1:1584","stopCode":"1584","lon":-71.055268,"lat":48.429877,"arrival":1522670943000,"departure":1522670944000,"zoneId":"NA","stopIndex":31,"stopSequence":32,"vertexType":"TRANSIT"},"legGeometry":{"points":"u~qfHf}ppLZvMR~Hr@~ZPvHsCrMFxf@|ApJ","length":8},"routeShortName":"12","routeLongName":"Rivière du Moulin","rentedBike":false,"transitLeg":true,"duration":203.0,"steps":[]},{"startTime":1522670944000,"endTime":1522671201000,"departureDelay":0,"arrivalDelay":0,"realTime":false,"distance":323.12500000000006,"pathway":false,"mode":"WALK","route":"","agencyTimeZoneOffset":-14400000,"interlineWithPreviousLeg":false,"from":{"name":"Réserve Navale (boul. Saguenay)","stopId":"1:1584","stopCode":"1584","lon":-71.055268,"lat":48.429877,"arrival":1522670943000,"departure":1522670944000,"zoneId":"NA","stopIndex":31,"stopSequence":32,"vertexType":"TRANSIT"},"to":{"name":"Destination","lon":-71.052981,"lat":48.428891,"arrival":1522671201000,"orig":"","vertexType":"NORMAL"},"legGeometry":{"points":"m}qfHf~tpLq@uCKs@QqBDCB?\\IDAfB[zC]Ck@AU","length":12},"rentedBike":false,"transitLeg":false,"duration":257.0,"steps":[{"distance":125.823,"relativeDirection":"DEPART","streetName":"bike path","absoluteDirection":"NORTHEAST","stayOn":false,"area":false,"bogusName":true,"lon":-71.05523882769663,"lat":48.429837229061626,"elevation":[]},{"distance":6.262,"relativeDirection":"RIGHT","streetName":"path","absoluteDirection":"SOUTH","stayOn":true,"area":false,"bogusName":true,"lon":-71.0536536,"lat":48.4302398,"elevation":[]},{"distance":166.236,"relativeDirection":"CONTINUE","streetName":"Rue Salaberry","absoluteDirection":"SOUTH","stayOn":false,"area":false,"bogusName":false,"lon":-71.053634,"lat":48.430185,"elevation":[]},{"distance":24.804,"relativeDirection":"LEFT","streetName":"Rue Racine Est","absoluteDirection":"EAST","stayOn":false,"area":false,"bogusName":false,"lon":-71.0532845,"lat":48.428708900000004,"elevation":[]}]}],"tooSloped":false},{"duration":595,"startTime":1522672406000,"endTime":1522673001000,"walkTime":390,"transitTime":203,"waitingTime":2,"walkDistance":491.24379698864783,"walkLimitExceeded":false,"elevationLost":0.0,"elevationGained":0.0,"transfers":0,"legs":[{"startTime":1522672406000,"endTime":1522672539000,"departureDelay":0,"arrivalDelay":0,"realTime":false,"distance":168.0,"pathway":false,"mode":"WALK","route":"","agencyTimeZoneOffset":-14400000,"interlineWithPreviousLeg":false,"from":{"name":"Origin","lon":-71.03448,"lat":48.428606,"departure":1522672406000,"orig":"","vertexType":"NORMAL"},"to":{"name":"boul. Saguenay / Jean-Langevin","stopId":"1:1993","stopCode":"1993","lon":-71.034592,"lat":48.430034,"arrival":1522672539000,"departure":1522672540000,"zoneId":"NA","stopIndex":27,"stopSequence":28,"vertexType":"TRANSIT"},"legGeometry":{"points":"suqfHf|ppLm@w@STEDg@Ty@NkBR","length":7},"rentedBike":false,"transitLeg":false,"duration":133.0,"steps":[{"distance":32.818,"relativeDirection":"DEPART","streetName":"Rue Nil-Tremblay","absoluteDirection":"NORTHEAST","stayOn":false,"area":false,"bogusName":false,"lon":-71.03443216316184,"lat":48.4285812267341,"elevation":[]},{"distance":135.18200000000002,"relativeDirection":"LEFT","streetName":"Rue Jean-Langevin","absoluteDirection":"NORTHWEST","stayOn":false,"area":false,"bogusName":false,"lon":-71.0341585,"lat":48.4288139,"elevation":[]}]},{"startTime":1522672540000,"endTime":1522672743000,"departureDelay":0,"arrivalDelay":0,"realTime":false,"distance":1534.100298980356,"pathway":false,"mode":"BUS","route":"12","agencyName":"Société de Transport du Saguenay","agencyUrl":"http://ville.saguenay.ca/fr/services-aux-citoyens/transport-sts","agencyTimeZoneOffset":-14400000,"routeColor":"556B2F","routeType":3,"routeId":"1:12","routeTextColor":"FFFFFF","interlineWithPreviousLeg":false,"tripBlockId":"26","headsign":"Terminus Chicoutimi","agencyId":"0","tripId":"1:217967","serviceDate":"20180402","from":{"name":"boul. Saguenay / Jean-Langevin","stopId":"1:1993","stopCode":"1993","lon":-71.034592,"lat":48.430034,"arrival":1522672539000,"departure":1522672540000,"zoneId":"NA","stopIndex":27,"stopSequence":28,"vertexType":"TRANSIT"},"to":{"name":"Réserve Navale (boul. Saguenay)","stopId":"1:1584","stopCode":"1584","lon":-71.055268,"lat":48.429877,"arrival":1522672743000,"departure":1522672744000,"zoneId":"NA","stopIndex":31,"stopSequence":32,"vertexType":"TRANSIT"},"legGeometry":{"points":"u~qfHf}ppLZvMR~Hr@~ZPvHsCrMFxf@|ApJ","length":8},"routeShortName":"12","routeLongName":"Rivière du Moulin","rentedBike":false,"transitLeg":true,"duration":203.0,"steps":[]},{"startTime":1522672744000,"endTime":1522673001000,"departureDelay":0,"arrivalDelay":0,"realTime":false,"distance":323.12500000000006,"pathway":false,"mode":"WALK","route":"","agencyTimeZoneOffset":-14400000,"interlineWithPreviousLeg":false,"from":{"name":"Réserve Navale (boul. Saguenay)","stopId":"1:1584","stopCode":"1584","lon":-71.055268,"lat":48.429877,"arrival":1522672743000,"departure":1522672744000,"zoneId":"NA","stopIndex":31,"stopSequence":32,"vertexType":"TRANSIT"},"to":{"name":"Destination","lon":-71.052981,"lat":48.428891,"arrival":1522673001000,"orig":"","vertexType":"NORMAL"},"legGeometry":{"points":"m}qfHf~tpLq@uCKs@QqBDCB?\\IDAfB[zC]Ck@AU","length":12},"rentedBike":false,"transitLeg":false,"duration":257.0,"steps":[{"distance":125.823,"relativeDirection":"DEPART","streetName":"bike path","absoluteDirection":"NORTHEAST","stayOn":false,"area":false,"bogusName":true,"lon":-71.05523882769663,"lat":48.429837229061626,"elevation":[]},{"distance":6.262,"relativeDirection":"RIGHT","streetName":"path","absoluteDirection":"SOUTH","stayOn":true,"area":false,"bogusName":true,"lon":-71.0536536,"lat":48.4302398,"elevation":[]},{"distance":166.236,"relativeDirection":"CONTINUE","streetName":"Rue Salaberry","absoluteDirection":"SOUTH","stayOn":false,"area":false,"bogusName":false,"lon":-71.053634,"lat":48.430185,"elevation":[]},{"distance":24.804,"relativeDirection":"LEFT","streetName":"Rue Racine Est","absoluteDirection":"EAST","stayOn":false,"area":false,"bogusName":false,"lon":-71.0532845,"lat":48.428708900000004,"elevation":[]}]}],"tooSloped":false}]},"debugOutput":{"precalculationTime":23,"pathCalculationTime":15,"pathTimes":[6,5,4],"renderingTime":1,"totalTime":39,"timedOut":false},"elevationMetadata":{"ellipsoidToGeoidDifference":-28.885904201182168,"geoidElevation":false}}