{"requestParameters":{"date":"2018/04/02","walkSpeed":"1.33","walkReluctance":"2.0","fromPlace":"48.310517,-71.109056","maxWalkDistance":"3000","waitReluctance":"1.0","carSpeed":"33","numItineraries":"3","waitAtBeginningFactor":"0.4","mode":"TRANSIT,WALK","ignoreRealtimeUpdates":"false","stairsReluctance":"2.0","toPlace":"48.394631,-71.073569","time":"10:0:00"},"plan":{"date":1522677600000,"from":{"name":"Origin","lon":-71.109056,"lat":48.310517,"orig":"","vertexType":"NORMAL"},"to":{"name":"Destination","lon":-71.073569,"lat":48.394631,"orig":"","vertexType":"NORMAL"},"itineraries":[{"duration":3128,"startTime":1522684997000,"endTime":1522688125000,"walkTime":875,"transitTime":1951,"waitingTime":302,"walkDistance":1140.2291052601856,"walkLimitExceeded":false,"elevationLost":0.0,"elevationGained":0.0,"transfers":1,"legs":[{"startTime":1522684997000,"endTime":1522685608000,"departureDelay":0,"arrivalDelay":0,"realTime":false,"distance":798.0699999999999,"pathway":false,"mode":"WALK","route":"","agencyTimeZoneOffset":-14400000,"interlineWithPreviousLeg":false,"from":{"name":"Origin","lon":-71.109056,"lat":48.310517,"departure":1522684997000,"orig":"","vertexType":"NORMAL"},"to":{"name":"Boulevard (no. 1017)","stopId":"1:1723","stopCode":"1723","lon":-71.115166,"lat":48.309087,"arrival":1522685608000,"departure":1522685609000,"zoneId":"NA","stopIndex":15,"stopSequence":16,"vertexType":"TRANSIT"},"legGeometry":{"points":"mrzeHhl_qLhBbC`AtAf@Z^VjBtBpCvD|DrFkAvCe@t@q@x@kGbFCB","length":13},"rentedBike":false,"transitLeg":false,"duration":611.0,"steps":[{"distance":489.077,"relativeDirection":"DEPART","streetName":"Rue Lapointe","absoluteDirection":"SOUTHWEST","stayOn":false,"area":false,"bogusName":false,"lon":-71.10868910780039,"lat":48.310319119850334,"elevation":[]},{"distance":308.993,"relativeDirection":"RIGHT","streetName":"Rue du Boulevard","absoluteDirection":"NORTHWEST","stayOn":false,"area":false,"bogusName":false,"lon":-71.1127642,"lat":48.3068703,"elevation":[]}]},{"startTime":1522685609000,"endTime":1522687200000,"departureDelay":0,"arrivalDelay":0,"realTime":false,"distance":14637.349521607095,"pathway":false,"mode":"BUS","route":"62","agencyName":"Société de Transport du Saguenay","agencyUrl":"http://ville.saguenay.ca/fr/services-aux-citoyens/transport-sts","agencyTimeZoneOffset":-14400000,"routeColor":"00FFFF","routeType":3,"routeId":"1:62","routeTextColor":"000000","interlineWithPreviousLeg":false,"tripBlockId":"73","headsign":"Costco","agencyId":"0","tripId":"1:218619","serviceDate":"20180402","from":{"name":"Boulevard (no. 1017)","stopId":"1:1723","stopCode":"1723","lon":-71.115166,"lat":48.309087,"arrival":1522685608000,"departure":1522685609000,"zoneId":"NA","stopIndex":15,"stopSequence":16,"vertexType":"TRANSIT"},"to":{"name":"COSTCO","stopId":"1:1710","stopCode":"1710","lon":-71.085767,"lat":48.382333,"arrival":1522687200000,"departure":1522687500000,"zoneId":"NA","stopIndex":37,"stopSequence":38,"vertexType":"TRANSIT"},"legGeometry":{"points":"qjzeHlu`qLg@`@[\\g@t@i@bACF}AlEkHvSwIrVgDpJ_KjYkAhDqDjJsA|DuGjRi@i@w@gA_@e@e@UmAc@sHmAaIiA_BAM?cADsJn@gAPkAZODcAl@}@j@w@x@ML_BlB_B`DiAlDsBdH_AfCq@zAQ^S\\{BtD}BxCyAvAyA`AqDtAiCn@yD\\w@DKAOCw@c@EAcRwRe@]_AWMAgJeB{BKe@LGDeAj@kAx@cEnC_BlAoAxAeB`DsBbIQbAiAhHk@tFMlAKzAYhCOnCKdDWjGKlAMxAa@vCWnAoBbFkH~Si@lAc@j@WNcAf@{@HiCYcBc@m@Wq@Iu@Qy@_@qBeAkAu@uAm@mImCsA_@yDs@qGk@eB[o@KWCgASaA]cBkAgPsN_FkEwAgAwAsAgAyBe@gBU}AAEMmB_@aEUaB_AeE}BqIy@mCmD{JsAuCu@_Ao@u@y@y@MOsIoKeHaKkEuFSYuAcBqA_BkDgDoBuA{JsFgKgEoBo@aAS_CAeDR}Ej@yHP{BMgBYwC{@kGoCsBs@wAUqAUaCM[eF_@{IE_B?{BBsA@]LkCHaAf@}D\\mBZkA@EXaAxBkGzFmOfD}ItBmFL[nAwDdAmDDSrBuIh@cC~@sFb@qCn@oF`@kEX{DLqBPkEDoBDs@LkIXco@FiDPmCToBVkBd@yBZmA~@uCjAoCRYtCyHQOa@y@Os@Ko@v@kB_@a@","length":201},"routeShortName":"62","routeLongName":"Portage des Roches Sud","rentedBike":false,"transitLeg":true,"duration":1591.0,"steps":[]},{"startTime":1522687500000,"endTime":1522687860000,"departureDelay":0,"arrivalDelay":0,"realTime":false,"distance":1990.475444549822,"pathway":false,"mode":"BUS","route":"175","agencyName":"Société de Transport du Saguenay","agencyUrl":"http://ville.saguenay.ca/fr/services-aux-citoyens/transport-sts","agencyTimeZoneOffset":-14400000,"routeColor":"FF00FF","routeType":3,"routeId":"1:175","routeTextColor":"FFFFFF","interlineWithPreviousLeg":false,"tripBlockId":"10","headsign":"Terminus Chicoutimi","agencyId":"0","tripId":"1:217439","serviceDate":"20180402","from":{"name":"COSTCO","stopId":"1:1710","stopCode":"1710","lon":-71.085767,"lat":48.382333,"arrival":1522687200000,"departure":1522687500000,"zoneId":"NA","stopIndex":0,"stopSequence":1,"vertexType":"TRANSIT"},"to":{"name":"boul. Talbot / boul. Barrette","stopId":"1:49","stopCode":"49","lon":-71.069502,"lat":48.394497,"arrival":1522687860000,"departure":1522687861000,"zoneId":"NA","stopIndex":7,"stopSequence":8,"vertexType":"TRANSIT"},"legGeometry":{"points":"euhfHt|zpL_BiBsCoDwCqDrCsGN_@uEoFoEiFUWSUqCwC]a@{ByC{@cAkJuKoAwA_CeCeExJ~AlB`@mAu@k@}@q@|C}Iw@}@aO_QkEsE","length":26},"routeShortName":"175","routeLongName":"Term. Chic / Costco","rentedBike":false,"transitLeg":true,"duration":360.0,"steps":[]},{"startTime":1522687861000,"endTime":1522688125000,"departureDelay":0,"arrivalDelay":0,"realTime":false,"distance":342.06699999999995,"pathway":false,"mode":"WALK","route":"","agencyTimeZoneOffset":-14400000,"interlineWithPreviousLeg":false,"from":{"name":"boul. Talbot / boul. Barrette","stopId":"1:49","stopCode":"49","lon":-71.069502,"lat":48.394497,"arrival":1522687860000,"departure":1522687861000,"zoneId":"NA","stopIndex":7,"stopSequence":8,"vertexType":"TRANSIT"},"to":{"name":"Destination","lon":-71.073569,"lat":48.394631,"arrival":1522688125000,"orig":"","vertexType":"NORMAL"},"legGeometry":{"points":"}`kfHdxwpL|BlCNNQb@?H?PuCvH{@bCOb@","length":9},"rentedBike":false,"transitLeg":false,"duration":264.0,"steps":[{"distance":98.432,"relativeDirection":"DEPART","streetName":"Boulevard Talbot","absoluteDirection":"SOUTHWEST","stayOn":false,"area":false,"bogusName":false,"lon":-71.06962085488986,"lat":48.394555935445034,"elevation":[]},{"distance":16.674,"relativeDirection":"RIGHT","streetName":"Boulevard Barrette","absoluteDirection":"NORTHWEST","stayOn":false,"area":false,"bogusName":false,"lon":-71.07041720000001,"lat":48.393846,"elevation":[]},{"distance":226.96099999999998,"relativeDirection":"SLIGHTLY_LEFT","streetName":"bike path","absoluteDirection":"WEST","stayOn":false,"area":false,"bogusName":true,"lon":-71.0705975,"lat":48.3939363,"elevation":[]}]}],"tooSloped":false},{"duration":2281,"startTime":1522687644000,"endTime":1522689925000,"walkTime":598,"transitTime":1381,"waitingTime":302,"walkDistance":773.1798872146608,"walkLimitExceeded":false,"elevationLost":0.0,"elevationGained":0.0,"transfers":1,"legs":[{"startTime":1522687644000,"endTime":1522687978000,"departureDelay":0,"arrivalDelay":0,"realTime":false,"distance":431.008,"pathway":false,"mode":"WALK","route":"","agencyTimeZoneOffset":-14400000,"interlineWithPreviousLeg":false,"from":{"name":"Origin","lon":-71.109056,"lat":48.310517,"departure":1522687644000,"orig":"","vertexType":"NORMAL"},"to":{"name":"Notre-Dame / Gauthier","stopId":"1:1737","stopCode":"1737","lon":-71.110501,"lat":48.307493,"arrival":1522687978000,"departure":1522687979000,"zoneId":"NA","stopIndex":13,"stopSequence":14,"vertexType":"TRANSIT"},"legGeometry":{"points":"mrzeHhl_qLhBbC`AtAf@ZlBsEv@|AtBhDx@pA","length":8},"rentedBike":false,"transitLeg":false,"duration":334.0,"steps":[{"distance":150.105,"relativeDirection":"DEPART","streetName":"Rue Lapointe","absoluteDirection":"SOUTHWEST","stayOn":false,"area":false,"bogusName":false,"lon":-71.10868910780039,"lat":48.310319119850334,"elevation":[]},{"distance":99.132,"relativeDirection":"LEFT","streetName":"Rue de la Fabrique","absoluteDirection":"SOUTHEAST","stayOn":false,"area":false,"bogusName":false,"lon":-71.1099185,"lat":48.3092526,"elevation":[]},{"distance":181.77100000000002,"relativeDirection":"RIGHT","streetName":"Rue Notre-Dame","absoluteDirection":"SOUTHWEST","stayOn":false,"area":false,"bogusName":false,"lon":-71.1088568,"lat":48.3087084,"elevation":[]}]},{"startTime":1522687979000,"endTime":1522689000000,"departureDelay":0,"arrivalDelay":0,"realTime":false,"distance":10677.93000402605,"pathway":false,"mode":"BUS","route":"60","agencyName":"Société de Transport du Saguenay","agencyUrl":"http://ville.saguenay.ca/fr/services-aux-citoyens/transport-sts","agencyTimeZoneOffset":-14400000,"routeColor":"00FFFF","routeType":3,"routeId":"1:60","routeTextColor":"000000","interlineWithPreviousLeg":false,"tripBlockId":"73","headsign":"Costco","agencyId":"0","tripId":"1:218620","serviceDate":"20180402","from":{"name":"Notre-Dame / Gauthier","stopId":"1:1737","stopCode":"1737","lon":-71.110501,"lat":48.307493,"arrival":1522687978000,"departure":1522687979000,"zoneId":"NA","stopIndex":13,"stopSequence":14,"vertexType":"TRANSIT"},"to":{"name":"COSTCO","stopId":"1:1710","stopCode":"1710","lon":-71.085767,"lat":48.382333,"arrival":1522689000000,"departure":1522689300000,"zoneId":"NA","stopIndex":29,"stopSequence":30,"vertexType":"TRANSIT"},"legGeometry":{"points":"aazeHbx_qLkF{IyAwDSe@U_@o@eAkDwDoF}Fa@u@iIeQ}Qi`@_@s@a@y@}@_D_Im]y@eCgCwGsDyI]}@_@y@Sc@QSW[mBuAk@Y_@KiAe@a_@_KsUsEcAg@a@YEEcFyFsUsWmB_CqB_CeFoGmAuBi@oAEKiAsBsA{A_As@gEeCy@k@iBkBgGuG[Ya@_@qFuEg@e@qAeB{BcDq@{@iAsAgYc[qJkKyN{Ok@o@{BoAc@Sm@lBcFzO}@rB}@bBcCxCsAjAcAr@eClAsJdEoF~BsJdEsJbE@D_VpLiDtAqA\\cAp@[XY^O^Mb@Ij@Er@CtAE~@I~@Kj@Od@_e@rkAUReFdMIXyCtHwBcC","length":95},"routeShortName":"60","routeLongName":"Portage des Roches Nord","rentedBike":false,"transitLeg":true,"duration":1021.0,"steps":[]},{"startTime":1522689300000,"endTime":1522689660000,"departureDelay":0,"arrivalDelay":0,"realTime":false,"distance":1990.475444549822,"pathway":false,"mode":"BUS","route":"175","agencyName":"Société de Transport du Saguenay","agencyUrl":"http://ville.saguenay.ca/fr/services-aux-citoyens/transport-sts","agencyTimeZoneOffset":-14400000,"routeColor":"FF00FF","routeType":3,"routeId":"1:175","routeTextColor":"FFFFFF","interlineWithPreviousLeg":false,"tripBlockId":"9","headsign":"Terminus Chicoutimi","agencyId":"0","tripId":"1:217405","serviceDate":"20180402","from":{"name":"COSTCO","stopId":"1:1710","stopCode":"1710","lon":-71.085767,"lat":48.382333,"arrival":1522689000000,"departure":1522689300000,"zoneId":"NA","stopIndex":0,"stopSequence":1,"vertexType":"TRANSIT"},"to":{"name":"boul. Talbot / boul. Barrette","stopId":"1:49","stopCode":"49","lon":-71.069502,"lat":48.394497,"arrival":1522689660000,"departure":1522689661000,"zoneId":"NA","stopIndex":7,"stopSequence":8,"vertexType":"TRANSIT"},"legGeometry":{"points":"euhfHt|zpL_BiBsCoDwCqDrCsGN_@uEoFoEiFUWSUqCwC]a@{ByC{@cAkJuKoAwA_CeCeExJ~AlB`@mAu@k@}@q@|C}Iw@}@aO_QkEsE","length":26},"routeShortName":"175","routeLongName":"Term. Chic / Costco","rentedBike":false,"transitLeg":true,"duration":360.0,"steps":[]},{"startTime":1522689661000,"endTime":1522689925000,"departureDelay":0,"arrivalDelay":0,"realTime":false,"distance":342.06699999999995,"pathway":false,"mode":"WALK","route":"","agencyTimeZoneOffset":-14400000,"interlineWithPreviousLeg":false,"from":{"name":"boul. Talbot / boul. Barrette","stopId":"1:49","stopCode":"49","lon":-71.069502,"lat":48.394497,"arrival":1522689660000,"departure":1522689661000,"zoneId":"NA","stopIndex":7,"stopSequence":8,"vertexType":"TRANSIT"},"to":{"name":"Destination","lon":-71.073569,"lat":48.394631,"arrival":1522689925000,"orig":"","vertexType":"NORMAL"},"legGeometry":{"points":"}`kfHdxwpL|BlCNNQb@?H?PuCvH{@bCOb@","length":9},"rentedBike":false,"transitLeg":false,"duration":264.0,"steps":[{"distance":98.432,"relativeDirection":"DEPART","streetName":"Boulevard Talbot","absoluteDirection":"SOUTHWEST","stayOn":false,"area":false,"bogusName":false,"lon":-71.06962085488986,"lat":48.394555935445034,"elevation":[]},{"distance":16.674,"relativeDirection":"RIGHT","streetName":"Boulevard Barrette","absoluteDirection":"NORTHWEST","stayOn":false,"area":false,"bogusName":false,"lon":-71.07041720000001,"lat":48.393846,"elevation":[]},{"distance":226.96099999999998,"relativeDirection":"SLIGHTLY_LEFT","streetName":"bike path","absoluteDirection":"WEST","stayOn":false,"area":false,"bogusName":true,"lon":-71.0705975,"lat":48.3939363,"elevation":[]}]}],"tooSloped":false},{"duration":2640,"startTime":1522699885000,"endTime":1522702525000,"walkTime":598,"transitTime":1380,"waitingTime":662,"walkDistance":773.1798872146608,"walkLimitExceeded":false,"elevationLost":0.0,"elevationGained":0.0,"transfers":1,"legs":[{"startTime":1522699885000,"endTime":1522700219000,"departureDelay":0,"arrivalDelay":0,"realTime":false,"distance":431.008,"pathway":false,"mode":"WALK","route":"","agencyTimeZoneOffset":-14400000,"interlineWithPreviousLeg":false,"from":{"name":"Origin","lon":-71.109056,"lat":48.310517,"departure":1522699885000,"orig":"","vertexType":"NORMAL"},"to":{"name":"Notre-Dame / Gauthier","stopId":"1:1737","stopCode":"1737","lon":-71.110501,"lat":48.307493,"arrival":1522700219000,"departure":1522700220000,"zoneId":"NA","stopIndex":14,"stopSequence":15,"vertexType":"TRANSIT"},"legGeometry":{"points":"mrzeHhl_qLhBbC`AtAf@ZlBsEv@|AtBhDx@pA","length":8},"rentedBike":false,"transitLeg":false,"duration":334.0,"steps":[{"distance":150.105,"relativeDirection":"DEPART","streetName":"Rue Lapointe","absoluteDirection":"SOUTHWEST","stayOn":false,"area":false,"bogusName":false,"lon":-71.10868910780039,"lat":48.310319119850334,"elevation":[]},{"distance":99.132,"relativeDirection":"LEFT","streetName":"Rue de la Fabrique","absoluteDirection":"SOUTHEAST","stayOn":false,"area":false,"bogusName":false,"lon":-71.1099185,"lat":48.3092526,"elevation":[]},{"distance":181.77100000000002,"relativeDirection":"RIGHT","streetName":"Rue Notre-Dame","absoluteDirection":"SOUTHWEST","stayOn":false,"area":false,"bogusName":false,"lon":-71.1088568,"lat":48.3087084,"elevation":[]}]},{"startTime":1522700220000,"endTime":1522701240000,"departureDelay":0,"arrivalDelay":0,"realTime":false,"distance":10677.93000402605,"pathway":false,"mode":"BUS","route":"62","agencyName":"Société de Transport du Saguenay","agencyUrl":"http://ville.saguenay.ca/fr/services-aux-citoyens/transport-sts","agencyTimeZoneOffset":-14400000,"routeColor":"00FFFF","routeType":3,"routeId":"1:62","routeTextColor":"000000","interlineWithPreviousLeg":false,"tripBlockId":"107","headsign":"Costco","agencyId":"0","tripId":"1:218822","serviceDate":"20180402","from":{"name":"Notre-Dame / Gauthier","stopId":"1:1737","stopCode":"1737","lon":-71.110501,"lat":48.307493,"arrival":1522700219000,"departure":1522700220000,"zoneId":"NA","stopIndex":14,"stopSequence":15,"vertexType":"TRANSIT"},"to":{"name":"COSTCO","stopId":"1:1710","stopCode":"1710","lon":-71.085767,"lat":48.382333,"arrival":1522701240000,"departure":1522701900000,"zoneId":"NA","stopIndex":30,"stopSequence":31,"vertexType":"TRANSIT"},"legGeometry":{"points":"aazeHbx_qLkF{IyAwDSe@U_@o@eAkDwDoF}Fa@u@iIeQ}Qi`@_@s@a@y@}@_D_Im]y@eCgCwGsDyI]}@_@y@Sc@QSW[mBuAk@Y_@KiAe@a_@_KsUsEcAg@a@YEEcFyFsUsWmB_CqB_CeFoGmAuBi@oAEKiAsBsA{A_As@gEeCy@k@iBkBgGuG[Ya@_@qFuEg@e@qAeB{BcDq@{@iAsAgYc[qJkKyN{Ok@o@{BoAc@Sm@lBcFzO}@rB}@bBcCxCsAjAcAr@eClAsJdEoF~BsJdEsJbEAC{TpJmHjCiEhAHz@d@pGE~@I~@Kj@Od@_e@rkAUReFdMIXyCtHwBcC","length":89},"routeShortName":"62","routeLongName":"Portage des Roches Sud","rentedBike":false,"transitLeg":true,"duration":1020.0,"steps":[]},{"startTime":1522701900000,"endTime":1522702260000,"departureDelay":0,"arrivalDelay":0,"realTime":false,"distance":1990.475444549822,"pathway":false,"mode":"BUS","route":"175","agencyName":"Société de Transport du Saguenay","agencyUrl":"http://ville.saguenay.ca/fr/services-aux-citoyens/transport-sts","agencyTimeZoneOffset":-14400000,"routeColor":"FF00FF","routeType":3,"routeId":"1:175","routeTextColor":"FFFFFF","interlineWithPreviousLeg":false,"tripBlockId":"11","headsign":"Terminus Chicoutimi","agencyId":"0","tripId":"1:217482","serviceDate":"20180402","from":{"name":"COSTCO","stopId":"1:1710","stopCode":"1710","lon":-71.085767,"lat":48.382333,"arrival":1522701240000,"departure":1522701900000,"zoneId":"NA","stopIndex":0,"stopSequence":1,"vertexType":"TRANSIT"},"to":{"name":"boul. Talbot / boul. Barrette","stopId":"1:49","stopCode":"49","lon":-71.069502,"lat":48.394497,"arrival":1522702260000,"departure":1522702261000,"zoneId":"NA","stopIndex":7,"stopSequence":8,"vertexType":"TRANSIT"},"legGeometry":{"points":"euhfHt|zpL_BiBsCoDwCqDrCsGN_@uEoFoEiFUWSUqCwC]a@{ByC{@cAkJuKoAwA_CeCeExJ~AlB`@mAu@k@}@q@|C}Iw@}@aO_QkEsE","length":26},"routeShortName":"175","routeLongName":"Term. Chic / Costco","rentedBike":false,"transitLeg":true,"duration":360.0,"steps":[]},{"startTime":1522702261000,"endTime":1522702525000,"departureDelay":0,"arrivalDelay":0,"realTime":false,"distance":342.06699999999995,"pathway":false,"mode":"WALK","route":"","agencyTimeZoneOffset":-14400000,"interlineWithPreviousLeg":false,"from":{"name":"boul. Talbot / boul. Barrette","stopId":"1:49","stopCode":"49","lon":-71.069502,"lat":48.394497,"arrival":1522702260000,"departure":1522702261000,"zoneId":"NA","stopIndex":7,"stopSequence":8,"vertexType":"TRANSIT"},"to":{"name":"Destination","lon":-71.073569,"lat":48.394631,"arrival":1522702525000,"orig":"","vertexType":"NORMAL"},"legGeometry":{"points":"}`kfHdxwpL|BlCNNQb@?H?PuCvH{@bCOb@","length":9},"rentedBike":false,"transitLeg":false,"duration":264.0,"steps":[{"distance":98.432,"relativeDirection":"DEPART","streetName":"Boulevard Talbot","absoluteDirection":"SOUTHWEST","stayOn":false,"area":false,"bogusName":false,"lon":-71.06962085488986,"lat":48.394555935445034,"elevation":[]},{"distance":16.674,"relativeDirection":"RIGHT","streetName":"Boulevard Barrette","absoluteDirection":"NORTHWEST","stayOn":false,"area":false,"bogusName":false,"lon":-71.07041720000001,"lat":48.393846,"elevation":[]},{"distance":226.96099999999998,"relativeDirection":"SLIGHTLY_LEFT","streetName":"bike path","absoluteDirection":"WEST","stayOn":false,"area":false,"bogusName":true,"lon":-71.0705975,"lat":48.3939363,"elevation":[]}]}],"tooSloped":false}]},"debugOutput":{"precalculationTime":12,"pathCalculationTime":14,"pathTimes":[7,4,3],"renderingTime":0,"totalTime":26,"timedOut":false},"elevationMetadata":{"ellipsoidToGeoidDifference":-28.885904201182168,"geoidElevation":false}}