{"requestParameters":{"date":"2018/04/02","walkSpeed":"1.33","walkReluctance":"2.0","fromPlace":"48.394631,-71.073569","maxWalkDistance":"3000","waitReluctance":"1.0","carSpeed":"33","numItineraries":"3","waitAtBeginningFactor":"0.4","mode":"TRANSIT,WALK","ignoreRealtimeUpdates":"false","stairsReluctance":"2.0","toPlace":"48.406583,-71.09023799","time":"10:50:00"},"plan":{"date":1522680600000,"from":{"name":"Origin","lon":-71.073569,"lat":48.394631,"orig":"","vertexType":"NORMAL"},"to":{"name":"Destination","lon":-71.09023799,"lat":48.406583,"orig":"","vertexType":"NORMAL"},"itineraries":[{"duration":1813,"startTime":1522680600000,"endTime":1522682413000,"walkTime":1813,"transitTime":0,"waitingTime":0,"walkDistance":2352.8811804423462,"walkLimitExceeded":false,"elevationLost":0.0,"elevationGained":0.0,"transfers":0,"legs":[{"startTime":1522680600000,"endTime":1522682413000,"departureDelay":0,"arrivalDelay":0,"realTime":false,"distance":2352.609,"pathway":false,"mode":"WALK","route":"","agencyTimeZoneOffset":-14400000,"interlineWithPreviousLeg":false,"from":{"name":"Origin","lon":-71.073569,"lat":48.394631,"departure":1522680600000,"orig":"","vertexType":"NORMAL"},"to":{"name":"Destination","lon":-71.09023799,"lat":48.406583,"arrival":1522682413000,"orig":"","vertexType":"NORMAL"},"legGeometry":{"points":"cdkfHbnxpLk@~Ak@dBoA~EmAxEg@jBaGrUk@~BKIUSa@bBiBpHQp@{ArHEPS[w@m@UbAWlAYtAUp@]Dk@Wq@c@_@zAgBtH_Ak@w@g@gAq@kAu@eIaFy@YeA]}Av@oA|Ao@hBITyAdAo@TEdAJnALfAf@vD\\~CAl@","length":45},"rentedBike":false,"transitLeg":false,"duration":1813.0,"steps":[{"distance":676.002,"relativeDirection":"DEPART","streetName":"bike path","absoluteDirection":"NORTHWEST","stayOn":false,"area":false,"bogusName":false,"lon":-71.07313078418363,"lat":48.395062296987234,"elevation":[]},{"distance":21.062,"relativeDirection":"RIGHT","streetName":"Rue Malraux","absoluteDirection":"NORTHEAST","stayOn":false,"area":false,"bogusName":false,"lon":-71.0811336,"lat":48.3980096,"elevation":[]},{"distance":321.934,"relativeDirection":"LEFT","streetName":"Boulevard Barrette","absoluteDirection":"NORTHWEST","stayOn":false,"area":false,"bogusName":false,"lon":-71.080988,"lat":48.3981725,"elevation":[]},{"distance":50.8,"relativeDirection":"RIGHT","streetName":"path","absoluteDirection":"NORTHEAST","stayOn":false,"area":false,"bogusName":true,"lon":-71.0848982,"lat":48.3994511,"elevation":[]},{"distance":190.51,"relativeDirection":"LEFT","streetName":"Rue Jean-Paul Sartre","absoluteDirection":"NORTHWEST","stayOn":false,"area":false,"bogusName":false,"lon":-71.0845255,"lat":48.3998317,"elevation":[]},{"distance":166.515,"relativeDirection":"LEFT","streetName":"Rue Yves Thériault","absoluteDirection":"NORTHWEST","stayOn":false,"area":false,"bogusName":false,"lon":-71.08566710000001,"lat":48.4009258,"elevation":[]},{"distance":692.28,"relativeDirection":"RIGHT","streetName":"Rue Victor-Guimond","absoluteDirection":"NORTHEAST","stayOn":false,"area":false,"bogusName":false,"lon":-71.08767850000001,"lat":48.4016035,"elevation":[]},{"distance":233.50600000000003,"relativeDirection":"LEFT","streetName":"Rue Descartes","absoluteDirection":"WEST","stayOn":false,"area":false,"bogusName":false,"lon":-71.0871764,"lat":48.4070606,"elevation":[]}]}],"tooSloped":false},{"duration":1405,"startTime":1522681083000,"endTime":1522682488000,"walkTime":1316,"transitTime":87,"waitingTime":2,"walkDistance":1721.004699243935,"walkLimitExceeded":false,"elevationLost":0.0,"elevationGained":0.0,"transfers":0,"legs":[{"startTime":1522681083000,"endTime":1522681632000,"departureDelay":0,"arrivalDelay":0,"realTime":false,"distance":722.0899999999999,"pathway":false,"mode":"WALK","route":"","agencyTimeZoneOffset":-14400000,"interlineWithPreviousLeg":false,"from":{"name":"Origin","lon":-71.073569,"lat":48.394631,"departure":1522681083000,"orig":"","vertexType":"NORMAL"},"to":{"name":"Église Évangélique (Malraux)","stopId":"1:1833","stopCode":"1833","lon":-71.0816,"lat":48.397718,"arrival":1522681632000,"departure":1522681633000,"zoneId":"NA","stopIndex":24,"stopSequence":25,"vertexType":"TRANSIT"},"legGeometry":{"points":"cdkfHbnxpLk@~Ak@dBoA~EmAxEg@jBaGrUk@~B|@~@DD","length":10},"rentedBike":false,"transitLeg":false,"duration":549.0,"steps":[{"distance":676.002,"relativeDirection":"DEPART","streetName":"bike path","absoluteDirection":"NORTHWEST","stayOn":false,"area":false,"bogusName":false,"lon":-71.07313078418363,"lat":48.395062296987234,"elevation":[]},{"distance":46.087999999999994,"relativeDirection":"LEFT","streetName":"Rue Malraux","absoluteDirection":"SOUTHWEST","stayOn":false,"area":false,"bogusName":false,"lon":-71.0811336,"lat":48.3980096,"elevation":[]}]},{"startTime":1522681633000,"endTime":1522681720000,"departureDelay":0,"arrivalDelay":0,"realTime":false,"distance":1171.064150370782,"pathway":false,"mode":"BUS","route":"14","agencyName":"Société de Transport du Saguenay","agencyUrl":"http://ville.saguenay.ca/fr/services-aux-citoyens/transport-sts","agencyTimeZoneOffset":-14400000,"routeColor":"C0C000","routeType":3,"routeId":"1:14","routeTextColor":"000000","interlineWithPreviousLeg":false,"tripBlockId":"30","headsign":"Talbot / Barrette","agencyId":"0","tripId":"1:218095","serviceDate":"20180402","from":{"name":"Église Évangélique (Malraux)","stopId":"1:1833","stopCode":"1833","lon":-71.0816,"lat":48.397718,"arrival":1522681632000,"departure":1522681633000,"zoneId":"NA","stopIndex":24,"stopSequence":25,"vertexType":"TRANSIT"},"to":{"name":"Malraux / Pagnol","stopId":"1:1978","stopCode":"1978","lon":-71.093388,"lat":48.400416,"arrival":1522681720000,"departure":1522681721000,"zoneId":"NA","stopIndex":29,"stopSequence":30,"vertexType":"TRANSIT"},"legGeometry":{"points":"mtkfHjbzpLvE`F`BhB?pHaBhRqAbLK~@qBxFqB|FcC~GyC\\aDkD","length":12},"routeShortName":"14","routeLongName":"Coopérative","rentedBike":false,"transitLeg":true,"duration":87.0,"steps":[]},{"startTime":1522681721000,"endTime":1522682488000,"departureDelay":0,"arrivalDelay":0,"realTime":false,"distance":998.785,"pathway":false,"mode":"WALK","route":"","agencyTimeZoneOffset":-14400000,"interlineWithPreviousLeg":false,"from":{"name":"Malraux / Pagnol","stopId":"1:1978","stopCode":"1978","lon":-71.093388,"lat":48.400416,"arrival":1522681720000,"departure":1522681721000,"zoneId":"NA","stopIndex":29,"stopSequence":30,"vertexType":"TRANSIT"},"to":{"name":"Destination","lon":-71.09023799,"lat":48.406583,"arrival":1522682488000,"orig":"","vertexType":"NORMAL"},"legGeometry":{"points":"selfHzl|pLkF{Fa@jAA?{EvMoCgCeHsG_JiINu@VgB@_@","length":11},"rentedBike":false,"transitLeg":false,"duration":767.0,"steps":[{"distance":160.301,"relativeDirection":"DEPART","streetName":"Rue Malraux","absoluteDirection":"NORTHEAST","stayOn":false,"area":false,"bogusName":false,"lon":-71.09341079342245,"lat":48.40042668071038,"elevation":[]},{"distance":247.089,"relativeDirection":"LEFT","streetName":"Boulevard Barrette","absoluteDirection":"NORTHWEST","stayOn":false,"area":false,"bogusName":false,"lon":-71.0921587,"lat":48.401604500000005,"elevation":[]},{"distance":517.189,"relativeDirection":"RIGHT","streetName":"Rue Voltaire","absoluteDirection":"NORTHEAST","stayOn":false,"area":false,"bogusName":false,"lon":-71.0948911,"lat":48.4028879,"elevation":[]},{"distance":74.206,"relativeDirection":"RIGHT","streetName":"Rue Descartes","absoluteDirection":"SOUTHEAST","stayOn":false,"area":false,"bogusName":false,"lon":-71.09118190000001,"lat":48.4068338,"elevation":[]}]}],"tooSloped":false},{"duration":1183,"startTime":1522681655000,"endTime":1522682838000,"walkTime":1035,"transitTime":146,"waitingTime":2,"walkDistance":1339.7619172878472,"walkLimitExceeded":false,"elevationLost":0.0,"elevationGained":0.0,"transfers":0,"legs":[{"startTime":1522681655000,"endTime":1522681919000,"departureDelay":0,"arrivalDelay":0,"realTime":false,"distance":336.304,"pathway":false,"mode":"WALK","route":"","agencyTimeZoneOffset":-14400000,"interlineWithPreviousLeg":false,"from":{"name":"Origin","lon":-71.073569,"lat":48.394631,"departure":1522681655000,"orig":"","vertexType":"NORMAL"},"to":{"name":"Roitelets / Sapins","stopId":"1:1513","stopCode":"1513","lon":-71.069396,"lat":48.393523,"arrival":1522681919000,"departure":1522681920000,"zoneId":"NA","stopIndex":0,"stopSequence":1,"vertexType":"TRANSIT"},"legGeometry":{"points":"cdkfHbnxpLNc@z@cCtCwH?Q?IPc@OOFQ@CnA{C","length":11},"rentedBike":false,"transitLeg":false,"duration":264.0,"steps":[{"distance":226.96099999999998,"relativeDirection":"DEPART","streetName":"bike path","absoluteDirection":"SOUTHEAST","stayOn":false,"area":false,"bogusName":false,"lon":-71.07313078418363,"lat":48.395062296987234,"elevation":[]},{"distance":16.674,"relativeDirection":"SLIGHTLY_RIGHT","streetName":"Boulevard Barrette","absoluteDirection":"SOUTHEAST","stayOn":false,"area":false,"bogusName":false,"lon":-71.0705975,"lat":48.3939363,"elevation":[]},{"distance":10.705,"relativeDirection":"LEFT","streetName":"Boulevard Talbot","absoluteDirection":"NORTHEAST","stayOn":false,"area":false,"bogusName":false,"lon":-71.07041720000001,"lat":48.393846,"elevation":[]},{"distance":81.964,"relativeDirection":"RIGHT","streetName":"Rue Des Roitelets","absoluteDirection":"SOUTHEAST","stayOn":false,"area":false,"bogusName":false,"lon":-71.0703318,"lat":48.3939238,"elevation":[]}]},{"startTime":1522681920000,"endTime":1522682066000,"departureDelay":0,"arrivalDelay":0,"realTime":false,"distance":2001.932967403964,"pathway":false,"mode":"BUS","route":"14","agencyName":"Société de Transport du Saguenay","agencyUrl":"http://ville.saguenay.ca/fr/services-aux-citoyens/transport-sts","agencyTimeZoneOffset":-14400000,"routeColor":"C0C000","routeType":3,"routeId":"1:14","routeTextColor":"000000","interlineWithPreviousLeg":false,"tripBlockId":"31","headsign":"Terminus Chicoutimi","agencyId":"0","tripId":"1:218131","serviceDate":"20180402","from":{"name":"Roitelets / Sapins","stopId":"1:1513","stopCode":"1513","lon":-71.069396,"lat":48.393523,"arrival":1522681919000,"departure":1522681920000,"zoneId":"NA","stopIndex":0,"stopSequence":1,"vertexType":"TRANSIT"},"to":{"name":"Malraux / Pagnol","stopId":"1:441","stopCode":"441","lon":-71.09356,"lat":48.400447,"arrival":1522682066000,"departure":1522682067000,"zoneId":"NA","stopIndex":6,"stopSequence":7,"vertexType":"TRANSIT"},"legGeometry":{"points":"azjfHfwwpLiEfLuBzFsAnDgGzSWfAcD`Mi@dCgChLmCzMwGd\\aDxOdFtF","length":13},"routeShortName":"14","routeLongName":"Coopérative","rentedBike":false,"transitLeg":true,"duration":146.0,"steps":[]},{"startTime":1522682067000,"endTime":1522682838000,"departureDelay":0,"arrivalDelay":0,"realTime":false,"distance":1003.291,"pathway":false,"mode":"WALK","route":"","agencyTimeZoneOffset":-14400000,"interlineWithPreviousLeg":false,"from":{"name":"Malraux / Pagnol","stopId":"1:441","stopCode":"441","lon":-71.09356,"lat":48.400447,"arrival":1522682066000,"departure":1522682067000,"zoneId":"NA","stopIndex":6,"stopSequence":7,"vertexType":"TRANSIT"},"to":{"name":"Destination","lon":-71.09023799,"lat":48.406583,"arrival":1522682838000,"orig":"","vertexType":"NORMAL"},"legGeometry":{"points":"melfH`m|pLEEkF{Fa@jAA?{EvMoCgCeHsG_JiINu@VgB@_@","length":12},"rentedBike":false,"transitLeg":false,"duration":771.0,"steps":[{"distance":164.807,"relativeDirection":"DEPART","streetName":"Rue Malraux","absoluteDirection":"NORTHEAST","stayOn":false,"area":false,"bogusName":false,"lon":-71.0934459868607,"lat":48.400393574945504,"elevation":[]},{"distance":247.089,"relativeDirection":"LEFT","streetName":"Boulevard Barrette","absoluteDirection":"NORTHWEST","stayOn":false,"area":false,"bogusName":false,"lon":-71.0921587,"lat":48.401604500000005,"elevation":[]},{"distance":517.189,"relativeDirection":"RIGHT","streetName":"Rue Voltaire","absoluteDirection":"NORTHEAST","stayOn":false,"area":false,"bogusName":false,"lon":-71.0948911,"lat":48.4028879,"elevation":[]},{"distance":74.206,"relativeDirection":"RIGHT","streetName":"Rue Descartes","absoluteDirection":"SOUTHEAST","stayOn":false,"area":false,"bogusName":false,"lon":-71.09118190000001,"lat":48.4068338,"elevation":[]}]}],"tooSloped":false}]},"debugOutput":{"precalculationTime":19,"pathCalculationTime":27,"pathTimes":[16,6,5],"renderingTime":0,"totalTime":46,"timedOut":false},"elevationMetadata":{"ellipsoidToGeoidDifference":-28.885904201182168,"geoidElevation":false}}