{"requestParameters":{"date":"2018/04/02","walkSpeed":"1.33","walkReluctance":"2.0","fromPlace":"48.403952,-71.054642","maxWalkDistance":"3000","waitReluctance":"1.0","carSpeed":"33","numItineraries":"3","waitAtBeginningFactor":"0.4","mode":"TRANSIT,WALK","ignoreRealtimeUpdates":"false","stairsReluctance":"2.0","toPlace":"48.395234,-71.069299","time":"16:0:00"},"plan":{"date":1522699200000,"from":{"name":"Origin","lon":-71.054642,"lat":48.403952,"orig":"","vertexType":"NORMAL"},"to":{"name":"Destination","lon":-71.069299,"lat":48.395234,"orig":"","vertexType":"NORMAL"},"itineraries":[{"duration":885,"startTime":1522699249000,"endTime":1522700134000,"walkTime":583,"transitTime":300,"waitingTime":2,"walkDistance":716.9434436016834,"walkLimitExceeded":false,"elevationLost":0.0,"elevationGained":0.0,"transfers":0,"legs":[{"startTime":1522699249000,"endTime":1522699619000,"departureDelay":0,"arrivalDelay":0,"realTime":false,"distance":443.3719999999999,"pathway":false,"mode":"WALK","route":"","agencyTimeZoneOffset":-14400000,"interlineWithPreviousLeg":false,"from":{"name":"Origin","lon":-71.054642,"lat":48.403952,"departure":1522699249000,"orig":"","vertexType":"NORMAL"},"to":{"name":"Place du Royaume (Saguenéens)","stopId":"1:1294","stopCode":"1294","lon":-71.057691,"lat":48.402355,"arrival":1522699619000,"departure":1522699620000,"zoneId":"NA","stopIndex":24,"stopSequence":25,"vertexType":"TRANSIT"},"legGeometry":{"points":"{zlfHhytpLJPNVVq@PCb@TTYFH@DTRVXJJPFXFDBXFFBVFHB\\HFr@BLo@dEJJDZBLRh@k@vD","length":28},"rentedBike":false,"transitLeg":false,"duration":370.0,"steps":[{"distance":55.269,"relativeDirection":"DEPART","streetName":"parking aisle","absoluteDirection":"SOUTHWEST","stayOn":false,"area":false,"bogusName":false,"lon":-71.05444515294332,"lat":48.40382759190054,"elevation":[]},{"distance":37.529,"relativeDirection":"RIGHT","streetName":"parking aisle","absoluteDirection":"SOUTHWEST","stayOn":true,"area":false,"bogusName":true,"lon":-71.0543818,"lat":48.403475,"elevation":[]},{"distance":131.32600000000002,"relativeDirection":"RIGHT","streetName":"service road","absoluteDirection":"SOUTHWEST","stayOn":true,"area":false,"bogusName":true,"lon":-71.0543643,"lat":48.403182300000005,"elevation":[]},{"distance":102.75299999999999,"relativeDirection":"RIGHT","streetName":"parking aisle","absoluteDirection":"WEST","stayOn":true,"area":false,"bogusName":true,"lon":-71.0550072,"lat":48.402104300000005,"elevation":[]},{"distance":44.199,"relativeDirection":"LEFT","streetName":"service road","absoluteDirection":"SOUTHWEST","stayOn":true,"area":false,"bogusName":true,"lon":-71.0563248,"lat":48.4022894,"elevation":[]},{"distance":72.296,"relativeDirection":"RIGHT","streetName":"Rue des Saguenéens","absoluteDirection":"WEST","stayOn":false,"area":false,"bogusName":false,"lon":-71.0568056,"lat":48.4020704,"elevation":[]}]},{"startTime":1522699620000,"endTime":1522699920000,"departureDelay":0,"arrivalDelay":0,"realTime":false,"distance":3143.631018514618,"pathway":false,"mode":"BUS","route":"15","agencyName":"Société de Transport du Saguenay","agencyUrl":"http://ville.saguenay.ca/fr/services-aux-citoyens/transport-sts","agencyTimeZoneOffset":-14400000,"routeColor":"FF00FF","routeType":3,"routeId":"1:15","routeTextColor":"FFFFFF","interlineWithPreviousLeg":false,"tripBlockId":"31","headsign":"Talbot / Barrette","agencyId":"0","tripId":"1:218140","serviceDate":"20180402","from":{"name":"Place du Royaume (Saguenéens)","stopId":"1:1294","stopCode":"1294","lon":-71.057691,"lat":48.402355,"arrival":1522699619000,"departure":1522699620000,"zoneId":"NA","stopIndex":24,"stopSequence":25,"vertexType":"TRANSIT"},"to":{"name":"Roitelets / Sapins","stopId":"1:1543","stopCode":"1543","lon":-71.069553,"lat":48.393375,"arrival":1522699920000,"departure":1522699921000,"zoneId":"NA","stopIndex":35,"stopSequence":36,"vertexType":"TRANSIT"},"legGeometry":{"points":"_rlfHjmupLbCaO?qLa@uJzF`ApF~@~@PzAgEeDcBf@qAWcKUqEx@Ef@ExDVjDxAFBrBvAfGjG@BjCzC~DxC@@zA~Cb@fCJlC?BsBre@?DWbOAn@?nEGnM@H\\hCzA~ELvAAlAi@jDo@nB","length":40},"routeShortName":"15","routeLongName":"Term. Chic / Costco","rentedBike":false,"transitLeg":true,"duration":300.0,"steps":[]},{"startTime":1522699921000,"endTime":1522700134000,"departureDelay":0,"arrivalDelay":0,"realTime":false,"distance":273.344,"pathway":false,"mode":"WALK","route":"","agencyTimeZoneOffset":-14400000,"interlineWithPreviousLeg":false,"from":{"name":"Roitelets / Sapins","stopId":"1:1543","stopCode":"1543","lon":-71.069553,"lat":48.393375,"arrival":1522699920000,"departure":1522699921000,"zoneId":"NA","stopIndex":35,"stopSequence":36,"vertexType":"TRANSIT"},"to":{"name":"Destination","lon":-71.069299,"lat":48.395234,"arrival":1522700134000,"orig":"","vertexType":"NORMAL"},"legGeometry":{"points":"oyjfHxwwpL?@mAzCMHC@Qb@OOOQ_EyEUYAA","length":11},"rentedBike":false,"transitLeg":false,"duration":213.0,"steps":[{"distance":84.014,"relativeDirection":"DEPART","streetName":"bike path","absoluteDirection":"NORTHWEST","stayOn":false,"area":false,"bogusName":true,"lon":-71.0695674967601,"lat":48.39336056343373,"elevation":[]},{"distance":16.674,"relativeDirection":"SLIGHTLY_LEFT","streetName":"Boulevard Barrette","absoluteDirection":"NORTHWEST","stayOn":false,"area":false,"bogusName":false,"lon":-71.07041720000001,"lat":48.393846,"elevation":[]},{"distance":172.65599999999998,"relativeDirection":"RIGHT","streetName":"Boulevard Talbot","absoluteDirection":"NORTHEAST","stayOn":false,"area":false,"bogusName":false,"lon":-71.0705975,"lat":48.3939363,"elevation":[]}]}],"tooSloped":false},{"duration":559,"startTime":1522699916000,"endTime":1522700475000,"walkTime":234,"transitTime":323,"waitingTime":2,"walkDistance":282.5904060114106,"walkLimitExceeded":false,"elevationLost":0.0,"elevationGained":0.0,"transfers":0,"legs":[{"startTime":1522699916000,"endTime":1522700136000,"departureDelay":0,"arrivalDelay":0,"realTime":false,"distance":265.091,"pathway":false,"mode":"WALK","route":"","agencyTimeZoneOffset":-14400000,"interlineWithPreviousLeg":false,"from":{"name":"Origin","lon":-71.054642,"lat":48.403952,"departure":1522699916000,"orig":"","vertexType":"NORMAL"},"to":{"name":"Champs-Élysées (no. 1415)","stopId":"1:1925","stopCode":"1925","lon":-71.051931,"lat":48.403672,"arrival":1522700136000,"departure":1522700137000,"zoneId":"NA","stopIndex":18,"stopSequence":19,"vertexType":"TRANSIT"},"legGeometry":{"points":"{zlfHhytpLKMS]U_@S]Yc@Vu@Ng@QSj@eBDM?q@A{Ad@MNG","length":15},"rentedBike":false,"transitLeg":false,"duration":220.0,"steps":[{"distance":233.988,"relativeDirection":"DEPART","streetName":"parking aisle","absoluteDirection":"NORTHEAST","stayOn":false,"area":false,"bogusName":false,"lon":-71.05444515294332,"lat":48.40382759190054,"elevation":[]},{"distance":31.103,"relativeDirection":"RIGHT","streetName":"Rue des Champs-Élysées","absoluteDirection":"SOUTH","stayOn":false,"area":false,"bogusName":false,"lon":-71.0518792,"lat":48.4039711,"elevation":[]}]},{"startTime":1522700137000,"endTime":1522700460000,"departureDelay":0,"arrivalDelay":0,"realTime":false,"distance":1897.083275772013,"pathway":false,"mode":"BUS","route":"175","agencyName":"Société de Transport du Saguenay","agencyUrl":"http://ville.saguenay.ca/fr/services-aux-citoyens/transport-sts","agencyTimeZoneOffset":-14400000,"routeColor":"FF00FF","routeType":3,"routeId":"1:175","routeTextColor":"FFFFFF","interlineWithPreviousLeg":false,"tripBlockId":"80","headsign":"Costco","agencyId":"0","tripId":"1:218654","serviceDate":"20180402","from":{"name":"Champs-Élysées (no. 1415)","stopId":"1:1925","stopCode":"1925","lon":-71.051931,"lat":48.403672,"arrival":1522700136000,"departure":1522700137000,"zoneId":"NA","stopIndex":18,"stopSequence":19,"vertexType":"TRANSIT"},"to":{"name":"boul. Talbot (no. 1870)","stopId":"1:1556","stopCode":"1556","lon":-71.069429,"lat":48.3951,"arrival":1522700460000,"departure":1522700461000,"zoneId":"NA","stopIndex":24,"stopSequence":25,"vertexType":"TRANSIT"},"legGeometry":{"points":"azlfHvhtpL~HsB^KZ|DJpII~Fa@rFUzBi@bDUxAm@nCcAlDM^RTfD`DjF`FjCrCrAvAbCfDjIfMdAzAfFpHd@n@nC`D","length":24},"routeShortName":"175","routeLongName":"Term. Chic / Costco","rentedBike":false,"transitLeg":true,"duration":323.0,"steps":[]},{"startTime":1522700461000,"endTime":1522700475000,"departureDelay":0,"arrivalDelay":0,"realTime":false,"distance":17.387,"pathway":false,"mode":"WALK","route":"","agencyTimeZoneOffset":-14400000,"interlineWithPreviousLeg":false,"from":{"name":"boul. Talbot (no. 1870)","stopId":"1:1556","stopCode":"1556","lon":-71.069429,"lat":48.3951,"arrival":1522700460000,"departure":1522700461000,"zoneId":"NA","stopIndex":24,"stopSequence":25,"vertexType":"TRANSIT"},"to":{"name":"Destination","lon":-71.069299,"lat":48.395234,"arrival":1522700475000,"orig":"","vertexType":"NORMAL"},"legGeometry":{"points":"adkfHjvwpLUYAA","length":3},"rentedBike":false,"transitLeg":false,"duration":14.0,"steps":[{"distance":17.387,"relativeDirection":"DEPART","streetName":"Boulevard Talbot","absoluteDirection":"NORTHEAST","stayOn":false,"area":false,"bogusName":false,"lon":-71.0693341574882,"lat":48.39505259726926,"elevation":[]}]}],"tooSloped":false},{"duration":559,"startTime":1522700816000,"endTime":1522701375000,"walkTime":234,"transitTime":323,"waitingTime":2,"walkDistance":282.5904060114106,"walkLimitExceeded":false,"elevationLost":0.0,"elevationGained":0.0,"transfers":0,"legs":[{"startTime":1522700816000,"endTime":1522701036000,"departureDelay":0,"arrivalDelay":0,"realTime":false,"distance":265.091,"pathway":false,"mode":"WALK","route":"","agencyTimeZoneOffset":-14400000,"interlineWithPreviousLeg":false,"from":{"name":"Origin","lon":-71.054642,"lat":48.403952,"departure":1522700816000,"orig":"","vertexType":"NORMAL"},"to":{"name":"Champs-Élysées (no. 1415)","stopId":"1:1925","stopCode":"1925","lon":-71.051931,"lat":48.403672,"arrival":1522701036000,"departure":1522701037000,"zoneId":"NA","stopIndex":18,"stopSequence":19,"vertexType":"TRANSIT"},"legGeometry":{"points":"{zlfHhytpLKMS]U_@S]Yc@Vu@Ng@QSj@eBDM?q@A{Ad@MNG","length":15},"rentedBike":false,"transitLeg":false,"duration":220.0,"steps":[{"distance":233.988,"relativeDirection":"DEPART","streetName":"parking aisle","absoluteDirection":"NORTHEAST","stayOn":false,"area":false,"bogusName":false,"lon":-71.05444515294332,"lat":48.40382759190054,"elevation":[]},{"distance":31.103,"relativeDirection":"RIGHT","streetName":"Rue des Champs-Élysées","absoluteDirection":"SOUTH","stayOn":false,"area":false,"bogusName":false,"lon":-71.0518792,"lat":48.4039711,"elevation":[]}]},{"startTime":1522701037000,"endTime":1522701360000,"departureDelay":0,"arrivalDelay":0,"realTime":false,"distance":1897.083275772013,"pathway":false,"mode":"BUS","route":"175","agencyName":"Société de Transport du Saguenay","agencyUrl":"http://ville.saguenay.ca/fr/services-aux-citoyens/transport-sts","agencyTimeZoneOffset":-14400000,"routeColor":"FF00FF","routeType":3,"routeId":"1:175","routeTextColor":"FFFFFF","interlineWithPreviousLeg":false,"tripBlockId":"7","headsign":"Costco","agencyId":"0","tripId":"1:217340","serviceDate":"20180402","from":{"name":"Champs-Élysées (no. 1415)","stopId":"1:1925","stopCode":"1925","lon":-71.051931,"lat":48.403672,"arrival":1522701036000,"departure":1522701037000,"zoneId":"NA","stopIndex":18,"stopSequence":19,"vertexType":"TRANSIT"},"to":{"name":"boul. Talbot (no. 1870)","stopId":"1:1556","stopCode":"1556","lon":-71.069429,"lat":48.3951,"arrival":1522701360000,"departure":1522701361000,"zoneId":"NA","stopIndex":24,"stopSequence":25,"vertexType":"TRANSIT"},"legGeometry":{"points":"azlfHvhtpL~HsB^KZ|DJpII~Fa@rFUzBi@bDUxAm@nCcAlDM^RTfD`DjF`FjCrCrAvAbCfDjIfMdAzAfFpHd@n@nC`D","length":24},"routeShortName":"175","routeLongName":"Term. Chic / Costco","rentedBike":false,"transitLeg":true,"duration":323.0,"steps":[]},{"startTime":1522701361000,"endTime":1522701375000,"departureDelay":0,"arrivalDelay":0,"realTime":false,"distance":17.387,"pathway":false,"mode":"WALK","route":"","agencyTimeZoneOffset":-14400000,"interlineWithPreviousLeg":false,"from":{"name":"boul. Talbot (no. 1870)","stopId":"1:1556","stopCode":"1556","lon":-71.069429,"lat":48.3951,"arrival":1522701360000,"departure":1522701361000,"zoneId":"NA","stopIndex":24,"stopSequence":25,"vertexType":"TRANSIT"},"to":{"name":"Destination","lon":-71.069299,"lat":48.395234,"arrival":1522701375000,"orig":"","vertexType":"NORMAL"},"legGeometry":{"points":"adkfHjvwpLUYAA","length":3},"rentedBike":false,"transitLeg":false,"duration":14.0,"steps":[{"distance":17.387,"relativeDirection":"DEPART","streetName":"Boulevard Talbot","absoluteDirection":"NORTHEAST","stayOn":false,"area":false,"bogusName":false,"lon":-71.0693341574882,"lat":48.39505259726926,"elevation":[]}]}],"tooSloped":false}]},"debugOutput":{"precalculationTime":31,"pathCalculationTime":24,"pathTimes":[15,4,5],"renderingTime":0,"totalTime":55,"timedOut":false},"elevationMetadata":{"ellipsoidToGeoidDifference":-28.885904201182168,"geoidElevation":false}}