{"requestParameters":{"date":"2018/04/02","walkSpeed":"1.33","walkReluctance":"2.0","fromPlace":"48.307486,-71.113426","maxWalkDistance":"3000","waitReluctance":"1.0","carSpeed":"33","numItineraries":"3","waitAtBeginningFactor":"0.4","mode":"TRANSIT,WALK","ignoreRealtimeUpdates":"false","stairsReluctance":"2.0","toPlace":"48.305355,-71.199091","time":"17:50:00"},"plan":{"date":1522705800000,"from":{"name":"Origin","lon":-71.113426,"lat":48.307486,"orig":"","vertexType":"NORMAL"},"to":{"name":"Destination","lon":-71.199091,"lat":48.305355,"orig":"","vertexType":"NORMAL"},"itineraries":[{"duration":696,"startTime":1522708029000,"endTime":1522708725000,"walkTime":219,"transitTime":475,"waitingTime":2,"walkDistance":289.761,"walkLimitExceeded":false,"elevationLost":0.0,"elevationGained":0.0,"transfers":0,"legs":[{"startTime":1522708029000,"endTime":1522708199000,"departureDelay":0,"arrivalDelay":0,"realTime":false,"distance":224.971,"pathway":false,"mode":"WALK","route":"","agencyTimeZoneOffset":-14400000,"interlineWithPreviousLeg":false,"from":{"name":"Origin","lon":-71.113426,"lat":48.307486,"departure":1522708029000,"orig":"","vertexType":"NORMAL"},"to":{"name":"Boulevard (no. 1017)","stopId":"1:1723","stopCode":"1723","lon":-71.115166,"lat":48.309087,"arrival":1522708199000,"departure":1522708200000,"zoneId":"NA","stopIndex":15,"stopSequence":16,"vertexType":"TRANSIT"},"legGeometry":{"points":"{_zeHhk`qLS\\q@x@kGbFCB","length":5},"rentedBike":false,"transitLeg":false,"duration":170.0,"steps":[{"distance":224.971,"relativeDirection":"DEPART","streetName":"Rue du Boulevard","absoluteDirection":"NORTHWEST","stayOn":false,"area":false,"bogusName":false,"lon":-71.11364918879308,"lat":48.30734223154845,"elevation":[]}]},{"startTime":1522708200000,"endTime":1522708675000,"departureDelay":0,"arrivalDelay":0,"realTime":false,"distance":7007.218276369067,"pathway":false,"mode":"BUS","route":"62","agencyName":"Société de Transport du Saguenay","agencyUrl":"http://ville.saguenay.ca/fr/services-aux-citoyens/transport-sts","agencyTimeZoneOffset":-14400000,"routeColor":"00FFFF","routeType":3,"routeId":"1:62","routeTextColor":"000000","interlineWithPreviousLeg":false,"tripBlockId":"23","headsign":"Barrage Port. Roches","agencyId":"0","tripId":"1:217895","serviceDate":"20180402","from":{"name":"Boulevard (no. 1017)","stopId":"1:1723","stopCode":"1723","lon":-71.115166,"lat":48.309087,"arrival":1522708199000,"departure":1522708200000,"zoneId":"NA","stopIndex":15,"stopSequence":16,"vertexType":"TRANSIT"},"to":{"name":"ch. Portage Roches S (no. 3812)","stopId":"1:1729","stopCode":"1729","lon":-71.200378,"lat":48.305216,"arrival":1522708675000,"departure":1522708676000,"zoneId":"NA","stopIndex":26,"stopSequence":27,"vertexType":"TRANSIT"},"legGeometry":{"points":"qjzeHlu`qLg@`@[\\g@t@i@bACF}AlEkHvSwIrVgDpJ_KjYkAhDqDjJzCrCpI`Jpb@zb@g@zAUz@[bA?b@@~@J|@v@zDxAnGxAjFbBjFr@|AtBzEf@rAd@|AdA~Df@tBv@xE^xCh@nHVdDHnAl@lJ^xEp@nHTnAXdA`AlCjAdC\\l@fAhA|@x@d@^JFdBlAnDrCzAnBr@dAl@`Ah@nAb@rALl@PtAJrCBt@BfKBr@Dn@Fh@Jr@`AnEPhADdABn@@xACx@OxBo@xGm@jHy@nLQhBmDfVQfBElBOnDSpBQjAWhA]dA_AbDWtAGbAE`DCx@G~@WlBObAq@tC]bB_@hDIbA]zDOtCQ~A[`BOh@_AxBiCpFoAtC_@|@CF","length":106},"routeShortName":"62","routeLongName":"Portage des Roches Sud","rentedBike":false,"transitLeg":true,"duration":475.0,"steps":[]},{"startTime":1522708676000,"endTime":1522708725000,"departureDelay":0,"arrivalDelay":0,"realTime":false,"distance":64.79,"pathway":false,"mode":"WALK","route":"","agencyTimeZoneOffset":-14400000,"interlineWithPreviousLeg":false,"from":{"name":"ch. Portage Roches S (no. 3812)","stopId":"1:1729","stopCode":"1729","lon":-71.200378,"lat":48.305216,"arrival":1522708675000,"departure":1522708676000,"zoneId":"NA","stopIndex":26,"stopSequence":27,"vertexType":"TRANSIT"},"to":{"name":"Destination","lon":-71.199091,"lat":48.305355,"arrival":1522708725000,"orig":"","vertexType":"NORMAL"},"legGeometry":{"points":"oryeHliqqLfAgC","length":2},"rentedBike":false,"transitLeg":false,"duration":49.0,"steps":[{"distance":64.79,"relativeDirection":"DEPART","streetName":"Chemin du Portage des Roches Sud","absoluteDirection":"SOUTHEAST","stayOn":false,"area":false,"bogusName":false,"lon":-71.2003874282839,"lat":48.305208134944,"elevation":[]}]}],"tooSloped":false},{"duration":3778,"startTime":1522706187000,"endTime":1522709965000,"walkTime":3296,"transitTime":480,"waitingTime":2,"walkDistance":4348.999037591886,"walkLimitExceeded":false,"elevationLost":0.0,"elevationGained":0.0,"transfers":0,"legs":[{"startTime":1522706187000,"endTime":1522707659000,"departureDelay":0,"arrivalDelay":0,"realTime":false,"distance":1937.282,"pathway":false,"mode":"WALK","route":"","agencyTimeZoneOffset":-14400000,"interlineWithPreviousLeg":false,"from":{"name":"Origin","lon":-71.113426,"lat":48.307486,"departure":1522706187000,"orig":"","vertexType":"NORMAL"},"to":{"name":"Boulevard / boul. Talbot","stopId":"1:1767","stopCode":"1767","lon":-71.134005,"lat":48.318019,"arrival":1522707659000,"departure":1522707660000,"zoneId":"NA","stopIndex":8,"stopSequence":9,"vertexType":"TRANSIT"},"legGeometry":{"points":"{_zeHhk`qLS\\q@x@kGbFCBQLk@r@{AhCa@p@Yp@A@g@xAmHtSGPqBtF{ElNABcDhJ?B}JnY?@aDfJ}@bC]p@qAtD","length":25},"rentedBike":false,"transitLeg":false,"duration":1472.0,"steps":[{"distance":1937.282,"relativeDirection":"DEPART","streetName":"Rue du Boulevard","absoluteDirection":"NORTHWEST","stayOn":false,"area":false,"bogusName":false,"lon":-71.11364918879308,"lat":48.30734223154845,"elevation":[]}]},{"startTime":1522707660000,"endTime":1522708140000,"departureDelay":0,"arrivalDelay":0,"realTime":false,"distance":5666.858262120488,"pathway":false,"mode":"BUS","route":"60","agencyName":"Société de Transport du Saguenay","agencyUrl":"http://ville.saguenay.ca/fr/services-aux-citoyens/transport-sts","agencyTimeZoneOffset":-14400000,"routeColor":"00FFFF","routeType":3,"routeId":"1:60","routeTextColor":"000000","interlineWithPreviousLeg":false,"tripBlockId":"53","headsign":"Camping Rocaille","agencyId":"0","tripId":"1:218476","serviceDate":"20180402","from":{"name":"Boulevard / boul. Talbot","stopId":"1:1767","stopCode":"1767","lon":-71.134005,"lat":48.318019,"arrival":1522707659000,"departure":1522707660000,"zoneId":"NA","stopIndex":8,"stopSequence":9,"vertexType":"TRANSIT"},"to":{"name":"Camping La Rocaille (ch. Portage Roches N)","stopId":"1:1771","stopCode":"1771","lon":-71.201087,"lat":48.308942,"arrival":1522708140000,"departure":1522708141000,"zoneId":"NA","stopIndex":20,"stopSequence":21,"vertexType":"TRANSIT"},"legGeometry":{"points":"gb|eHzjdqLuGjR\\\\v@z@`DxCnAjA|@|@|@l@nFhCjBjA`CfBfB`BzBfDnBvCn@lAl@pAVbAlAxGHb@^|Bh@jERtBBVJjALzB?~EAnFE`J@R@fCDn@LbAp@hCt@nBVf@r@~@j@v@l@tA`@dAp@nAHLh@t@b@r@ZvA\\lCF~@@dAMtDFdBHz@zArJl@vDNr@Rr@DH`@`At@jAh@d@hBfB`@n@n@fBn@tD\\bELz@ZjAjC~Fv@zBf@|BXt@dBpCHN^z@N~@A|@UtB?~BHlARrAJvALdEJzDKhFWtC}AdPuCl^u@vHc@`C]jB_BvJe@|Bo@rBYr@Sf@kFpP]|Ao@lDAH[|A]`AoAfCg@dB","length":101},"routeShortName":"60","routeLongName":"Portage des Roches Nord","rentedBike":false,"transitLeg":true,"duration":480.0,"steps":[]},{"startTime":1522708141000,"endTime":1522709965000,"departureDelay":0,"arrivalDelay":0,"realTime":false,"distance":2411.652,"pathway":false,"mode":"WALK","route":"","agencyTimeZoneOffset":-14400000,"interlineWithPreviousLeg":false,"from":{"name":"Camping La Rocaille (ch. Portage Roches N)","stopId":"1:1771","stopCode":"1771","lon":-71.201087,"lat":48.308942,"arrival":1522708140000,"departure":1522708141000,"zoneId":"NA","stopIndex":20,"stopSequence":21,"vertexType":"TRANSIT"},"to":{"name":"Destination","lon":-71.199091,"lat":48.305355,"arrival":1522709965000,"orig":"","vertexType":"NORMAL"},"legGeometry":{"points":"sizeH~mqqLA@iA~Dq@rCUnAKnABrAHrALlAFvAO|AUlAGj@Ch@@^Db@d@|CKbAm@tAoAbBgBlBoAtAeApBOb@C^HNRHvHjB`GhBtBhDl@`ARGCkCFuC\\mF^uDbAwEpAmFX_Bd@gCh@_FHoDEoEb@mFlBwGTi@@AfAgC","length":48},"rentedBike":false,"transitLeg":false,"duration":1824.0,"steps":[{"distance":854.84,"relativeDirection":"DEPART","streetName":"Chemin du Portage-des-Roches Nord","absoluteDirection":"NORTHWEST","stayOn":false,"area":false,"bogusName":false,"lon":-71.20111731093256,"lat":48.30890807723477,"elevation":[]},{"distance":485.27099999999996,"relativeDirection":"LEFT","streetName":"Chemin du Portage-des-Roches Nord","absoluteDirection":"SOUTHWEST","stayOn":true,"area":false,"bogusName":false,"lon":-71.2108706,"lat":48.311609100000005,"elevation":[]},{"distance":1071.541,"relativeDirection":"LEFT","streetName":"Chemin du Portage des Roches Sud","absoluteDirection":"EAST","stayOn":false,"area":false,"bogusName":false,"lon":-71.2132192,"lat":48.3076811,"elevation":[]}]}],"tooSloped":false}]},"debugOutput":{"precalculationTime":1,"pathCalculationTime":29,"pathTimes":[4,8],"renderingTime":1,"totalTime":31,"timedOut":false},"elevationMetadata":{"ellipsoidToGeoidDifference":-28.885904201182168,"geoidElevation":false}}