{"requestParameters":{"date":"2018/04/02","walkSpeed":"1.33","walkReluctance":"2.0","fromPlace":"48.394683,-71.07073599","maxWalkDistance":"3000","waitReluctance":"1.0","carSpeed":"33","numItineraries":"3","waitAtBeginningFactor":"0.4","mode":"TRANSIT,WALK","ignoreRealtimeUpdates":"false","stairsReluctance":"2.0","toPlace":"48.412579,-71.076149","time":"17:15:00"},"plan":{"date":1522703700000,"from":{"name":"Origin","lon":-71.07073599,"lat":48.394683,"orig":"","vertexType":"NORMAL"},"to":{"name":"Destination","lon":-71.076149,"lat":48.412579,"orig":"","vertexType":"NORMAL"},"itineraries":[{"duration":870,"startTime":1522705226000,"endTime":1522706096000,"walkTime":388,"transitTime":480,"waitingTime":2,"walkDistance":505.8078345853744,"walkLimitExceeded":false,"elevationLost":0.0,"elevationGained":0.0,"transfers":0,"legs":[{"startTime":1522705226000,"endTime":1522705340000,"departureDelay":0,"arrivalDelay":0,"realTime":false,"distance":151.333,"pathway":false,"mode":"WALK","route":"","agencyTimeZoneOffset":-14400000,"interlineWithPreviousLeg":false,"from":{"name":"Origin","lon":-71.07073599,"lat":48.394683,"departure":1522705226000,"orig":"","vertexType":"NORMAL"},"to":{"name":"Familiprix du boul. Barrette","stopId":"1:1931","stopCode":"1931","lon":-71.072721,"lat":48.395187,"arrival":1522705340000,"departure":1522705341000,"zoneId":"NA","stopIndex":1,"stopSequence":2,"vertexType":"TRANSIT"},"legGeometry":{"points":"m_kfHtaxpLaDhI","length":2},"rentedBike":false,"transitLeg":false,"duration":114.0,"steps":[{"distance":151.333,"relativeDirection":"DEPART","streetName":"Boulevard Barrette","absoluteDirection":"NORTHWEST","stayOn":false,"area":false,"bogusName":false,"lon":-71.07114192818153,"lat":48.394315343374345,"elevation":[]}]},{"startTime":1522705341000,"endTime":1522705821000,"departureDelay":0,"arrivalDelay":0,"realTime":false,"distance":4720.665337221606,"pathway":false,"mode":"BUS","route":"14","agencyName":"Société de Transport du Saguenay","agencyUrl":"http://ville.saguenay.ca/fr/services-aux-citoyens/transport-sts","agencyTimeZoneOffset":-14400000,"routeColor":"C0C000","routeType":3,"routeId":"1:14","routeTextColor":"000000","interlineWithPreviousLeg":false,"tripBlockId":"33","headsign":"Terminus Chicoutimi","agencyId":"0","tripId":"1:218194","serviceDate":"20180402","from":{"name":"Familiprix du boul. Barrette","stopId":"1:1931","stopCode":"1931","lon":-71.072721,"lat":48.395187,"arrival":1522705340000,"departure":1522705341000,"zoneId":"NA","stopIndex":1,"stopSequence":2,"vertexType":"TRANSIT"},"to":{"name":"Jolliet / Garnier","stopId":"1:429","stopCode":"429","lon":-71.077656,"lat":48.410118,"arrival":1522705821000,"departure":1522705822000,"zoneId":"NA","stopIndex":20,"stopSequence":21,"vertexType":"TRANSIT"},"legGeometry":{"points":"adkfHjlxpLsAnDgGzSWfAcD`Mi@dCgChLmCzMwGd\\aDxOdFtFhCtCdDY|F_On@aB`B_GNoBvAyT|@sNuAyAuF}F}AaB_BkAC@qC\\gAWiBwBiKgMiCwEgEyHCGy@uB}@rAa@nAc@lFEf@mGvUYfAqCs@ICMCqFmDc@s@mAkBuEoE","length":45},"routeShortName":"14","routeLongName":"Coopérative","rentedBike":false,"transitLeg":true,"duration":480.0,"steps":[]},{"startTime":1522705822000,"endTime":1522706096000,"departureDelay":0,"arrivalDelay":0,"realTime":false,"distance":354.44100000000003,"pathway":false,"mode":"WALK","route":"","agencyTimeZoneOffset":-14400000,"interlineWithPreviousLeg":false,"from":{"name":"Jolliet / Garnier","stopId":"1:429","stopCode":"429","lon":-71.077656,"lat":48.410118,"arrival":1522705821000,"departure":1522705822000,"zoneId":"NA","stopIndex":20,"stopSequence":21,"vertexType":"TRANSIT"},"to":{"name":"Destination","lon":-71.076149,"lat":48.412579,"arrival":1522706096000,"orig":"","vertexType":"NORMAL"},"legGeometry":{"points":"ibnfHpjypLUUeCyBcAzCa@BmA{@_AeBg@kB@q@","length":9},"rentedBike":false,"transitLeg":false,"duration":274.0,"steps":[{"distance":101.65,"relativeDirection":"DEPART","streetName":"Rue Jolliet","absoluteDirection":"NORTHEAST","stayOn":false,"area":false,"bogusName":false,"lon":-71.07768666435636,"lat":48.4101311551775,"elevation":[]},{"distance":252.791,"relativeDirection":"LEFT","streetName":"Rue Marquette","absoluteDirection":"NORTHWEST","stayOn":false,"area":false,"bogusName":false,"lon":-71.07696940000001,"lat":48.410911500000005,"elevation":[]}]}],"tooSloped":false},{"duration":1741,"startTime":1522705120000,"endTime":1522706861000,"walkTime":812,"transitTime":927,"waitingTime":2,"walkDistance":1040.1444360845971,"walkLimitExceeded":false,"elevationLost":0.0,"elevationGained":0.0,"transfers":0,"legs":[{"startTime":1522705120000,"endTime":1522705259000,"departureDelay":0,"arrivalDelay":0,"realTime":false,"distance":168.702,"pathway":false,"mode":"WALK","route":"","agencyTimeZoneOffset":-14400000,"interlineWithPreviousLeg":false,"from":{"name":"Origin","lon":-71.07073599,"lat":48.394683,"departure":1522705120000,"orig":"","vertexType":"NORMAL"},"to":{"name":"Roitelets / Sapins","stopId":"1:1543","stopCode":"1543","lon":-71.069553,"lat":48.393375,"arrival":1522705259000,"departure":1522705260000,"zoneId":"NA","stopIndex":0,"stopSequence":1,"vertexType":"TRANSIT"},"legGeometry":{"points":"m_kfHtaxpLz@}BPc@NNBALIlA{C?A","length":8},"rentedBike":false,"transitLeg":false,"duration":139.0,"steps":[{"distance":73.983,"relativeDirection":"DEPART","streetName":"Boulevard Barrette","absoluteDirection":"SOUTHEAST","stayOn":false,"area":false,"bogusName":false,"lon":-71.07114192818153,"lat":48.394315343374345,"elevation":[]},{"distance":10.705,"relativeDirection":"RIGHT","streetName":"Boulevard Talbot","absoluteDirection":"SOUTHWEST","stayOn":false,"area":false,"bogusName":false,"lon":-71.0703318,"lat":48.3939238,"elevation":[]},{"distance":84.014,"relativeDirection":"LEFT","streetName":"bike path","absoluteDirection":"SOUTHEAST","stayOn":false,"area":false,"bogusName":true,"lon":-71.07041720000001,"lat":48.393846,"elevation":[]}]},{"startTime":1522705260000,"endTime":1522706187000,"departureDelay":0,"arrivalDelay":0,"realTime":false,"distance":5727.748433288822,"pathway":false,"mode":"BUS","route":"15","agencyName":"Société de Transport du Saguenay","agencyUrl":"http://ville.saguenay.ca/fr/services-aux-citoyens/transport-sts","agencyTimeZoneOffset":-14400000,"routeColor":"FF00FF","routeType":3,"routeId":"1:15","routeTextColor":"FFFFFF","interlineWithPreviousLeg":false,"tripBlockId":"32","headsign":"Terminus Chicoutimi","agencyId":"0","tripId":"1:218169","serviceDate":"20180402","from":{"name":"Roitelets / Sapins","stopId":"1:1543","stopCode":"1543","lon":-71.069553,"lat":48.393375,"arrival":1522705259000,"departure":1522705260000,"zoneId":"NA","stopIndex":0,"stopSequence":1,"vertexType":"TRANSIT"},"to":{"name":"École secondaire de l'Odyssé Dominique-Racine","stopId":"1:580","stopCode":"580","lon":-71.067703,"lat":48.412977,"arrival":1522706187000,"departure":1522706188000,"zoneId":"NA","stopIndex":24,"stopSequence":25,"vertexType":"TRANSIT"},"legGeometry":{"points":"_zjfHfwwpLx@}BHa@NaADq@@y@Cy@I{@Ka@O[Sg@c@mAWwAMyA?EC]?wABuABmFB{@BmDFuH@i@F[FsC@c@TuGEGVsHPuDLuBXsFDoA?W@]Cu@GcAKu@Q_ASo@a@y@a@o@MOUUeCqBiDsDqE{EiAcAcB_AqBgA_AQaBSaBG_@Bu@FG?h@fNKnDpCfBkAzDgA}@y@q@sDy@GAeGT~@~KKrKyAnL[hBUxAm@nCcAlDeCvGmA|CUr@}@~A_@\\_DvCEZcA|@UP_@d@Yl@oBdFeCxG_CfGYVQXS\\dK|HlFZbC\\p@zA\\rB@hBiArG{BNw@FiG}@iDwAECcCcBo@y@sEeGe@o@qAa@m@MoB?C@}BZwAc@oA_Bs@gDCKZ{Di@QECc@_@","length":118},"routeShortName":"15","routeLongName":"Term. Chic / Costco","rentedBike":false,"transitLeg":true,"duration":927.0,"steps":[]},{"startTime":1522706188000,"endTime":1522706861000,"departureDelay":0,"arrivalDelay":0,"realTime":false,"distance":871.268,"pathway":false,"mode":"WALK","route":"","agencyTimeZoneOffset":-14400000,"interlineWithPreviousLeg":false,"from":{"name":"École secondaire de l'Odyssé Dominique-Racine","stopId":"1:580","stopCode":"580","lon":-71.067703,"lat":48.412977,"arrival":1522706187000,"departure":1522706188000,"zoneId":"NA","stopIndex":24,"stopSequence":25,"vertexType":"TRANSIT"},"to":{"name":"Destination","lon":-71.076149,"lat":48.412579,"arrival":1522706861000,"orig":"","vertexType":"NORMAL"},"legGeometry":{"points":"gtnfHplwpL{@u@UIIP}AhEi@xAc@jAzBtEtBdEjEnI@R^jF`@rFuA^[h@?b@","length":16},"rentedBike":false,"transitLeg":false,"duration":673.0,"steps":[{"distance":52.222,"relativeDirection":"DEPART","streetName":"Rue Bégin","absoluteDirection":"NORTHEAST","stayOn":false,"area":false,"bogusName":false,"lon":-71.06776357747735,"lat":48.41300064951352,"elevation":[]},{"distance":174.902,"relativeDirection":"LEFT","streetName":"Rue Des Oblats Est","absoluteDirection":"NORTHWEST","stayOn":false,"area":false,"bogusName":false,"lon":-71.06744280000001,"lat":48.413416500000004,"elevation":[]},{"distance":559.393,"relativeDirection":"LEFT","streetName":"Rue Jolliet","absoluteDirection":"SOUTHWEST","stayOn":false,"area":false,"bogusName":false,"lon":-71.0693767,"lat":48.414325600000005,"elevation":[]},{"distance":84.751,"relativeDirection":"RIGHT","streetName":"Rue Marquette","absoluteDirection":"NORTH","stayOn":false,"area":false,"bogusName":false,"lon":-71.07561460000001,"lat":48.4117523,"elevation":[]}]}],"tooSloped":false},{"duration":870,"startTime":1522707026000,"endTime":1522707896000,"walkTime":388,"transitTime":480,"waitingTime":2,"walkDistance":505.8078345853744,"walkLimitExceeded":false,"elevationLost":0.0,"elevationGained":0.0,"transfers":0,"legs":[{"startTime":1522707026000,"endTime":1522707140000,"departureDelay":0,"arrivalDelay":0,"realTime":false,"distance":151.333,"pathway":false,"mode":"WALK","route":"","agencyTimeZoneOffset":-14400000,"interlineWithPreviousLeg":false,"from":{"name":"Origin","lon":-71.07073599,"lat":48.394683,"departure":1522707026000,"orig":"","vertexType":"NORMAL"},"to":{"name":"Familiprix du boul. Barrette","stopId":"1:1931","stopCode":"1931","lon":-71.072721,"lat":48.395187,"arrival":1522707140000,"departure":1522707141000,"zoneId":"NA","stopIndex":1,"stopSequence":2,"vertexType":"TRANSIT"},"legGeometry":{"points":"m_kfHtaxpLaDhI","length":2},"rentedBike":false,"transitLeg":false,"duration":114.0,"steps":[{"distance":151.333,"relativeDirection":"DEPART","streetName":"Boulevard Barrette","absoluteDirection":"NORTHWEST","stayOn":false,"area":false,"bogusName":false,"lon":-71.07114192818153,"lat":48.394315343374345,"elevation":[]}]},{"startTime":1522707141000,"endTime":1522707621000,"departureDelay":0,"arrivalDelay":0,"realTime":false,"distance":4720.665337221606,"pathway":false,"mode":"BUS","route":"14","agencyName":"Société de Transport du Saguenay","agencyUrl":"http://ville.saguenay.ca/fr/services-aux-citoyens/transport-sts","agencyTimeZoneOffset":-14400000,"routeColor":"C0C000","routeType":3,"routeId":"1:14","routeTextColor":"000000","interlineWithPreviousLeg":false,"tripBlockId":"31","headsign":"Terminus Chicoutimi","agencyId":"0","tripId":"1:218145","serviceDate":"20180402","from":{"name":"Familiprix du boul. Barrette","stopId":"1:1931","stopCode":"1931","lon":-71.072721,"lat":48.395187,"arrival":1522707140000,"departure":1522707141000,"zoneId":"NA","stopIndex":1,"stopSequence":2,"vertexType":"TRANSIT"},"to":{"name":"Jolliet / Garnier","stopId":"1:429","stopCode":"429","lon":-71.077656,"lat":48.410118,"arrival":1522707621000,"departure":1522707622000,"zoneId":"NA","stopIndex":20,"stopSequence":21,"vertexType":"TRANSIT"},"legGeometry":{"points":"adkfHjlxpLsAnDgGzSWfAcD`Mi@dCgChLmCzMwGd\\aDxOdFtFhCtCdDY|F_On@aB`B_GNoBvAyT|@sNuAyAuF}F}AaB_BkAC@qC\\gAWiBwBiKgMiCwEgEyHCGy@uB}@rAa@nAc@lFEf@mGvUYfAqCs@ICMCqFmDc@s@mAkBuEoE","length":45},"routeShortName":"14","routeLongName":"Coopérative","rentedBike":false,"transitLeg":true,"duration":480.0,"steps":[]},{"startTime":1522707622000,"endTime":1522707896000,"departureDelay":0,"arrivalDelay":0,"realTime":false,"distance":354.44100000000003,"pathway":false,"mode":"WALK","route":"","agencyTimeZoneOffset":-14400000,"interlineWithPreviousLeg":false,"from":{"name":"Jolliet / Garnier","stopId":"1:429","stopCode":"429","lon":-71.077656,"lat":48.410118,"arrival":1522707621000,"departure":1522707622000,"zoneId":"NA","stopIndex":20,"stopSequence":21,"vertexType":"TRANSIT"},"to":{"name":"Destination","lon":-71.076149,"lat":48.412579,"arrival":1522707896000,"orig":"","vertexType":"NORMAL"},"legGeometry":{"points":"ibnfHpjypLUUeCyBcAzCa@BmA{@_AeBg@kB@q@","length":9},"rentedBike":false,"transitLeg":false,"duration":274.0,"steps":[{"distance":101.65,"relativeDirection":"DEPART","streetName":"Rue Jolliet","absoluteDirection":"NORTHEAST","stayOn":false,"area":false,"bogusName":false,"lon":-71.07768666435636,"lat":48.4101311551775,"elevation":[]},{"distance":252.791,"relativeDirection":"LEFT","streetName":"Rue Marquette","absoluteDirection":"NORTHWEST","stayOn":false,"area":false,"bogusName":false,"lon":-71.07696940000001,"lat":48.410911500000005,"elevation":[]}]}],"tooSloped":false}]},"debugOutput":{"precalculationTime":36,"pathCalculationTime":33,"pathTimes":[18,8,7],"renderingTime":1,"totalTime":70,"timedOut":false},"elevationMetadata":{"ellipsoidToGeoidDifference":-28.885904201182168,"geoidElevation":false}}