{"requestParameters":{"date":"2018/04/02","walkSpeed":"1.33","walkReluctance":"2.0","fromPlace":"48.423148,-71.052406","maxWalkDistance":"3000","waitReluctance":"1.0","carSpeed":"33","numItineraries":"3","waitAtBeginningFactor":"0.4","mode":"TRANSIT,WALK","ignoreRealtimeUpdates":"false","stairsReluctance":"2.0","toPlace":"48.396762,-71.066557","time":"17:30:00"},"plan":{"date":1522704600000,"from":{"name":"Origin","lon":-71.052406,"lat":48.423148,"orig":"","vertexType":"NORMAL"},"to":{"name":"Destination","lon":-71.066557,"lat":48.396762,"orig":"","vertexType":"NORMAL"},"itineraries":[{"duration":1254,"startTime":1522704848000,"endTime":1522706102000,"walkTime":590,"transitTime":662,"waitingTime":2,"walkDistance":746.3561503707723,"walkLimitExceeded":false,"elevationLost":0.0,"elevationGained":0.0,"transfers":0,"legs":[{"startTime":1522704848000,"endTime":1522705059000,"departureDelay":0,"arrivalDelay":0,"realTime":false,"distance":256.03600000000006,"pathway":false,"mode":"WALK","route":"","agencyTimeZoneOffset":-14400000,"interlineWithPreviousLeg":false,"from":{"name":"Origin","lon":-71.052406,"lat":48.423148,"departure":1522704848000,"orig":"","vertexType":"NORMAL"},"to":{"name":"Cégep de Chicoutimi (voie réservée)","stopId":"1:75","stopCode":"75","lon":-71.055283,"lat":48.422761,"arrival":1522705059000,"departure":1522705060000,"zoneId":"NA","stopIndex":9,"stopSequence":10,"vertexType":"TRANSIT"},"legGeometry":{"points":"qspfHpltpL?n@CVWrBOpAP`AN`ANnCJAZELAFh@","length":12},"rentedBike":false,"transitLeg":false,"duration":211.0,"steps":[{"distance":239.42900000000003,"relativeDirection":"DEPART","streetName":"service road","absoluteDirection":"WEST","stayOn":false,"area":false,"bogusName":false,"lon":-71.05240568397582,"lat":48.423135724671475,"elevation":[]},{"distance":16.607,"relativeDirection":"RIGHT","streetName":"Chemin Saint Thomas","absoluteDirection":"WEST","stayOn":false,"area":false,"bogusName":false,"lon":-71.0550802,"lat":48.4228351,"elevation":[]}]},{"startTime":1522705060000,"endTime":1522705722000,"departureDelay":0,"arrivalDelay":0,"realTime":false,"distance":3626.71011601587,"pathway":false,"mode":"BUS","route":"175","agencyName":"Société de Transport du Saguenay","agencyUrl":"http://ville.saguenay.ca/fr/services-aux-citoyens/transport-sts","agencyTimeZoneOffset":-14400000,"routeColor":"FF00FF","routeType":3,"routeId":"1:175","routeTextColor":"FFFFFF","interlineWithPreviousLeg":false,"tripBlockId":"77","headsign":"Costco","agencyId":"0","tripId":"1:218639","serviceDate":"20180402","from":{"name":"Cégep de Chicoutimi (voie réservée)","stopId":"1:75","stopCode":"75","lon":-71.055283,"lat":48.422761,"arrival":1522705059000,"departure":1522705060000,"zoneId":"NA","stopIndex":9,"stopSequence":10,"vertexType":"TRANSIT"},"to":{"name":"boul. Talbot (no.1600) (mode Choc)","stopId":"1:86","stopCode":"86","lon":-71.06283,"lat":48.40025,"arrival":1522705722000,"departure":1522705723000,"zoneId":"NA","stopIndex":22,"stopSequence":23,"vertexType":"TRANSIT"},"legGeometry":{"points":"oqpfHr~tpLC]g@yEzDuLbBbBvAxAMx@|@v@`A~@Xw@~D~DPxFZtA~ApE`N{LpFmEb@[ROl@[vDQXKfA[|@q@fAsBlEmMr@sBhCsKz@dAjB|@dM`GzCvAXrCr@~Gx@]PEr@ObACn@FrBb@|@Ch@Kx@U~HsB^KZ|DJpII~Fa@rFUzBi@bDUxAm@nCcAlDM^RTfD`DjF`FjCrC","length":58},"routeShortName":"175","routeLongName":"Term. Chic / Costco","rentedBike":false,"transitLeg":true,"duration":662.0,"steps":[]},{"startTime":1522705723000,"endTime":1522706102000,"departureDelay":0,"arrivalDelay":0,"realTime":false,"distance":490.16,"pathway":false,"mode":"WALK","route":"","agencyTimeZoneOffset":-14400000,"interlineWithPreviousLeg":false,"from":{"name":"boul. Talbot (no.1600) (mode Choc)","stopId":"1:86","stopCode":"86","lon":-71.06283,"lat":48.40025,"arrival":1522705722000,"departure":1522705723000,"zoneId":"NA","stopIndex":22,"stopSequence":23,"vertexType":"TRANSIT"},"to":{"name":"Destination","lon":-71.066557,"lat":48.396762,"arrival":1522706102000,"orig":"","vertexType":"NORMAL"},"legGeometry":{"points":"edlfHbmvpLt@`AhCfDLNPc@V\\FHNPvIzMj@z@","length":10},"rentedBike":false,"transitLeg":false,"duration":379.0,"steps":[{"distance":490.16,"relativeDirection":"DEPART","streetName":"Boulevard Talbot","absoluteDirection":"SOUTHWEST","stayOn":false,"area":false,"bogusName":false,"lon":-71.06273598252479,"lat":48.400199941215426,"elevation":[]}]}],"tooSloped":false},{"duration":1254,"startTime":1522705748000,"endTime":1522707002000,"walkTime":590,"transitTime":662,"waitingTime":2,"walkDistance":746.3561503707723,"walkLimitExceeded":false,"elevationLost":0.0,"elevationGained":0.0,"transfers":0,"legs":[{"startTime":1522705748000,"endTime":1522705959000,"departureDelay":0,"arrivalDelay":0,"realTime":false,"distance":256.03600000000006,"pathway":false,"mode":"WALK","route":"","agencyTimeZoneOffset":-14400000,"interlineWithPreviousLeg":false,"from":{"name":"Origin","lon":-71.052406,"lat":48.423148,"departure":1522705748000,"orig":"","vertexType":"NORMAL"},"to":{"name":"Cégep de Chicoutimi (voie réservée)","stopId":"1:75","stopCode":"75","lon":-71.055283,"lat":48.422761,"arrival":1522705959000,"departure":1522705960000,"zoneId":"NA","stopIndex":9,"stopSequence":10,"vertexType":"TRANSIT"},"legGeometry":{"points":"qspfHpltpL?n@CVWrBOpAP`AN`ANnCJAZELAFh@","length":12},"rentedBike":false,"transitLeg":false,"duration":211.0,"steps":[{"distance":239.42900000000003,"relativeDirection":"DEPART","streetName":"service road","absoluteDirection":"WEST","stayOn":false,"area":false,"bogusName":false,"lon":-71.05240568397582,"lat":48.423135724671475,"elevation":[]},{"distance":16.607,"relativeDirection":"RIGHT","streetName":"Chemin Saint Thomas","absoluteDirection":"WEST","stayOn":false,"area":false,"bogusName":false,"lon":-71.0550802,"lat":48.4228351,"elevation":[]}]},{"startTime":1522705960000,"endTime":1522706622000,"departureDelay":0,"arrivalDelay":0,"realTime":false,"distance":3626.71011601587,"pathway":false,"mode":"BUS","route":"175","agencyName":"Société de Transport du Saguenay","agencyUrl":"http://ville.saguenay.ca/fr/services-aux-citoyens/transport-sts","agencyTimeZoneOffset":-14400000,"routeColor":"FF00FF","routeType":3,"routeId":"1:175","routeTextColor":"FFFFFF","interlineWithPreviousLeg":false,"tripBlockId":"7","headsign":"Costco","agencyId":"0","tripId":"1:217343","serviceDate":"20180402","from":{"name":"Cégep de Chicoutimi (voie réservée)","stopId":"1:75","stopCode":"75","lon":-71.055283,"lat":48.422761,"arrival":1522705959000,"departure":1522705960000,"zoneId":"NA","stopIndex":9,"stopSequence":10,"vertexType":"TRANSIT"},"to":{"name":"boul. Talbot (no.1600) (mode Choc)","stopId":"1:86","stopCode":"86","lon":-71.06283,"lat":48.40025,"arrival":1522706622000,"departure":1522706623000,"zoneId":"NA","stopIndex":22,"stopSequence":23,"vertexType":"TRANSIT"},"legGeometry":{"points":"oqpfHr~tpLC]g@yEzDuLbBbBvAxAMx@|@v@`A~@Xw@~D~DPxFZtA~ApE`N{LpFmEb@[ROl@[vDQXKfA[|@q@fAsBlEmMr@sBhCsKz@dAjB|@dM`GzCvAXrCr@~Gx@]PEr@ObACn@FrBb@|@Ch@Kx@U~HsB^KZ|DJpII~Fa@rFUzBi@bDUxAm@nCcAlDM^RTfD`DjF`FjCrC","length":58},"routeShortName":"175","routeLongName":"Term. Chic / Costco","rentedBike":false,"transitLeg":true,"duration":662.0,"steps":[]},{"startTime":1522706623000,"endTime":1522707002000,"departureDelay":0,"arrivalDelay":0,"realTime":false,"distance":490.16,"pathway":false,"mode":"WALK","route":"","agencyTimeZoneOffset":-14400000,"interlineWithPreviousLeg":false,"from":{"name":"boul. Talbot (no.1600) (mode Choc)","stopId":"1:86","stopCode":"86","lon":-71.06283,"lat":48.40025,"arrival":1522706622000,"departure":1522706623000,"zoneId":"NA","stopIndex":22,"stopSequence":23,"vertexType":"TRANSIT"},"to":{"name":"Destination","lon":-71.066557,"lat":48.396762,"arrival":1522707002000,"orig":"","vertexType":"NORMAL"},"legGeometry":{"points":"edlfHbmvpLt@`AhCfDLNPc@V\\FHNPvIzMj@z@","length":10},"rentedBike":false,"transitLeg":false,"duration":379.0,"steps":[{"distance":490.16,"relativeDirection":"DEPART","streetName":"Boulevard Talbot","absoluteDirection":"SOUTHWEST","stayOn":false,"area":false,"bogusName":false,"lon":-71.06273598252479,"lat":48.400199941215426,"elevation":[]}]}],"tooSloped":false},{"duration":1843,"startTime":1522705613000,"endTime":1522707456000,"walkTime":606,"transitTime":1235,"waitingTime":2,"walkDistance":773.1271954845852,"walkLimitExceeded":false,"elevationLost":0.0,"elevationGained":0.0,"transfers":0,"legs":[{"startTime":1522705613000,"endTime":1522705824000,"departureDelay":0,"arrivalDelay":0,"realTime":false,"distance":256.03600000000006,"pathway":false,"mode":"WALK","route":"","agencyTimeZoneOffset":-14400000,"interlineWithPreviousLeg":false,"from":{"name":"Origin","lon":-71.052406,"lat":48.423148,"departure":1522705613000,"orig":"","vertexType":"NORMAL"},"to":{"name":"Cégep de Chicoutimi (voie réservée)","stopId":"1:75","stopCode":"75","lon":-71.055283,"lat":48.422761,"arrival":1522705824000,"departure":1522705825000,"zoneId":"NA","stopIndex":6,"stopSequence":7,"vertexType":"TRANSIT"},"legGeometry":{"points":"qspfHpltpL?n@CVWrBOpAP`AN`ANnCJAZELAFh@","length":12},"rentedBike":false,"transitLeg":false,"duration":211.0,"steps":[{"distance":239.42900000000003,"relativeDirection":"DEPART","streetName":"service road","absoluteDirection":"WEST","stayOn":false,"area":false,"bogusName":false,"lon":-71.05240568397582,"lat":48.423135724671475,"elevation":[]},{"distance":16.607,"relativeDirection":"RIGHT","streetName":"Chemin Saint Thomas","absoluteDirection":"WEST","stayOn":false,"area":false,"bogusName":false,"lon":-71.0550802,"lat":48.4228351,"elevation":[]}]},{"startTime":1522705825000,"endTime":1522707060000,"departureDelay":0,"arrivalDelay":0,"realTime":false,"distance":8070.9803265143655,"pathway":false,"mode":"BUS","route":"14","agencyName":"Société de Transport du Saguenay","agencyUrl":"http://ville.saguenay.ca/fr/services-aux-citoyens/transport-sts","agencyTimeZoneOffset":-14400000,"routeColor":"C0C000","routeType":3,"routeId":"1:14","routeTextColor":"000000","interlineWithPreviousLeg":false,"tripBlockId":"30","headsign":"Talbot / Barrette","agencyId":"0","tripId":"1:218109","serviceDate":"20180402","from":{"name":"Cégep de Chicoutimi (voie réservée)","stopId":"1:75","stopCode":"75","lon":-71.055283,"lat":48.422761,"arrival":1522705824000,"departure":1522705825000,"zoneId":"NA","stopIndex":6,"stopSequence":7,"vertexType":"TRANSIT"},"to":{"name":"Roitelets / Sapins","stopId":"1:1543","stopCode":"1543","lon":-71.069553,"lat":48.393375,"arrival":1522707060000,"departure":1522707061000,"zoneId":"NA","stopIndex":35,"stopSequence":36,"vertexType":"TRANSIT"},"legGeometry":{"points":"mqpfHr~tpLc@iEAm@bAcDTcAtA{DJI|AxAvAvAQv@~@z@dA`ATq@`E~DL`@E`Ex@hDd@`B}FtFaAzAm@xAe@jCa@nDiAbm@SpKM`H]vBhDVzCTcAvCO^bEbEzK`LfBeEtK`KhAdAnCbCvBpCNR~BxAxBf@z@h@vAz@z@{DrCoITTlElEtAnB`@l@pFrD@?fDr@XgAjFuR\\yADm@b@gFd@_B`A}@tEvJBDvC`FtJ|LLNlClC|@^hCYVExCjCb@d@vE`F`BhB?pHaBhRqAbLK~@qBxFqB|FcC~GyC\\aDkDcFsF~CgOtGm[j@oCvEoSl@_CxCmLjAeFpCeKrByHfAqCvH_SLa@","length":94},"routeShortName":"14","routeLongName":"Coopérative","rentedBike":false,"transitLeg":true,"duration":1235.0,"steps":[]},{"startTime":1522707061000,"endTime":1522707456000,"departureDelay":0,"arrivalDelay":0,"realTime":false,"distance":516.963,"pathway":false,"mode":"WALK","route":"","agencyTimeZoneOffset":-14400000,"interlineWithPreviousLeg":false,"from":{"name":"Roitelets / Sapins","stopId":"1:1543","stopCode":"1543","lon":-71.069553,"lat":48.393375,"arrival":1522707060000,"departure":1522707061000,"zoneId":"NA","stopIndex":35,"stopSequence":36,"vertexType":"TRANSIT"},"to":{"name":"Destination","lon":-71.066557,"lat":48.396762,"arrival":1522707456000,"orig":"","vertexType":"NORMAL"},"legGeometry":{"points":"oyjfHxwwpL?@mAzCMHC@OO}BmCeCuCaHcJk@_A","length":10},"rentedBike":false,"transitLeg":false,"duration":395.0,"steps":[{"distance":84.014,"relativeDirection":"DEPART","streetName":"bike path","absoluteDirection":"NORTHWEST","stayOn":false,"area":false,"bogusName":true,"lon":-71.0695674967601,"lat":48.39336056343373,"elevation":[]},{"distance":432.949,"relativeDirection":"RIGHT","streetName":"Boulevard Talbot","absoluteDirection":"NORTHEAST","stayOn":false,"area":false,"bogusName":false,"lon":-71.07041720000001,"lat":48.393846,"elevation":[]}]}],"tooSloped":false}]},"debugOutput":{"precalculationTime":32,"pathCalculationTime":30,"pathTimes":[16,6,7],"renderingTime":0,"totalTime":62,"timedOut":false},"elevationMetadata":{"ellipsoidToGeoidDifference":-28.885904201182168,"geoidElevation":false}}