{"requestParameters":{"date":"2018/04/02","walkSpeed":"1.33","walkReluctance":"2.0","fromPlace":"48.331353,-71.13941","maxWalkDistance":"3000","waitReluctance":"1.0","carSpeed":"33","numItineraries":"3","waitAtBeginningFactor":"0.4","mode":"TRANSIT,WALK","ignoreRealtimeUpdates":"false","stairsReluctance":"2.0","toPlace":"48.317087,-71.134075","time":"19:30:00"},"plan":{"date":1522711800000,"from":{"name":"Origin","lon":-71.13941,"lat":48.331353,"orig":"","vertexType":"NORMAL"},"to":{"name":"Destination","lon":-71.134075,"lat":48.317087,"orig":"","vertexType":"NORMAL"},"itineraries":[{"duration":1549,"startTime":1522711800000,"endTime":1522713349000,"walkTime":1549,"transitTime":0,"waitingTime":0,"walkDistance":2034.128263154498,"walkLimitExceeded":false,"elevationLost":0.0,"elevationGained":0.0,"transfers":0,"legs":[{"startTime":1522711800000,"endTime":1522713349000,"departureDelay":0,"arrivalDelay":0,"realTime":false,"distance":2034.023,"pathway":false,"mode":"WALK","route":"","agencyTimeZoneOffset":-14400000,"interlineWithPreviousLeg":false,"from":{"name":"Origin","lon":-71.13941,"lat":48.331353,"departure":1522711800000,"orig":"","vertexType":"NORMAL"},"to":{"name":"Destination","lon":-71.134075,"lat":48.317087,"arrival":1522713349000,"orig":"","vertexType":"NORMAL"},"legGeometry":{"points":"wt~eH|leqLStAG^Eb@Cd@AR@N@L@H@PFPFNTl@Zp@Pj@Vk@~@cCpAyDrAsEpAaEd@aAjAiBf@o@V[BEJIx@w@~@m@jAs@p@QbAUpAKnKk@H@hF\\jNvAnFtFjBkF~AqElAmDv@wB","length":41},"rentedBike":false,"transitLeg":false,"duration":1549.0,"steps":[{"distance":183.25,"relativeDirection":"DEPART","streetName":"Chemin des Bouleaux","absoluteDirection":"WEST","stayOn":false,"area":false,"bogusName":false,"lon":-71.13950463243535,"lat":48.3311657507363,"elevation":[]},{"distance":1518.98,"relativeDirection":"LEFT","streetName":"Rang Saint-Pierre","absoluteDirection":"SOUTHEAST","stayOn":false,"area":false,"bogusName":false,"lon":-71.1417237,"lat":48.3309007,"elevation":[]},{"distance":331.793,"relativeDirection":"LEFT","streetName":"Rue du Boulevard","absoluteDirection":"SOUTHEAST","stayOn":false,"area":false,"bogusName":false,"lon":-71.1371469,"lat":48.3193853,"elevation":[]}]}],"tooSloped":false}]},"debugOutput":{"precalculationTime":2,"pathCalculationTime":4,"pathTimes":[1],"renderingTime":0,"totalTime":6,"timedOut":false},"elevationMetadata":{"ellipsoidToGeoidDifference":-28.885904201182168,"geoidElevation":false}}