{"requestParameters":{"date":"2018/04/02","walkSpeed":"1.33","walkReluctance":"2.0","fromPlace":"48.317087,-71.134075","maxWalkDistance":"3000","waitReluctance":"1.0","carSpeed":"33","numItineraries":"3","waitAtBeginningFactor":"0.4","mode":"TRANSIT,WALK","ignoreRealtimeUpdates":"false","stairsReluctance":"2.0","toPlace":"48.331353,-71.13941","time":"20:0:00"},"plan":{"date":1522713600000,"from":{"name":"Origin","lon":-71.134075,"lat":48.317087,"orig":"","vertexType":"NORMAL"},"to":{"name":"Destination","lon":-71.13941,"lat":48.331353,"orig":"","vertexType":"NORMAL"},"itineraries":[{"duration":1548,"startTime":1522713600000,"endTime":1522715148000,"walkTime":1548,"transitTime":0,"waitingTime":0,"walkDistance":2034.1147293203485,"walkLimitExceeded":false,"elevationLost":0.0,"elevationGained":0.0,"transfers":0,"legs":[{"startTime":1522713600000,"endTime":1522715148000,"departureDelay":0,"arrivalDelay":0,"realTime":false,"distance":2034.0230000000001,"pathway":false,"mode":"WALK","route":"","agencyTimeZoneOffset":-14400000,"interlineWithPreviousLeg":false,"from":{"name":"Origin","lon":-71.134075,"lat":48.317087,"departure":1522713600000,"orig":"","vertexType":"NORMAL"},"to":{"name":"Destination","lon":-71.13941,"lat":48.331353,"arrival":1522715148000,"orig":"","vertexType":"NORMAL"},"legGeometry":{"points":"q`|eH`gdqLw@vBmAlD_BpEkBjFoFuFkNwAiF]IAoKj@qAJcATq@PkAr@_Al@y@v@KHCDWZg@n@kAhBe@`AqA`EsArEqAxD_AbCWj@Qk@[q@Um@GOGQAQAIAMAO@SBe@Dc@F_@RuA","length":41},"rentedBike":false,"transitLeg":false,"duration":1548.0,"steps":[{"distance":331.793,"relativeDirection":"DEPART","streetName":"Rue du Boulevard","absoluteDirection":"NORTHWEST","stayOn":false,"area":false,"bogusName":false,"lon":-71.13344420212597,"lat":48.31769976907187,"elevation":[]},{"distance":1518.98,"relativeDirection":"RIGHT","streetName":"Rang Saint-Pierre","absoluteDirection":"NORTHEAST","stayOn":false,"area":false,"bogusName":false,"lon":-71.1371469,"lat":48.3193853,"elevation":[]},{"distance":183.25,"relativeDirection":"RIGHT","streetName":"Chemin des Bouleaux","absoluteDirection":"NORTHEAST","stayOn":false,"area":false,"bogusName":false,"lon":-71.1417237,"lat":48.3309007,"elevation":[]}]}],"tooSloped":false}]},"debugOutput":{"precalculationTime":1,"pathCalculationTime":10,"pathTimes":[4],"renderingTime":0,"totalTime":11,"timedOut":false},"elevationMetadata":{"ellipsoidToGeoidDifference":-28.885904201182168,"geoidElevation":false}}